{
  "accelerations": [
    {
      "x": 9.799206733703613,
      "y": -0.08853443711996078,
      "z": -0.052043892443180084,
      "time_usec": 17008190926
    },
    {
      "x": 9.78963565826416,
      "y": -0.07896314561367035,
      "z": -0.06161518394947052,
      "time_usec": 17008193181
    },
    {
      "x": 9.756733894348145,
      "y": -0.07896314561367035,
      "z": -0.07597211748361588,
      "time_usec": 17008195439
    },
    {
      "x": 9.761520385742188,
      "y": -0.0933200865983963,
      "z": -0.06640082597732544,
      "time_usec": 17008197696
    },
    {
      "x": 9.780662536621094,
      "y": -0.0933200865983963,
      "z": -0.08075776696205139,
      "time_usec": 17008199953
    },
    {
      "x": 9.78544807434082,
      "y": -0.08374879509210587,
      "z": -0.08075776696205139,
      "time_usec": 17008202211
    },
    {
      "x": 9.823135375976562,
      "y": -0.08434699475765228,
      "z": -0.07537391036748886,
      "time_usec": 17008204469
    },
    {
      "x": 9.81356430053711,
      "y": -0.06999006122350693,
      "z": -0.07058826833963394,
      "time_usec": 17008206727
    },
    {
      "x": 9.808777809143066,
      "y": -0.0891326442360878,
      "z": -0.08973085135221481,
      "time_usec": 17008208985
    },
    {
      "x": 9.761520385742188,
      "y": -0.08374879509210587,
      "z": -0.08554340898990631,
      "time_usec": 17008211243
    },
    {
      "x": 9.77109146118164,
      "y": -0.08853443711996078,
      "z": -0.09032905846834183,
      "time_usec": 17008213501
    },
    {
      "x": 9.775876998901367,
      "y": -0.07896314561367035,
      "z": -0.08554340898990631,
      "time_usec": 17008215754
    },
    {
      "x": 9.78963565826416,
      "y": -0.0933200865983963,
      "z": -0.07597211748361588,
      "time_usec": 17008218002
    },
    {
      "x": 9.80399227142334,
      "y": -0.08853443711996078,
      "z": -0.08015955984592438,
      "time_usec": 17008220271
    },
    {
      "x": 9.80399227142334,
      "y": -0.07896314561367035,
      "z": -0.0849452018737793,
      "time_usec": 17008222527
    },
    {
      "x": 9.80399227142334,
      "y": -0.08374879509210587,
      "z": -0.07537391036748886,
      "time_usec": 17008224798
    },
    {
      "x": 9.78544807434082,
      "y": -0.08853443711996078,
      "z": -0.09032905846834183,
      "time_usec": 17008227046
    },
    {
      "x": 9.766305923461914,
      "y": -0.09810572862625122,
      "z": -0.09032905846834183,
      "time_usec": 17008229305
    },
    {
      "x": 9.742377281188965,
      "y": -0.07896314561367035,
      "z": -0.09511470049619675,
      "time_usec": 17008231559
    },
    {
      "x": 9.77109146118164,
      "y": -0.06939185410737991,
      "z": -0.07597211748361588,
      "time_usec": 17008233812
    },
    {
      "x": 9.775876998901367,
      "y": -0.08374879509210587,
      "z": -0.0568295381963253,
      "time_usec": 17008236074
    },
    {
      "x": 9.78963565826416,
      "y": -0.10289137065410614,
      "z": -0.07597211748361588,
      "time_usec": 17008238321
    },
    {
      "x": 9.808777809143066,
      "y": -0.09810572862625122,
      "z": -0.07058826833963394,
      "time_usec": 17008240595
    },
    {
      "x": 9.799206733703613,
      "y": -0.07417750358581543,
      "z": -0.07537391036748886,
      "time_usec": 17008242850
    },
    {
      "x": 9.780064582824707,
      "y": -0.07417750358581543,
      "z": -0.047258246690034866,
      "time_usec": 17008245110
    },
    {
      "x": 9.761520385742188,
      "y": -0.0933200865983963,
      "z": -0.06640082597732544,
      "time_usec": 17008247361
    },
    {
      "x": 9.761520385742188,
      "y": -0.09810572862625122,
      "z": -0.06640082597732544,
      "time_usec": 17008249620
    },
    {
      "x": 9.766305923461914,
      "y": -0.06939185410737991,
      "z": -0.07118647545576096,
      "time_usec": 17008251881
    },
    {
      "x": 9.78963565826416,
      "y": -0.07896314561367035,
      "z": -0.07118647545576096,
      "time_usec": 17008254136
    },
    {
      "x": 9.808777809143066,
      "y": -0.07896314561367035,
      "z": -0.05144568532705307,
      "time_usec": 17008256385
    },
    {
      "x": 9.799206733703613,
      "y": -0.08374879509210587,
      "z": -0.0568295381963253,
      "time_usec": 17008258653
    },
    {
      "x": 9.80399227142334,
      "y": -0.0933200865983963,
      "z": -0.052043892443180084,
      "time_usec": 17008260896
    },
    {
      "x": 9.78963565826416,
      "y": -0.07896314561367035,
      "z": -0.0568295381963253,
      "time_usec": 17008263157
    },
    {
      "x": 9.77527904510498,
      "y": -0.08374879509210587,
      "z": -0.052043892443180084,
      "time_usec": 17008265415
    },
    {
      "x": 9.756733894348145,
      "y": -0.08374879509210587,
      "z": -0.06161518394947052,
      "time_usec": 17008267688
    },
    {
      "x": 9.761520385742188,
      "y": -0.07417750358581543,
      "z": -0.047258246690034866,
      "time_usec": 17008269940
    },
    {
      "x": 9.794421195983887,
      "y": -0.06939185410737991,
      "z": -0.047258246690034866,
      "time_usec": 17008272203
    },
    {
      "x": 9.799206733703613,
      "y": -0.09810572862625122,
      "z": -0.047258246690034866,
      "time_usec": 17008274458
    },
    {
      "x": 9.818349838256836,
      "y": -0.08374879509210587,
      "z": -0.037088751792907715,
      "time_usec": 17008276716
    },
    {
      "x": 9.794421195983887,
      "y": -0.08853443711996078,
      "z": -0.0568295381963253,
      "time_usec": 17008278968
    },
    {
      "x": 9.77109146118164,
      "y": -0.06939185410737991,
      "z": -0.04247260093688965,
      "time_usec": 17008281230
    },
    {
      "x": 9.751948356628418,
      "y": -0.08374879509210587,
      "z": -0.0568295381963253,
      "time_usec": 17008283485
    },
    {
      "x": 9.756135940551758,
      "y": -0.10767702013254166,
      "z": -0.03290131315588951,
      "time_usec": 17008285749
    },
    {
      "x": 9.784850120544434,
      "y": -0.0933200865983963,
      "z": -0.047258246690034866,
      "time_usec": 17008288003
    },
    {
      "x": 9.80399227142334,
      "y": -0.0933200865983963,
      "z": -0.052043892443180084,
      "time_usec": 17008290257
    },
    {
      "x": 9.794421195983887,
      "y": -0.06939185410737991,
      "z": -0.047258246690034866,
      "time_usec": 17008292515
    },
    {
      "x": 9.794421195983887,
      "y": -0.07896314561367035,
      "z": -0.04247260093688965,
      "time_usec": 17008294777
    },
    {
      "x": 9.77109146118164,
      "y": -0.07896314561367035,
      "z": -0.052043892443180084,
      "time_usec": 17008297035
    },
    {
      "x": 9.756733894348145,
      "y": -0.08374879509210587,
      "z": -0.06161518394947052,
      "time_usec": 17008299286
    },
    {
      "x": 9.761520385742188,
      "y": -0.07896314561367035,
      "z": -0.06161518394947052,
      "time_usec": 17008301536
    },
    {
      "x": 9.784850120544434,
      "y": -0.10289137065410614,
      "z": -0.047258246690034866,
      "time_usec": 17008303799
    },
    {
      "x": 9.780064582824707,
      "y": -0.0933200865983963,
      "z": -0.03768695518374443,
      "time_usec": 17008306067
    },
    {
      "x": 9.799206733703613,
      "y": -0.09810572862625122,
      "z": -0.04247260093688965,
      "time_usec": 17008308325
    },
    {
      "x": 9.808777809143066,
      "y": -0.07896314561367035,
      "z": -0.05144568532705307,
      "time_usec": 17008310579
    },
    {
      "x": 9.80399227142334,
      "y": -0.08853443711996078,
      "z": -0.047258246690034866,
      "time_usec": 17008312840
    },
    {
      "x": 9.799206733703613,
      "y": -0.07417750358581543,
      "z": -0.0568295381963253,
      "time_usec": 17008315096
    },
    {
      "x": 9.761520385742188,
      "y": -0.08853443711996078,
      "z": -0.07597211748361588,
      "time_usec": 17008317351
    },
    {
      "x": 9.770493507385254,
      "y": -0.07417750358581543,
      "z": -0.04247260093688965,
      "time_usec": 17008319607
    },
    {
      "x": 9.770493507385254,
      "y": -0.08374879509210587,
      "z": -0.047258246690034866,
      "time_usec": 17008321871
    },
    {
      "x": 9.794421195983887,
      "y": -0.06939185410737991,
      "z": -0.04247260093688965,
      "time_usec": 17008324128
    },
    {
      "x": 9.818349838256836,
      "y": -0.07417750358581543,
      "z": -0.04666004329919815,
      "time_usec": 17008326387
    },
    {
      "x": 9.832108497619629,
      "y": -0.09391828626394272,
      "z": -0.0323031060397625,
      "time_usec": 17008328642
    },
    {
      "x": 9.794421195983887,
      "y": -0.07896314561367035,
      "z": -0.04247260093688965,
      "time_usec": 17008330896
    },
    {
      "x": 9.770493507385254,
      "y": -0.08374879509210587,
      "z": -0.047258246690034866,
      "time_usec": 17008333158
    },
    {
      "x": 9.761520385742188,
      "y": -0.08853443711996078,
      "z": -0.06640082597732544,
      "time_usec": 17008335413
    },
    {
      "x": 9.756733894348145,
      "y": -0.08374879509210587,
      "z": -0.03768695518374443,
      "time_usec": 17008337661
    },
    {
      "x": 9.77527904510498,
      "y": -0.0933200865983963,
      "z": -0.07597211748361588,
      "time_usec": 17008339927
    },
    {
      "x": 9.794421195983887,
      "y": -0.08374879509210587,
      "z": -0.047258246690034866,
      "time_usec": 17008342189
    },
    {
      "x": 9.78963565826416,
      "y": -0.0933200865983963,
      "z": -0.09451649338006973,
      "time_usec": 17008344451
    },
    {
      "x": 9.808777809143066,
      "y": -0.07896314561367035,
      "z": -0.03768695518374443,
      "time_usec": 17008346704
    },
    {
      "x": 9.799206733703613,
      "y": -0.09810572862625122,
      "z": -0.08015955984592438,
      "time_usec": 17008348957
    },
    {
      "x": 9.751948356628418,
      "y": -0.07417750358581543,
      "z": -0.07597211748361588,
      "time_usec": 17008351222
    },
    {
      "x": 9.765707015991211,
      "y": -0.10289137065410614,
      "z": -0.052043892443180084,
      "time_usec": 17008353483
    },
    {
      "x": 9.77109146118164,
      "y": -0.05503492057323456,
      "z": -0.09990034252405167,
      "time_usec": 17008355738
    },
    {
      "x": 9.794421195983887,
      "y": -0.10767702013254166,
      "z": -0.028115665540099144,
      "time_usec": 17008357994
    },
    {
      "x": 9.7998046875,
      "y": -0.07417750358581543,
      "z": -0.09930214285850525,
      "time_usec": 17008360244
    },
    {
      "x": 9.808777809143066,
      "y": -0.08374879509210587,
      "z": -0.061016976833343506,
      "time_usec": 17008362502
    },
    {
      "x": 9.80399227142334,
      "y": -0.0933200865983963,
      "z": -0.052043892443180084,
      "time_usec": 17008364753
    },
    {
      "x": 9.775876998901367,
      "y": -0.08853443711996078,
      "z": -0.09032905846834183,
      "time_usec": 17008367024
    },
    {
      "x": 9.761520385742188,
      "y": -0.0933200865983963,
      "z": -0.0568295381963253,
      "time_usec": 17008369278
    },
    {
      "x": 9.775876998901367,
      "y": -0.07896314561367035,
      "z": -0.07597211748361588,
      "time_usec": 17008371543
    },
    {
      "x": 9.784850120544434,
      "y": -0.07896314561367035,
      "z": -0.07118647545576096,
      "time_usec": 17008373796
    },
    {
      "x": 9.775876998901367,
      "y": -0.08374879509210587,
      "z": -0.07597211748361588,
      "time_usec": 17008376058
    },
    {
      "x": 9.794421195983887,
      "y": -0.0933200865983963,
      "z": -0.08075776696205139,
      "time_usec": 17008378311
    },
    {
      "x": 9.794421195983887,
      "y": -0.07896314561367035,
      "z": -0.06640082597732544,
      "time_usec": 17008380566
    },
    {
      "x": 9.794421195983887,
      "y": -0.07417750358581543,
      "z": -0.07597211748361588,
      "time_usec": 17008382826
    },
    {
      "x": 9.766305923461914,
      "y": -0.06939185410737991,
      "z": -0.052043892443180084,
      "time_usec": 17008385073
    },
    {
      "x": 9.761520385742188,
      "y": -0.08853443711996078,
      "z": -0.07118647545576096,
      "time_usec": 17008387340
    },
    {
      "x": 9.77109146118164,
      "y": -0.08853443711996078,
      "z": -0.07597211748361588,
      "time_usec": 17008389596
    },
    {
      "x": 9.799206733703613,
      "y": -0.09810572862625122,
      "z": -0.06161518394947052,
      "time_usec": 17008391862
    },
    {
      "x": 9.808777809143066,
      "y": -0.08853443711996078,
      "z": -0.06580262631177902,
      "time_usec": 17008394119
    },
    {
      "x": 9.818349838256836,
      "y": -0.10827522724866867,
      "z": -0.07058826833963394,
      "time_usec": 17008396376
    },
    {
      "x": 9.823135375976562,
      "y": -0.08434699475765228,
      "z": -0.07058826833963394,
      "time_usec": 17008398630
    },
    {
      "x": 9.799206733703613,
      "y": -0.07417750358581543,
      "z": -0.0568295381963253,
      "time_usec": 17008400878
    },
    {
      "x": 9.766305923461914,
      "y": -0.08374879509210587,
      "z": -0.07597211748361588,
      "time_usec": 17008403148
    },
    {
      "x": 9.766305923461914,
      "y": -0.08853443711996078,
      "z": -0.07597211748361588,
      "time_usec": 17008405405
    },
    {
      "x": 9.77527904510498,
      "y": -0.0933200865983963,
      "z": -0.06640082597732544,
      "time_usec": 17008407665
    },
    {
      "x": 9.80399227142334,
      "y": -0.08374879509210587,
      "z": -0.07537391036748886,
      "time_usec": 17008409916
    },
    {
      "x": 9.81356430053711,
      "y": -0.08853443711996078,
      "z": -0.04666004329919815,
      "time_usec": 17008412180
    },
    {
      "x": 9.823135375976562,
      "y": -0.07896314561367035,
      "z": -0.04666004329919815,
      "time_usec": 17008414436
    },
    {
      "x": 9.80399227142334,
      "y": -0.08853443711996078,
      "z": -0.04247260093688965,
      "time_usec": 17008416694
    },
    {
      "x": 9.784850120544434,
      "y": -0.08853443711996078,
      "z": -0.07597211748361588,
      "time_usec": 17008418946
    },
    {
      "x": 9.761520385742188,
      "y": -0.08853443711996078,
      "z": -0.06640082597732544,
      "time_usec": 17008421209
    },
    {
      "x": 9.751948356628418,
      "y": -0.08853443711996078,
      "z": -0.0568295381963253,
      "time_usec": 17008423464
    },
    {
      "x": 9.770493507385254,
      "y": -0.07896314561367035,
      "z": -0.047258246690034866,
      "time_usec": 17008425714
    },
    {
      "x": 9.80399227142334,
      "y": -0.08374879509210587,
      "z": -0.052043892443180084,
      "time_usec": 17008427980
    },
    {
      "x": 9.799206733703613,
      "y": -0.08374879509210587,
      "z": -0.04247260093688965,
      "time_usec": 17008430227
    },
    {
      "x": 9.827322959899902,
      "y": -0.08853443711996078,
      "z": -0.0323031060397625,
      "time_usec": 17008432496
    },
    {
      "x": 9.780064582824707,
      "y": -0.064606212079525,
      "z": -0.04247260093688965,
      "time_usec": 17008434756
    },
    {
      "x": 9.784850120544434,
      "y": -0.07896314561367035,
      "z": -0.0568295381963253,
      "time_usec": 17008437015
    },
    {
      "x": 9.760921478271484,
      "y": -0.09810572862625122,
      "z": -0.047258246690034866,
      "time_usec": 17008439268
    },
    {
      "x": 9.756135940551758,
      "y": -0.0933200865983963,
      "z": -0.04247260093688965,
      "time_usec": 17008441535
    },
    {
      "x": 9.770493507385254,
      "y": -0.09810572862625122,
      "z": -0.047258246690034866,
      "time_usec": 17008443793
    },
    {
      "x": 9.80399227142334,
      "y": -0.07896314561367035,
      "z": -0.04247260093688965,
      "time_usec": 17008446046
    },
    {
      "x": 9.80399227142334,
      "y": -0.09810572862625122,
      "z": -0.03768695518374443,
      "time_usec": 17008448301
    },
    {
      "x": 9.77527904510498,
      "y": -0.08374879509210587,
      "z": -0.03290131315588951,
      "time_usec": 17008450552
    },
    {
      "x": 9.784850120544434,
      "y": -0.08853443711996078,
      "z": -0.04247260093688965,
      "time_usec": 17008452812
    },
    {
      "x": 9.766305923461914,
      "y": -0.09810572862625122,
      "z": -0.0568295381963253,
      "time_usec": 17008455074
    },
    {
      "x": 9.760921478271484,
      "y": -0.10289137065410614,
      "z": -0.052043892443180084,
      "time_usec": 17008457330
    },
    {
      "x": 9.751948356628418,
      "y": -0.06939185410737991,
      "z": -0.06640082597732544,
      "time_usec": 17008459587
    },
    {
      "x": 9.770493507385254,
      "y": -0.0933200865983963,
      "z": -0.0568295381963253,
      "time_usec": 17008461848
    },
    {
      "x": 9.799206733703613,
      "y": -0.08853443711996078,
      "z": -0.052043892443180084,
      "time_usec": 17008464103
    },
    {
      "x": 9.80399227142334,
      "y": -0.08853443711996078,
      "z": -0.047258246690034866,
      "time_usec": 17008466362
    },
    {
      "x": 9.808777809143066,
      "y": -0.10289137065410614,
      "z": -0.05144568532705307,
      "time_usec": 17008468620
    },
    {
      "x": 9.784850120544434,
      "y": -0.08853443711996078,
      "z": -0.06161518394947052,
      "time_usec": 17008470875
    },
    {
      "x": 9.751948356628418,
      "y": -0.0933200865983963,
      "z": -0.07597211748361588,
      "time_usec": 17008473138
    },
    {
      "x": 9.751948356628418,
      "y": -0.08853443711996078,
      "z": -0.06161518394947052,
      "time_usec": 17008475394
    },
    {
      "x": 9.761520385742188,
      "y": -0.0933200865983963,
      "z": -0.08075776696205139,
      "time_usec": 17008477652
    },
    {
      "x": 9.794421195983887,
      "y": -0.07896314561367035,
      "z": -0.06640082597732544,
      "time_usec": 17008479905
    },
    {
      "x": 9.799206733703613,
      "y": -0.08853443711996078,
      "z": -0.0568295381963253,
      "time_usec": 17008482165
    },
    {
      "x": 9.808777809143066,
      "y": -0.08374879509210587,
      "z": -0.07058826833963394,
      "time_usec": 17008484414
    },
    {
      "x": 9.7998046875,
      "y": -0.07417750358581543,
      "z": -0.08973085135221481,
      "time_usec": 17008486683
    },
    {
      "x": 9.761520385742188,
      "y": -0.0933200865983963,
      "z": -0.08554340898990631,
      "time_usec": 17008488936
    },
    {
      "x": 9.756733894348145,
      "y": -0.08374879509210587,
      "z": -0.07597211748361588,
      "time_usec": 17008491202
    },
    {
      "x": 9.761520385742188,
      "y": -0.08853443711996078,
      "z": -0.07597211748361588,
      "time_usec": 17008493455
    },
    {
      "x": 9.761520385742188,
      "y": -0.07896314561367035,
      "z": -0.07597211748361588,
      "time_usec": 17008495708
    },
    {
      "x": 9.80399227142334,
      "y": -0.08853443711996078,
      "z": -0.07537391036748886,
      "time_usec": 17008497965
    },
    {
      "x": 9.818349838256836,
      "y": -0.0891326442360878,
      "z": -0.08015955984592438,
      "time_usec": 17008500223
    },
    {
      "x": 9.784850120544434,
      "y": -0.09810572862625122,
      "z": -0.08075776696205139,
      "time_usec": 17008502486
    },
    {
      "x": 9.818349838256836,
      "y": -0.09391828626394272,
      "z": -0.08015955984592438,
      "time_usec": 17008504746
    },
    {
      "x": 9.751948356628418,
      "y": -0.0933200865983963,
      "z": -0.12382857501506805,
      "time_usec": 17008507003
    },
    {
      "x": 9.751948356628418,
      "y": -0.11246266216039658,
      "z": -0.0568295381963253,
      "time_usec": 17008509255
    },
    {
      "x": 9.737591743469238,
      "y": -0.08853443711996078,
      "z": -0.06640082597732544,
      "time_usec": 17008511514
    },
    {
      "x": 9.80399227142334,
      "y": -0.07896314561367035,
      "z": -0.0849452018737793,
      "time_usec": 17008513776
    },
    {
      "x": 9.81356430053711,
      "y": -0.08374879509210587,
      "z": -0.06580262631177902,
      "time_usec": 17008516035
    },
    {
      "x": 9.808777809143066,
      "y": -0.08853443711996078,
      "z": -0.07058826833963394,
      "time_usec": 17008518292
    },
    {
      "x": 9.794421195983887,
      "y": -0.07896314561367035,
      "z": -0.08015955984592438,
      "time_usec": 17008520542
    },
    {
      "x": 9.77109146118164,
      "y": -0.08374879509210587,
      "z": -0.07597211748361588,
      "time_usec": 17008522795
    },
    {
      "x": 9.766305923461914,
      "y": -0.07896314561367035,
      "z": -0.07597211748361588,
      "time_usec": 17008525064
    },
    {
      "x": 9.775876998901367,
      "y": -0.08853443711996078,
      "z": -0.08075776696205139,
      "time_usec": 17008527317
    },
    {
      "x": 9.775876998901367,
      "y": -0.08374879509210587,
      "z": -0.07597211748361588,
      "time_usec": 17008529566
    },
    {
      "x": 9.784850120544434,
      "y": -0.07896314561367035,
      "z": -0.06640082597732544,
      "time_usec": 17008531822
    },
    {
      "x": 9.808777809143066,
      "y": -0.10767702013254166,
      "z": -0.061016976833343506,
      "time_usec": 17008534085
    },
    {
      "x": 9.823135375976562,
      "y": -0.09870393574237823,
      "z": -0.05623133108019829,
      "time_usec": 17008536353
    },
    {
      "x": 9.81356430053711,
      "y": -0.09870393574237823,
      "z": -0.08015955984592438,
      "time_usec": 17008538612
    },
    {
      "x": 9.775876998901367,
      "y": -0.0933200865983963,
      "z": -0.07118647545576096,
      "time_usec": 17008540866
    },
    {
      "x": 9.747162818908691,
      "y": -0.10289137065410614,
      "z": -0.07597211748361588,
      "time_usec": 17008543126
    },
    {
      "x": 9.751948356628418,
      "y": -0.09810572862625122,
      "z": -0.0568295381963253,
      "time_usec": 17008545383
    },
    {
      "x": 9.77527904510498,
      "y": -0.08374879509210587,
      "z": -0.0568295381963253,
      "time_usec": 17008547642
    },
    {
      "x": 9.794421195983887,
      "y": -0.08374879509210587,
      "z": -0.06161518394947052,
      "time_usec": 17008549894
    },
    {
      "x": 9.823135375976562,
      "y": -0.09870393574237823,
      "z": -0.04666004329919815,
      "time_usec": 17008552157
    },
    {
      "x": 9.808777809143066,
      "y": -0.08374879509210587,
      "z": -0.061016976833343506,
      "time_usec": 17008554415
    },
    {
      "x": 9.780064582824707,
      "y": -0.09810572862625122,
      "z": -0.06161518394947052,
      "time_usec": 17008556673
    },
    {
      "x": 9.756733894348145,
      "y": -0.07896314561367035,
      "z": -0.06640082597732544,
      "time_usec": 17008558925
    },
    {
      "x": 9.766305923461914,
      "y": -0.08853443711996078,
      "z": -0.07118647545576096,
      "time_usec": 17008561188
    },
    {
      "x": 9.756733894348145,
      "y": -0.064606212079525,
      "z": -0.08075776696205139,
      "time_usec": 17008563445
    },
    {
      "x": 9.78963565826416,
      "y": -0.07896314561367035,
      "z": -0.07118647545576096,
      "time_usec": 17008565703
    },
    {
      "x": 9.808777809143066,
      "y": -0.07417750358581543,
      "z": -0.061016976833343506,
      "time_usec": 17008567952
    },
    {
      "x": 9.81356430053711,
      "y": -0.06939185410737991,
      "z": -0.07537391036748886,
      "time_usec": 17008570207
    },
    {
      "x": 9.799206733703613,
      "y": -0.08374879509210587,
      "z": -0.06161518394947052,
      "time_usec": 17008572482
    },
    {
      "x": 9.77109146118164,
      "y": -0.0933200865983963,
      "z": -0.06640082597732544,
      "time_usec": 17008574737
    },
    {
      "x": 9.747162818908691,
      "y": -0.064606212079525,
      "z": -0.08075776696205139,
      "time_usec": 17008576992
    },
    {
      "x": 9.756733894348145,
      "y": -0.064606212079525,
      "z": -0.06640082597732544,
      "time_usec": 17008579234
    },
    {
      "x": 9.78963565826416,
      "y": -0.0933200865983963,
      "z": -0.07597211748361588,
      "time_usec": 17008581502
    },
    {
      "x": 9.808777809143066,
      "y": -0.059820566326379776,
      "z": -0.06580262631177902,
      "time_usec": 17008583765
    },
    {
      "x": 9.81356430053711,
      "y": -0.08374879509210587,
      "z": -0.05144568532705307,
      "time_usec": 17008586026
    },
    {
      "x": 9.808777809143066,
      "y": -0.07896314561367035,
      "z": -0.061016976833343506,
      "time_usec": 17008588280
    },
    {
      "x": 9.794421195983887,
      "y": -0.07896314561367035,
      "z": -0.052043892443180084,
      "time_usec": 17008590533
    },
    {
      "x": 9.770493507385254,
      "y": -0.0933200865983963,
      "z": -0.047258246690034866,
      "time_usec": 17008592794
    },
    {
      "x": 9.737591743469238,
      "y": -0.07417750358581543,
      "z": -0.052043892443180084,
      "time_usec": 17008595043
    },
    {
      "x": 9.751948356628418,
      "y": -0.08374879509210587,
      "z": -0.052043892443180084,
      "time_usec": 17008597300
    },
    {
      "x": 9.780662536621094,
      "y": -0.07896314561367035,
      "z": -0.06161518394947052,
      "time_usec": 17008599561
    },
    {
      "x": 9.80399227142334,
      "y": -0.0933200865983963,
      "z": -0.052043892443180084,
      "time_usec": 17008601813
    },
    {
      "x": 9.80399227142334,
      "y": -0.06939185410737991,
      "z": -0.028115665540099144,
      "time_usec": 17008604071
    },
    {
      "x": 9.818349838256836,
      "y": -0.06999006122350693,
      "z": -0.061016976833343506,
      "time_usec": 17008606327
    },
    {
      "x": 9.78963565826416,
      "y": -0.08374879509210587,
      "z": -0.03290131315588951,
      "time_usec": 17008608589
    },
    {
      "x": 9.751948356628418,
      "y": -0.08853443711996078,
      "z": -0.0568295381963253,
      "time_usec": 17008610857
    },
    {
      "x": 9.751948356628418,
      "y": -0.08853443711996078,
      "z": -0.0568295381963253,
      "time_usec": 17008613118
    },
    {
      "x": 9.766305923461914,
      "y": -0.07896314561367035,
      "z": -0.03768695518374443,
      "time_usec": 17008615371
    },
    {
      "x": 9.80399227142334,
      "y": -0.064606212079525,
      "z": -0.03768695518374443,
      "time_usec": 17008617617
    },
    {
      "x": 9.823135375976562,
      "y": -0.07956135272979736,
      "z": -0.04666004329919815,
      "time_usec": 17008619876
    },
    {
      "x": 9.81356430053711,
      "y": -0.08374879509210587,
      "z": -0.04666004329919815,
      "time_usec": 17008622131
    },
    {
      "x": 9.794421195983887,
      "y": -0.10767702013254166,
      "z": -0.052043892443180084,
      "time_usec": 17008624391
    },
    {
      "x": 9.770493507385254,
      "y": -0.08853443711996078,
      "z": -0.047258246690034866,
      "time_usec": 17008626650
    },
    {
      "x": 9.756733894348145,
      "y": -0.08374879509210587,
      "z": -0.0568295381963253,
      "time_usec": 17008628919
    },
    {
      "x": 9.761520385742188,
      "y": -0.0933200865983963,
      "z": -0.0568295381963253,
      "time_usec": 17008631177
    },
    {
      "x": 9.784850120544434,
      "y": -0.0933200865983963,
      "z": -0.0568295381963253,
      "time_usec": 17008633422
    },
    {
      "x": 9.808777809143066,
      "y": -0.07896314561367035,
      "z": -0.04187439754605293,
      "time_usec": 17008635678
    },
    {
      "x": 9.818349838256836,
      "y": -0.08374879509210587,
      "z": -0.037088751792907715,
      "time_usec": 17008637934
    },
    {
      "x": 9.823135375976562,
      "y": -0.08434699475765228,
      "z": -0.05144568532705307,
      "time_usec": 17008640195
    },
    {
      "x": 9.780064582824707,
      "y": -0.08374879509210587,
      "z": -0.052043892443180084,
      "time_usec": 17008642453
    },
    {
      "x": 9.756733894348145,
      "y": -0.08853443711996078,
      "z": -0.047258246690034866,
      "time_usec": 17008644712
    },
    {
      "x": 9.761520385742188,
      "y": -0.10767702013254166,
      "z": -0.06161518394947052,
      "time_usec": 17008646970
    },
    {
      "x": 9.77109146118164,
      "y": -0.07896314561367035,
      "z": -0.052043892443180084,
      "time_usec": 17008649229
    },
    {
      "x": 9.78963565826416,
      "y": -0.07896314561367035,
      "z": -0.052043892443180084,
      "time_usec": 17008651487
    },
    {
      "x": 9.808777809143066,
      "y": -0.09810572862625122,
      "z": -0.06580262631177902,
      "time_usec": 17008653754
    },
    {
      "x": 9.832706451416016,
      "y": -0.08434699475765228,
      "z": -0.06580262631177902,
      "time_usec": 17008655998
    },
    {
      "x": 9.808777809143066,
      "y": -0.0933200865983963,
      "z": -0.061016976833343506,
      "time_usec": 17008658257
    },
    {
      "x": 9.780662536621094,
      "y": -0.08374879509210587,
      "z": -0.06640082597732544,
      "time_usec": 17008660511
    },
    {
      "x": 9.766305923461914,
      "y": -0.07417750358581543,
      "z": -0.07118647545576096,
      "time_usec": 17008662773
    },
    {
      "x": 9.77109146118164,
      "y": -0.08374879509210587,
      "z": -0.07597211748361588,
      "time_usec": 17008665033
    },
    {
      "x": 9.780662536621094,
      "y": -0.07417750358581543,
      "z": -0.08075776696205139,
      "time_usec": 17008667296
    },
    {
      "x": 9.784850120544434,
      "y": -0.0933200865983963,
      "z": -0.07597211748361588,
      "time_usec": 17008669549
    },
    {
      "x": 9.818349838256836,
      "y": -0.06939185410737991,
      "z": -0.05144568532705307,
      "time_usec": 17008671813
    },
    {
      "x": 9.808777809143066,
      "y": -0.08853443711996078,
      "z": -0.05623133108019829,
      "time_usec": 17008674060
    },
    {
      "x": 9.78963565826416,
      "y": -0.08853443711996078,
      "z": -0.06161518394947052,
      "time_usec": 17008676318
    },
    {
      "x": 9.775876998901367,
      "y": -0.08374879509210587,
      "z": -0.0568295381963253,
      "time_usec": 17008678576
    },
    {
      "x": 9.766305923461914,
      "y": -0.08853443711996078,
      "z": -0.06161518394947052,
      "time_usec": 17008680842
    },
    {
      "x": 9.766305923461914,
      "y": -0.0933200865983963,
      "z": -0.06161518394947052,
      "time_usec": 17008683101
    },
    {
      "x": 9.766305923461914,
      "y": -0.08853443711996078,
      "z": -0.06640082597732544,
      "time_usec": 17008685366
    },
    {
      "x": 9.794421195983887,
      "y": -0.07896314561367035,
      "z": -0.06161518394947052,
      "time_usec": 17008687619
    },
    {
      "x": 9.823135375976562,
      "y": -0.09870393574237823,
      "z": -0.07537391036748886,
      "time_usec": 17008689864
    },
    {
      "x": 9.790233612060547,
      "y": -0.08374879509210587,
      "z": -0.08554340898990631,
      "time_usec": 17008692123
    },
    {
      "x": 9.78963565826416,
      "y": -0.08374879509210587,
      "z": -0.06640082597732544,
      "time_usec": 17008694390
    },
    {
      "x": 9.756733894348145,
      "y": -0.0933200865983963,
      "z": -0.06640082597732544,
      "time_usec": 17008696640
    },
    {
      "x": 9.751948356628418,
      "y": -0.0933200865983963,
      "z": -0.07118647545576096,
      "time_usec": 17008698907
    },
    {
      "x": 9.780662536621094,
      "y": -0.07896314561367035,
      "z": -0.07118647545576096,
      "time_usec": 17008701167
    },
    {
      "x": 9.77109146118164,
      "y": -0.07417750358581543,
      "z": -0.08554340898990631,
      "time_usec": 17008703426
    },
    {
      "x": 9.808777809143066,
      "y": -0.07417750358581543,
      "z": -0.06580262631177902,
      "time_usec": 17008705679
    },
    {
      "x": 9.823135375976562,
      "y": -0.07956135272979736,
      "z": -0.05623133108019829,
      "time_usec": 17008707938
    },
    {
      "x": 9.80399227142334,
      "y": -0.09810572862625122,
      "z": -0.07058826833963394,
      "time_usec": 17008710192
    },
    {
      "x": 9.78544807434082,
      "y": -0.08374879509210587,
      "z": -0.07597211748361588,
      "time_usec": 17008712456
    },
    {
      "x": 9.77109146118164,
      "y": -0.07417750358581543,
      "z": -0.08075776696205139,
      "time_usec": 17008714713
    },
    {
      "x": 9.761520385742188,
      "y": -0.08853443711996078,
      "z": -0.07597211748361588,
      "time_usec": 17008716971
    },
    {
      "x": 9.761520385742188,
      "y": -0.08374879509210587,
      "z": -0.06161518394947052,
      "time_usec": 17008719223
    },
    {
      "x": 9.808777809143066,
      "y": -0.07896314561367035,
      "z": -0.04666004329919815,
      "time_usec": 17008721482
    },
    {
      "x": 9.81356430053711,
      "y": -0.0891326442360878,
      "z": -0.08015955984592438,
      "time_usec": 17008723741
    },
    {
      "x": 9.81356430053711,
      "y": -0.09391828626394272,
      "z": -0.061016976833343506,
      "time_usec": 17008725989
    },
    {
      "x": 9.80399227142334,
      "y": -0.08374879509210587,
      "z": -0.06580262631177902,
      "time_usec": 17008728259
    },
    {
      "x": 9.766305923461914,
      "y": -0.0933200865983963,
      "z": -0.06640082597732544,
      "time_usec": 17008730514
    },
    {
      "x": 9.756733894348145,
      "y": -0.08853443711996078,
      "z": -0.07597211748361588,
      "time_usec": 17008732777
    },
    {
      "x": 9.766305923461914,
      "y": -0.07896314561367035,
      "z": -0.07118647545576096,
      "time_usec": 17008735031
    },
    {
      "x": 9.775876998901367,
      "y": -0.08374879509210587,
      "z": -0.06640082597732544,
      "time_usec": 17008737287
    },
    {
      "x": 9.80399227142334,
      "y": -0.0933200865983963,
      "z": -0.061016976833343506,
      "time_usec": 17008739540
    },
    {
      "x": 9.808777809143066,
      "y": -0.08374879509210587,
      "z": -0.061016976833343506,
      "time_usec": 17008741796
    },
    {
      "x": 9.799206733703613,
      "y": -0.08374879509210587,
      "z": -0.047258246690034866,
      "time_usec": 17008744060
    },
    {
      "x": 9.80399227142334,
      "y": -0.0933200865983963,
      "z": -0.061016976833343506,
      "time_usec": 17008746323
    },
    {
      "x": 9.77109146118164,
      "y": -0.08374879509210587,
      "z": -0.07118647545576096,
      "time_usec": 17008748579
    },
    {
      "x": 9.747162818908691,
      "y": -0.07896314561367035,
      "z": -0.06640082597732544,
      "time_usec": 17008750832
    },
    {
      "x": 9.761520385742188,
      "y": -0.08374879509210587,
      "z": -0.06161518394947052,
      "time_usec": 17008753094
    },
    {
      "x": 9.78963565826416,
      "y": -0.08853443711996078,
      "z": -0.06640082597732544,
      "time_usec": 17008755351
    },
    {
      "x": 9.818349838256836,
      "y": -0.09391828626394272,
      "z": -0.05623133108019829,
      "time_usec": 17008757602
    },
    {
      "x": 9.837491989135742,
      "y": -0.0891326442360878,
      "z": -0.07058826833963394,
      "time_usec": 17008759854
    },
    {
      "x": 9.818349838256836,
      "y": -0.0891326442360878,
      "z": -0.05623133108019829,
      "time_usec": 17008762124
    },
    {
      "x": 9.784850120544434,
      "y": -0.09810572862625122,
      "z": -0.04247260093688965,
      "time_usec": 17008764383
    },
    {
      "x": 9.761520385742188,
      "y": -0.07417750358581543,
      "z": -0.07118647545576096,
      "time_usec": 17008766642
    },
    {
      "x": 9.761520385742188,
      "y": -0.06939185410737991,
      "z": -0.06640082597732544,
      "time_usec": 17008768893
    },
    {
      "x": 9.77109146118164,
      "y": -0.07417750358581543,
      "z": -0.06161518394947052,
      "time_usec": 17008771156
    },
    {
      "x": 9.799206733703613,
      "y": -0.11246266216039658,
      "z": -0.06161518394947052,
      "time_usec": 17008773414
    },
    {
      "x": 9.818349838256836,
      "y": -0.07896314561367035,
      "z": -0.04187439754605293,
      "time_usec": 17008775669
    },
    {
      "x": 9.799206733703613,
      "y": -0.07417750358581543,
      "z": -0.06161518394947052,
      "time_usec": 17008777914
    },
    {
      "x": 9.78963565826416,
      "y": -0.08374879509210587,
      "z": -0.0568295381963253,
      "time_usec": 17008780180
    },
    {
      "x": 9.77109146118164,
      "y": -0.07417750358581543,
      "z": -0.06640082597732544,
      "time_usec": 17008782444
    },
    {
      "x": 9.77109146118164,
      "y": -0.064606212079525,
      "z": -0.0568295381963253,
      "time_usec": 17008784705
    },
    {
      "x": 9.761520385742188,
      "y": -0.07896314561367035,
      "z": -0.052043892443180084,
      "time_usec": 17008786960
    },
    {
      "x": 9.77527904510498,
      "y": -0.08374879509210587,
      "z": -0.052043892443180084,
      "time_usec": 17008789213
    },
    {
      "x": 9.808777809143066,
      "y": -0.08853443711996078,
      "z": -0.05144568532705307,
      "time_usec": 17008791481
    },
    {
      "x": 9.80399227142334,
      "y": -0.07896314561367035,
      "z": -0.047258246690034866,
      "time_usec": 17008793732
    },
    {
      "x": 9.799206733703613,
      "y": -0.0933200865983963,
      "z": -0.06161518394947052,
      "time_usec": 17008795992
    },
    {
      "x": 9.799206733703613,
      "y": -0.08853443711996078,
      "z": -0.052043892443180084,
      "time_usec": 17008798246
    },
    {
      "x": 9.766305923461914,
      "y": -0.08374879509210587,
      "z": -0.06161518394947052,
      "time_usec": 17008800501
    },
    {
      "x": 9.765707015991211,
      "y": -0.10289137065410614,
      "z": -0.0568295381963253,
      "time_usec": 17008802760
    },
    {
      "x": 9.761520385742188,
      "y": -0.08374879509210587,
      "z": -0.06640082597732544,
      "time_usec": 17008805008
    },
    {
      "x": 9.78544807434082,
      "y": -0.06939185410737991,
      "z": -0.0568295381963253,
      "time_usec": 17008807276
    },
    {
      "x": 9.794421195983887,
      "y": -0.0933200865983963,
      "z": -0.06161518394947052,
      "time_usec": 17008809533
    },
    {
      "x": 9.818349838256836,
      "y": -0.07956135272979736,
      "z": -0.061016976833343506,
      "time_usec": 17008811799
    },
    {
      "x": 9.818349838256836,
      "y": -0.0891326442360878,
      "z": -0.04666004329919815,
      "time_usec": 17008814053
    },
    {
      "x": 9.784850120544434,
      "y": -0.08374879509210587,
      "z": -0.07118647545576096,
      "time_usec": 17008816311
    },
    {
      "x": 9.751948356628418,
      "y": -0.0933200865983963,
      "z": -0.06161518394947052,
      "time_usec": 17008818567
    },
    {
      "x": 9.747162818908691,
      "y": -0.0933200865983963,
      "z": -0.08554340898990631,
      "time_usec": 17008820820
    },
    {
      "x": 9.775876998901367,
      "y": -0.0933200865983963,
      "z": -0.09511470049619675,
      "time_usec": 17008823084
    },
    {
      "x": 9.78963565826416,
      "y": -0.08853443711996078,
      "z": -0.06640082597732544,
      "time_usec": 17008825346
    },
    {
      "x": 9.808777809143066,
      "y": -0.08853443711996078,
      "z": -0.061016976833343506,
      "time_usec": 17008827600
    },
    {
      "x": 9.80399227142334,
      "y": -0.07417750358581543,
      "z": -0.07537391036748886,
      "time_usec": 17008829851
    },
    {
      "x": 9.80399227142334,
      "y": -0.0933200865983963,
      "z": -0.06580262631177902,
      "time_usec": 17008832112
    },
    {
      "x": 9.780064582824707,
      "y": -0.10289137065410614,
      "z": -0.07118647545576096,
      "time_usec": 17008834371
    },
    {
      "x": 9.756733894348145,
      "y": -0.07896314561367035,
      "z": -0.07597211748361588,
      "time_usec": 17008836629
    },
    {
      "x": 9.775876998901367,
      "y": -0.08374879509210587,
      "z": -0.08075776696205139,
      "time_usec": 17008838879
    },
    {
      "x": 9.756733894348145,
      "y": -0.0933200865983963,
      "z": -0.06161518394947052,
      "time_usec": 17008841136
    },
    {
      "x": 9.794421195983887,
      "y": -0.08374879509210587,
      "z": -0.07118647545576096,
      "time_usec": 17008843403
    },
    {
      "x": 9.81356430053711,
      "y": -0.09810572862625122,
      "z": -0.061016976833343506,
      "time_usec": 17008845663
    },
    {
      "x": 9.808777809143066,
      "y": -0.08853443711996078,
      "z": -0.08015955984592438,
      "time_usec": 17008847919
    },
    {
      "x": 9.78963565826416,
      "y": -0.0933200865983963,
      "z": -0.052043892443180084,
      "time_usec": 17008850170
    },
    {
      "x": 9.766305923461914,
      "y": -0.08853443711996078,
      "z": -0.08075776696205139,
      "time_usec": 17008852433
    },
    {
      "x": 9.77109146118164,
      "y": -0.08853443711996078,
      "z": -0.07597211748361588,
      "time_usec": 17008854691
    },
    {
      "x": 9.780662536621094,
      "y": -0.08374879509210587,
      "z": -0.07118647545576096,
      "time_usec": 17008856949
    },
    {
      "x": 9.794421195983887,
      "y": -0.07417750358581543,
      "z": -0.07597211748361588,
      "time_usec": 17008859201
    },
    {
      "x": 9.799206733703613,
      "y": -0.08853443711996078,
      "z": -0.07537391036748886,
      "time_usec": 17008861464
    },
    {
      "x": 9.818349838256836,
      "y": -0.09870393574237823,
      "z": -0.07058826833963394,
      "time_usec": 17008863723
    },
    {
      "x": 9.808777809143066,
      "y": -0.0933200865983963,
      "z": -0.07058826833963394,
      "time_usec": 17008865981
    },
    {
      "x": 9.784850120544434,
      "y": -0.07896314561367035,
      "z": -0.047258246690034866,
      "time_usec": 17008868236
    },
    {
      "x": 9.761520385742188,
      "y": -0.08374879509210587,
      "z": -0.06640082597732544,
      "time_usec": 17008870490
    },
    {
      "x": 9.761520385742188,
      "y": -0.07896314561367035,
      "z": -0.07597211748361588,
      "time_usec": 17008872753
    },
    {
      "x": 9.766305923461914,
      "y": -0.0933200865983963,
      "z": -0.07118647545576096,
      "time_usec": 17008875010
    },
    {
      "x": 9.78963565826416,
      "y": -0.0933200865983963,
      "z": -0.06161518394947052,
      "time_usec": 17008877266
    },
    {
      "x": 9.794421195983887,
      "y": -0.08853443711996078,
      "z": -0.07118647545576096,
      "time_usec": 17008879522
    },
    {
      "x": 9.799206733703613,
      "y": -0.07896314561367035,
      "z": -0.04247260093688965,
      "time_usec": 17008881789
    },
    {
      "x": 9.784850120544434,
      "y": -0.08374879509210587,
      "z": -0.052043892443180084,
      "time_usec": 17008884042
    },
    {
      "x": 9.784850120544434,
      "y": -0.06939185410737991,
      "z": -0.0568295381963253,
      "time_usec": 17008886301
    },
    {
      "x": 9.756733894348145,
      "y": -0.08374879509210587,
      "z": -0.06161518394947052,
      "time_usec": 17008888554
    },
    {
      "x": 9.77109146118164,
      "y": -0.0933200865983963,
      "z": -0.0568295381963253,
      "time_usec": 17008890808
    },
    {
      "x": 9.770493507385254,
      "y": -0.09810572862625122,
      "z": -0.0568295381963253,
      "time_usec": 17008893072
    },
    {
      "x": 9.80399227142334,
      "y": -0.09810572862625122,
      "z": -0.052043892443180084,
      "time_usec": 17008895330
    },
    {
      "x": 9.823135375976562,
      "y": -0.08434699475765228,
      "z": -0.05623133108019829,
      "time_usec": 17008897588
    },
    {
      "x": 9.80399227142334,
      "y": -0.08853443711996078,
      "z": -0.061016976833343506,
      "time_usec": 17008899841
    },
    {
      "x": 9.775876998901367,
      "y": -0.07417750358581543,
      "z": -0.0568295381963253,
      "time_usec": 17008902101
    },
    {
      "x": 9.756733894348145,
      "y": -0.07417750358581543,
      "z": -0.06161518394947052,
      "time_usec": 17008904351
    },
    {
      "x": 9.751948356628418,
      "y": -0.08853443711996078,
      "z": -0.0568295381963253,
      "time_usec": 17008906607
    },
    {
      "x": 9.77109146118164,
      "y": -0.09810572862625122,
      "z": -0.06161518394947052,
      "time_usec": 17008908871
    },
    {
      "x": 9.794421195983887,
      "y": -0.0933200865983963,
      "z": -0.07597211748361588,
      "time_usec": 17008911136
    },
    {
      "x": 9.818349838256836,
      "y": -0.08374879509210587,
      "z": -0.04666004329919815,
      "time_usec": 17008913395
    },
    {
      "x": 9.823135375976562,
      "y": -0.09870393574237823,
      "z": -0.06580262631177902,
      "time_usec": 17008915651
    },
    {
      "x": 9.808777809143066,
      "y": -0.08853443711996078,
      "z": -0.05623133108019829,
      "time_usec": 17008917907
    },
    {
      "x": 9.770493507385254,
      "y": -0.08374879509210587,
      "z": -0.04247260093688965,
      "time_usec": 17008920160
    },
    {
      "x": 9.751948356628418,
      "y": -0.08853443711996078,
      "z": -0.03768695518374443,
      "time_usec": 17008922422
    },
    {
      "x": 9.756733894348145,
      "y": -0.07417750358581543,
      "z": -0.06640082597732544,
      "time_usec": 17008924680
    },
    {
      "x": 9.761520385742188,
      "y": -0.08374879509210587,
      "z": -0.06161518394947052,
      "time_usec": 17008926938
    },
    {
      "x": 9.80399227142334,
      "y": -0.08374879509210587,
      "z": -0.04247260093688965,
      "time_usec": 17008929190
    },
    {
      "x": 9.823135375976562,
      "y": -0.07896314561367035,
      "z": -0.02751746028661728,
      "time_usec": 17008931454
    },
    {
      "x": 9.808777809143066,
      "y": -0.08853443711996078,
      "z": -0.05144568532705307,
      "time_usec": 17008933711
    },
    {
      "x": 9.808777809143066,
      "y": -0.07896314561367035,
      "z": -0.03768695518374443,
      "time_usec": 17008935971
    },
    {
      "x": 9.775876998901367,
      "y": -0.07896314561367035,
      "z": -0.0568295381963253,
      "time_usec": 17008938226
    },
    {
      "x": 9.756733894348145,
      "y": -0.08374879509210587,
      "z": -0.06161518394947052,
      "time_usec": 17008940482
    },
    {
      "x": 9.761520385742188,
      "y": -0.07417750358581543,
      "z": -0.07118647545576096,
      "time_usec": 17008942741
    },
    {
      "x": 9.766305923461914,
      "y": -0.08374879509210587,
      "z": -0.0568295381963253,
      "time_usec": 17008944999
    },
    {
      "x": 9.81356430053711,
      "y": -0.07417750358581543,
      "z": -0.04187439754605293,
      "time_usec": 17008947255
    },
    {
      "x": 9.837491989135742,
      "y": -0.08434699475765228,
      "z": -0.05144568532705307,
      "time_usec": 17008949515
    },
    {
      "x": 9.799206733703613,
      "y": -0.10289137065410614,
      "z": -0.0568295381963253,
      "time_usec": 17008951773
    },
    {
      "x": 9.78544807434082,
      "y": -0.06939185410737991,
      "z": -0.0568295381963253,
      "time_usec": 17008954032
    },
    {
      "x": 9.775876998901367,
      "y": -0.08853443711996078,
      "z": -0.06161518394947052,
      "time_usec": 17008956288
    },
    {
      "x": 9.756733894348145,
      "y": -0.08853443711996078,
      "z": -0.06161518394947052,
      "time_usec": 17008958544
    },
    {
      "x": 9.766305923461914,
      "y": -0.07896314561367035,
      "z": -0.06161518394947052,
      "time_usec": 17008960794
    },
    {
      "x": 9.78963565826416,
      "y": -0.08374879509210587,
      "z": -0.04247260093688965,
      "time_usec": 17008963062
    },
    {
      "x": 9.808777809143066,
      "y": -0.06520441919565201,
      "z": -0.061016976833343506,
      "time_usec": 17008965319
    },
    {
      "x": 9.818349838256836,
      "y": -0.07956135272979736,
      "z": -0.07058826833963394,
      "time_usec": 17008967578
    },
    {
      "x": 9.799206733703613,
      "y": -0.08374879509210587,
      "z": -0.061016976833343506,
      "time_usec": 17008969829
    },
    {
      "x": 9.775876998901367,
      "y": -0.07417750358581543,
      "z": -0.06161518394947052,
      "time_usec": 17008972093
    },
    {
      "x": 9.751948356628418,
      "y": -0.10289137065410614,
      "z": -0.07118647545576096,
      "time_usec": 17008974350
    },
    {
      "x": 9.761520385742188,
      "y": -0.08853443711996078,
      "z": -0.08075776696205139,
      "time_usec": 17008976607
    },
    {
      "x": 9.761520385742188,
      "y": -0.0933200865983963,
      "z": -0.0568295381963253,
      "time_usec": 17008978859
    },
    {
      "x": 9.790233612060547,
      "y": -0.07417750358581543,
      "z": -0.06161518394947052,
      "time_usec": 17008981119
    },
    {
      "x": 9.823135375976562,
      "y": -0.0891326442360878,
      "z": -0.07537391036748886,
      "time_usec": 17008983381
    },
    {
      "x": 9.818349838256836,
      "y": -0.06999006122350693,
      "z": -0.06580262631177902,
      "time_usec": 17008985640
    },
    {
      "x": 9.794421195983887,
      "y": -0.0933200865983963,
      "z": -0.06640082597732544,
      "time_usec": 17008987896
    },
    {
      "x": 9.761520385742188,
      "y": -0.07896314561367035,
      "z": -0.07118647545576096,
      "time_usec": 17008990149
    },
    {
      "x": 9.756733894348145,
      "y": -0.0933200865983963,
      "z": -0.08554340898990631,
      "time_usec": 17008992410
    },
    {
      "x": 9.761520385742188,
      "y": -0.07896314561367035,
      "z": -0.06640082597732544,
      "time_usec": 17008994670
    },
    {
      "x": 9.780662536621094,
      "y": -0.07417750358581543,
      "z": -0.06640082597732544,
      "time_usec": 17008996927
    },
    {
      "x": 9.799206733703613,
      "y": -0.0933200865983963,
      "z": -0.07058826833963394,
      "time_usec": 17008999180
    },
    {
      "x": 9.808777809143066,
      "y": -0.08434699475765228,
      "z": -0.07537391036748886,
      "time_usec": 17009001442
    },
    {
      "x": 9.81356430053711,
      "y": -0.09870393574237823,
      "z": -0.06580262631177902,
      "time_usec": 17009003697
    },
    {
      "x": 9.790233612060547,
      "y": -0.08374879509210587,
      "z": -0.08015955984592438,
      "time_usec": 17009005947
    },
    {
      "x": 9.766305923461914,
      "y": -0.07417750358581543,
      "z": -0.08075776696205139,
      "time_usec": 17009008215
    },
    {
      "x": 9.747162818908691,
      "y": -0.08853443711996078,
      "z": -0.08075776696205139,
      "time_usec": 17009010469
    },
    {
      "x": 9.766305923461914,
      "y": -0.08374879509210587,
      "z": -0.07597211748361588,
      "time_usec": 17009012734
    },
    {
      "x": 9.808777809143066,
      "y": -0.09391828626394272,
      "z": -0.05623133108019829,
      "time_usec": 17009014988
    },
    {
      "x": 9.81356430053711,
      "y": -0.08434699475765228,
      "z": -0.05144568532705307,
      "time_usec": 17009017243
    },
    {
      "x": 9.81356430053711,
      "y": -0.06999006122350693,
      "z": -0.05144568532705307,
      "time_usec": 17009019500
    },
    {
      "x": 9.799206733703613,
      "y": -0.07896314561367035,
      "z": -0.052043892443180084,
      "time_usec": 17009021761
    },
    {
      "x": 9.780662536621094,
      "y": -0.08374879509210587,
      "z": -0.06161518394947052,
      "time_usec": 17009024018
    },
    {
      "x": 9.761520385742188,
      "y": -0.06939185410737991,
      "z": -0.07597211748361588,
      "time_usec": 17009026281
    },
    {
      "x": 9.751948356628418,
      "y": -0.08374879509210587,
      "z": -0.07118647545576096,
      "time_usec": 17009028537
    },
    {
      "x": 9.761520385742188,
      "y": -0.07896314561367035,
      "z": -0.047258246690034866,
      "time_usec": 17009030781
    },
    {
      "x": 9.78963565826416,
      "y": -0.10289137065410614,
      "z": -0.07597211748361588,
      "time_usec": 17009033050
    },
    {
      "x": 9.808777809143066,
      "y": -0.10348957777023315,
      "z": -0.07058826833963394,
      "time_usec": 17009035308
    },
    {
      "x": 9.823135375976562,
      "y": -0.08434699475765228,
      "z": -0.07537391036748886,
      "time_usec": 17009037568
    },
    {
      "x": 9.794421195983887,
      "y": -0.08853443711996078,
      "z": -0.052043892443180084,
      "time_usec": 17009039817
    },
    {
      "x": 9.766305923461914,
      "y": -0.08374879509210587,
      "z": -0.06640082597732544,
      "time_usec": 17009042081
    },
    {
      "x": 9.751948356628418,
      "y": -0.0933200865983963,
      "z": -0.052043892443180084,
      "time_usec": 17009044340
    },
    {
      "x": 9.761520385742188,
      "y": -0.08374879509210587,
      "z": -0.06640082597732544,
      "time_usec": 17009046597
    },
    {
      "x": 9.780662536621094,
      "y": -0.08374879509210587,
      "z": -0.07597211748361588,
      "time_usec": 17009048848
    },
    {
      "x": 9.80399227142334,
      "y": -0.08853443711996078,
      "z": -0.06580262631177902,
      "time_usec": 17009051108
    },
    {
      "x": 9.818349838256836,
      "y": -0.10348957777023315,
      "z": -0.061016976833343506,
      "time_usec": 17009053370
    },
    {
      "x": 9.80399227142334,
      "y": -0.08853443711996078,
      "z": -0.06580262631177902,
      "time_usec": 17009055629
    },
    {
      "x": 9.780662536621094,
      "y": -0.07417750358581543,
      "z": -0.0568295381963253,
      "time_usec": 17009057885
    },
    {
      "x": 9.756733894348145,
      "y": -0.07896314561367035,
      "z": -0.0568295381963253,
      "time_usec": 17009060138
    },
    {
      "x": 9.742377281188965,
      "y": -0.08853443711996078,
      "z": -0.07597211748361588,
      "time_usec": 17009062402
    },
    {
      "x": 9.761520385742188,
      "y": -0.06939185410737991,
      "z": -0.052043892443180084,
      "time_usec": 17009064657
    },
    {
      "x": 9.799206733703613,
      "y": -0.0933200865983963,
      "z": -0.07058826833963394,
      "time_usec": 17009066916
    },
    {
      "x": 9.823135375976562,
      "y": -0.07956135272979736,
      "z": -0.05623133108019829,
      "time_usec": 17009069169
    },
    {
      "x": 9.818349838256836,
      "y": -0.06999006122350693,
      "z": -0.05144568532705307,
      "time_usec": 17009071432
    },
    {
      "x": 9.81356430053711,
      "y": -0.07477571070194244,
      "z": -0.061016976833343506,
      "time_usec": 17009073689
    },
    {
      "x": 9.775876998901367,
      "y": -0.07896314561367035,
      "z": -0.06161518394947052,
      "time_usec": 17009075948
    },
    {
      "x": 9.751948356628418,
      "y": -0.10289137065410614,
      "z": -0.07118647545576096,
      "time_usec": 17009078202
    },
    {
      "x": 9.756733894348145,
      "y": -0.10289137065410614,
      "z": -0.052043892443180084,
      "time_usec": 17009080458
    },
    {
      "x": 9.756733894348145,
      "y": -0.07896314561367035,
      "z": -0.03768695518374443,
      "time_usec": 17009082720
    },
    {
      "x": 9.78963565826416,
      "y": -0.07896314561367035,
      "z": -0.04247260093688965,
      "time_usec": 17009084980
    },
    {
      "x": 9.81356430053711,
      "y": -0.08853443711996078,
      "z": -0.04666004329919815,
      "time_usec": 17009087240
    },
    {
      "x": 9.818349838256836,
      "y": -0.06939185410737991,
      "z": -0.0323031060397625,
      "time_usec": 17009089488
    },
    {
      "x": 9.799206733703613,
      "y": -0.06939185410737991,
      "z": -0.052043892443180084,
      "time_usec": 17009091751
    },
    {
      "x": 9.780662536621094,
      "y": -0.07417750358581543,
      "z": -0.07118647545576096,
      "time_usec": 17009094008
    },
    {
      "x": 9.77109146118164,
      "y": -0.08374879509210587,
      "z": -0.07118647545576096,
      "time_usec": 17009096267
    },
    {
      "x": 9.765707015991211,
      "y": -0.10289137065410614,
      "z": -0.047258246690034866,
      "time_usec": 17009098520
    },
    {
      "x": 9.770493507385254,
      "y": -0.08374879509210587,
      "z": -0.03768695518374443,
      "time_usec": 17009100777
    },
    {
      "x": 9.818349838256836,
      "y": -0.07956135272979736,
      "z": -0.061016976833343506,
      "time_usec": 17009103037
    },
    {
      "x": 9.827920913696289,
      "y": -0.0891326442360878,
      "z": -0.06580262631177902,
      "time_usec": 17009105288
    },
    {
      "x": 9.808777809143066,
      "y": -0.10289137065410614,
      "z": -0.047258246690034866,
      "time_usec": 17009107554
    },
    {
      "x": 9.80399227142334,
      "y": -0.07896314561367035,
      "z": -0.06161518394947052,
      "time_usec": 17009109797
    },
    {
      "x": 9.761520385742188,
      "y": -0.08853443711996078,
      "z": -0.06640082597732544,
      "time_usec": 17009112057
    },
    {
      "x": 9.747162818908691,
      "y": -0.0933200865983963,
      "z": -0.07118647545576096,
      "time_usec": 17009114316
    },
    {
      "x": 9.761520385742188,
      "y": -0.08853443711996078,
      "z": -0.06161518394947052,
      "time_usec": 17009116589
    },
    {
      "x": 9.799206733703613,
      "y": -0.0933200865983963,
      "z": -0.06161518394947052,
      "time_usec": 17009118841
    },
    {
      "x": 9.823135375976562,
      "y": -0.09870393574237823,
      "z": -0.08015955984592438,
      "time_usec": 17009121103
    },
    {
      "x": 9.799206733703613,
      "y": -0.08374879509210587,
      "z": -0.0568295381963253,
      "time_usec": 17009123355
    },
    {
      "x": 9.799206733703613,
      "y": -0.10289137065410614,
      "z": -0.06640082597732544,
      "time_usec": 17009125605
    },
    {
      "x": 9.77109146118164,
      "y": -0.07896314561367035,
      "z": -0.07118647545576096,
      "time_usec": 17009127874
    },
    {
      "x": 9.756733894348145,
      "y": -0.08374879509210587,
      "z": -0.07118647545576096,
      "time_usec": 17009130127
    },
    {
      "x": 9.751948356628418,
      "y": -0.09810572862625122,
      "z": -0.07118647545576096,
      "time_usec": 17009132393
    },
    {
      "x": 9.756733894348145,
      "y": -0.09810572862625122,
      "z": -0.08554340898990631,
      "time_usec": 17009134649
    },
    {
      "x": 9.784850120544434,
      "y": -0.08853443711996078,
      "z": -0.06161518394947052,
      "time_usec": 17009136905
    },
    {
      "x": 9.818349838256836,
      "y": -0.07417750358581543,
      "z": -0.07058826833963394,
      "time_usec": 17009139155
    },
    {
      "x": 9.80399227142334,
      "y": -0.09810572862625122,
      "z": -0.052043892443180084,
      "time_usec": 17009141407
    },
    {
      "x": 9.780064582824707,
      "y": -0.08853443711996078,
      "z": -0.07118647545576096,
      "time_usec": 17009143679
    },
    {
      "x": 9.766305923461914,
      "y": -0.07896314561367035,
      "z": -0.07118647545576096,
      "time_usec": 17009145937
    },
    {
      "x": 9.761520385742188,
      "y": -0.07896314561367035,
      "z": -0.08075776696205139,
      "time_usec": 17009148196
    },
    {
      "x": 9.761520385742188,
      "y": -0.08853443711996078,
      "z": -0.07118647545576096,
      "time_usec": 17009150447
    },
    {
      "x": 9.799206733703613,
      "y": -0.06939185410737991,
      "z": -0.047258246690034866,
      "time_usec": 17009152711
    },
    {
      "x": 9.818349838256836,
      "y": -0.08853443711996078,
      "z": -0.061016976833343506,
      "time_usec": 17009154967
    },
    {
      "x": 9.818349838256836,
      "y": -0.10348957777023315,
      "z": -0.08015955984592438,
      "time_usec": 17009157225
    },
    {
      "x": 9.823135375976562,
