{
  "frames": [
    {
      "frame_id": 0,
      "sensor_timestamp": 17008632095240,
      "time_usec": 17008632095
    },
    {
      "frame_id": 1,
      "sensor_timestamp": 17008698587915,
      "time_usec": 17008698587
    },
    {
      "frame_id": 2,
      "sensor_timestamp": 17008731834497,
      "time_usec": 17008731834
    },
    {
      "frame_id": 3,
      "sensor_timestamp": 17008765195547,
      "time_usec": 17008765195
    },
    {
      "frame_id": 4,
      "sensor_timestamp": 17008798556598,
      "time_usec": 17008798556
    },
    {
      "frame_id": 5,
      "sensor_timestamp": 17008831917648,
      "time_usec": 17008831917
    },
    {
      "frame_id": 6,
      "sensor_timestamp": 17008865049518,
      "time_usec": 17008865049
    },
    {
      "frame_id": 7,
      "sensor_timestamp": 17008898181143,
      "time_usec": 17008898181
    },
    {
      "frame_id": 8,
      "sensor_timestamp": 17008931427481,
      "time_usec": 17008931427
    },
    {
      "frame_id": 9,
      "sensor_timestamp": 17008964673819,
      "time_usec": 17008964673
    },
    {
      "frame_id": 10,
      "sensor_timestamp": 17008997920401,
      "time_usec": 17008997920
    },
    {
      "frame_id": 11,
      "sensor_timestamp": 17009031166739,
      "time_usec": 17009031166
    },
    {
      "frame_id": 12,
      "sensor_timestamp": 17009064413077,
      "time_usec": 17009064413
    },
    {
      "frame_id": 13,
      "sensor_timestamp": 17009097659415,
      "time_usec": 17009097659
    },
    {
      "frame_id": 14,
      "sensor_timestamp": 17009130905997,
      "time_usec": 17009130905
    },
    {
      "frame_id": 15,
      "sensor_timestamp": 17009164152334,
      "time_usec": 17009164152
    },
    {
      "frame_id": 16,
      "sensor_timestamp": 17009197398672,
      "time_usec": 17009197398
    },
    {
      "frame_id": 17,
      "sensor_timestamp": 17009230645010,
      "time_usec": 17009230645
    },
    {
      "frame_id": 18,
      "sensor_timestamp": 17009263891592,
      "time_usec": 17009263891
    },
    {
      "frame_id": 19,
      "sensor_timestamp": 17009297137930,
      "time_usec": 17009297137
    },
    {
      "frame_id": 20,
      "sensor_timestamp": 17009330384268,
      "time_usec": 17009330384
    },
    {
      "frame_id": 21,
      "sensor_timestamp": 17009363630606,
      "time_usec": 17009363630
    },
    {
      "frame_id": 22,
      "sensor_timestamp": 17009396877188,
      "time_usec": 17009396877
    },
    {
      "frame_id": 23,
      "sensor_timestamp": 17009430123526,
      "time_usec": 17009430123
    },
    {
      "frame_id": 24,
      "sensor_timestamp": 17009463369864,
      "time_usec": 17009463369
    },
    {
      "frame_id": 25,
      "sensor_timestamp": 17009496616202,
      "time_usec": 17009496616
    },
    {
      "frame_id": 26,
      "sensor_timestamp": 17009529862784,
      "time_usec": 17009529862
    },
    {
      "frame_id": 27,
      "sensor_timestamp": 17009563109122,
      "time_usec": 17009563109
    },
    {
      "frame_id": 28,
      "sensor_timestamp": 17009596355459,
      "time_usec": 17009596355
    },
    {
      "frame_id": 29,
      "sensor_timestamp": 17009629601797,
      "time_usec": 17009629601
    },
    {
      "frame_id": 30,
      "sensor_timestamp": 17009662848135,
      "time_usec": 17009662848
    },
    {
      "frame_id": 31,
      "sensor_timestamp": 17009696094717,
      "time_usec": 17009696094
    },
    {
      "frame_id": 32,
      "sensor_timestamp": 17009729341055,
      "time_usec": 17009729341
    },
    {
      "frame_id": 33,
      "sensor_timestamp": 17009762587393,
      "time_usec": 17009762587
    },
    {
      "frame_id": 34,
      "sensor_timestamp": 17009795833731,
      "time_usec": 17009795833
    },
    {
      "frame_id": 35,
      "sensor_timestamp": 17009829080313,
      "time_usec": 17009829080
    },
    {
      "frame_id": 36,
      "sensor_timestamp": 17009862326651,
      "time_usec": 17009862326
    },
    {
      "frame_id": 37,
      "sensor_timestamp": 17009895572989,
      "time_usec": 17009895572
    },
    {
      "frame_id": 38,
      "sensor_timestamp": 17009928819327,
      "time_usec": 17009928819
    },
    {
      "frame_id": 39,
      "sensor_timestamp": 17009962065909,
      "time_usec": 17009962065
    },
    {
      "frame_id": 40,
      "sensor_timestamp": 17009995312247,
      "time_usec": 17009995312
    },
    {
      "frame_id": 41,
      "sensor_timestamp": 17010028558584,
      "time_usec": 17010028558
    },
    {
      "frame_id": 42,
      "sensor_timestamp": 17010061804922,
      "time_usec": 17010061804
    },
    {
      "frame_id": 43,
      "sensor_timestamp": 17010095051504,
      "time_usec": 17010095051
    },
    {
      "frame_id": 44,
      "sensor_timestamp": 17010128297842,
      "time_usec": 17010128297
    },
    {
      "frame_id": 45,
      "sensor_timestamp": 17010161544180,
      "time_usec": 17010161544
    },
    {
      "frame_id": 46,
      "sensor_timestamp": 17010194790518,
      "time_usec": 17010194790
    },
    {
      "frame_id": 47,
      "sensor_timestamp": 17010228037100,
      "time_usec": 17010228037
    },
    {
      "frame_id": 48,
      "sensor_timestamp": 17010261283438,
      "time_usec": 17010261283
    },
    {
      "frame_id": 49,
      "sensor_timestamp": 17010294529776,
      "time_usec": 17010294529
    },
    {
      "frame_id": 50,
      "sensor_timestamp": 17010327776114,
      "time_usec": 17010327776
    },
    {
      "frame_id": 51,
      "sensor_timestamp": 17010361022696,
      "time_usec": 17010361022
    },
    {
      "frame_id": 52,
      "sensor_timestamp": 17010394269034,
      "time_usec": 17010394269
    },
    {
      "frame_id": 53,
      "sensor_timestamp": 17010427515372,
      "time_usec": 17010427515
    },
    {
      "frame_id": 54,
      "sensor_timestamp": 17010460761709,
      "time_usec": 17010460761
    },
    {
      "frame_id": 55,
      "sensor_timestamp": 17010494008292,
      "time_usec": 17010494008
    },
    {
      "frame_id": 56,
      "sensor_timestamp": 17010527254629,
      "time_usec": 17010527254
    },
    {
      "frame_id": 57,
      "sensor_timestamp": 17010560500967,
      "time_usec": 17010560500
    },
    {
      "frame_id": 58,
      "sensor_timestamp": 17010593747305,
      "time_usec": 17010593747
    },
    {
      "frame_id": 59,
      "sensor_timestamp": 17010626993887,
      "time_usec": 17010626993
    },
    {
      "frame_id": 60,
      "sensor_timestamp": 17010660240225,
      "time_usec": 17010660240
    },
    {
      "frame_id": 61,
      "sensor_timestamp": 17010693486563,
      "time_usec": 17010693486
    },
    {
      "frame_id": 62,
      "sensor_timestamp": 17010726732901,
      "time_usec": 17010726732
    },
    {
      "frame_id": 63,
      "sensor_timestamp": 17010759979483,
      "time_usec": 17010759979
    },
    {
      "frame_id": 64,
      "sensor_timestamp": 17010793225821,
      "time_usec": 17010793225
    },
    {
      "frame_id": 65,
      "sensor_timestamp": 17010826472159,
      "time_usec": 17010826472
    },
    {
      "frame_id": 66,
      "sensor_timestamp": 17010859718497,
      "time_usec": 17010859718
    },
    {
      "frame_id": 67,
      "sensor_timestamp": 17010892964834,
      "time_usec": 17010892964
    },
    {
      "frame_id": 68,
      "sensor_timestamp": 17010926211417,
      "time_usec": 17010926211
    },
    {
      "frame_id": 69,
      "sensor_timestamp": 17010959457754,
      "time_usec": 17010959457
    },
    {
      "frame_id": 70,
      "sensor_timestamp": 17010992704092,
      "time_usec": 17010992704
    },
    {
      "frame_id": 71,
      "sensor_timestamp": 17011025950430,
      "time_usec": 17011025950
    },
    {
      "frame_id": 72,
      "sensor_timestamp": 17011059197012,
      "time_usec": 17011059197
    },
    {
      "frame_id": 73,
      "sensor_timestamp": 17011092443350,
      "time_usec": 17011092443
    },
    {
      "frame_id": 74,
      "sensor_timestamp": 17011125689688,
      "time_usec": 17011125689
    },
    {
      "frame_id": 75,
      "sensor_timestamp": 17011158936026,
      "time_usec": 17011158936
    },
    {
      "frame_id": 76,
      "sensor_timestamp": 17011192182608,
      "time_usec": 17011192182
    },
    {
      "frame_id": 77,
      "sensor_timestamp": 17011225428946,
      "time_usec": 17011225428
    },
    {
      "frame_id": 78,
      "sensor_timestamp": 17011258675284,
      "time_usec": 17011258675
    },
    {
      "frame_id": 79,
      "sensor_timestamp": 17011291921622,
      "time_usec": 17011291921
    },
    {
      "frame_id": 80,
      "sensor_timestamp": 17011325168204,
      "time_usec": 17011325168
    },
    {
      "frame_id": 81,
      "sensor_timestamp": 17011358414542,
      "time_usec": 17011358414
    },
    {
      "frame_id": 82,
      "sensor_timestamp": 17011391660879,
      "time_usec": 17011391660
    },
    {
      "frame_id": 83,
      "sensor_timestamp": 17011424907217,
      "time_usec": 17011424907
    },
    {
      "frame_id": 84,
      "sensor_timestamp": 17011458153799,
      "time_usec": 17011458153
    },
    {
      "frame_id": 85,
      "sensor_timestamp": 17011491400137,
      "time_usec": 17011491400
    },
    {
      "frame_id": 86,
      "sensor_timestamp": 17011524646475,
      "time_usec": 17011524646
    },
    {
      "frame_id": 87,
      "sensor_timestamp": 17011557892813,
      "time_usec": 17011557892
    },
    {
      "frame_id": 88,
      "sensor_timestamp": 17011591139395,
      "time_usec": 17011591139
    },
    {
      "frame_id": 89,
      "sensor_timestamp": 17011624385733,
      "time_usec": 17011624385
    },
    {
      "frame_id": 90,
      "sensor_timestamp": 17011657589141,
      "time_usec": 17011657589
    },
    {
      "frame_id": 91,
      "sensor_timestamp": 17011690878409,
      "time_usec": 17011690878
    },
    {
      "frame_id": 92,
      "sensor_timestamp": 17011724124991,
      "time_usec": 17011724124
    },
    {
      "frame_id": 93,
      "sensor_timestamp": 17011757371329,
      "time_usec": 17011757371
    },
    {
      "frame_id": 94,
      "sensor_timestamp": 17011790617667,
      "time_usec": 17011790617
    },
    {
      "frame_id": 95,
      "sensor_timestamp": 17011823864004,
      "time_usec": 17011823864
    },
    {
      "frame_id": 96,
      "sensor_timestamp": 17011857110586,
      "time_usec": 17011857110
    },
    {
      "frame_id": 97,
      "sensor_timestamp": 17011890356924,
      "time_usec": 17011890356
    },
    {
      "frame_id": 98,
      "sensor_timestamp": 17011923603262,
      "time_usec": 17011923603
    },
    {
      "frame_id": 99,
      "sensor_timestamp": 17011956849600,
      "time_usec": 17011956849
    },
    {
      "frame_id": 100,
      "sensor_timestamp": 17011990096182,
      "time_usec": 17011990096
    },
    {
      "frame_id": 101,
      "sensor_timestamp": 17012023342520,
      "time_usec": 17012023342
    },
    {
      "frame_id": 102,
      "sensor_timestamp": 17012056588858,
      "time_usec": 17012056588
    },
    {
      "frame_id": 103,
      "sensor_timestamp": 17012089835196,
      "time_usec": 17012089835
    },
    {
      "frame_id": 104,
      "sensor_timestamp": 17012123081534,
      "time_usec": 17012123081
    },
    {
      "frame_id": 105,
      "sensor_timestamp": 17012156328116,
      "time_usec": 17012156328
    },
    {
      "frame_id": 106,
      "sensor_timestamp": 17012189574454,
      "time_usec": 17012189574
    },
    {
      "frame_id": 107,
      "sensor_timestamp": 17012222820792,
      "time_usec": 17012222820
    },
    {
      "frame_id": 108,
      "sensor_timestamp": 17012256067129,
      "time_usec": 17012256067
    },
    {
      "frame_id": 109,
      "sensor_timestamp": 17012289313711,
      "time_usec": 17012289313
    },
    {
      "frame_id": 110,
      "sensor_timestamp": 17012322560049,
      "time_usec": 17012322560
    },
    {
      "frame_id": 111,
      "sensor_timestamp": 17012355806387,
      "time_usec": 17012355806
    },
    {
      "frame_id": 112,
      "sensor_timestamp": 17012389052725,
      "time_usec": 17012389052
    },
    {
      "frame_id": 113,
      "sensor_timestamp": 17012422299307,
      "time_usec": 17012422299
    },
    {
      "frame_id": 114,
      "sensor_timestamp": 17012455545645,
      "time_usec": 17012455545
    },
    {
      "frame_id": 115,
      "sensor_timestamp": 17012488791983,
      "time_usec": 17012488791
    },
    {
      "frame_id": 116,
      "sensor_timestamp": 17012522038321,
      "time_usec": 17012522038
    },
    {
      "frame_id": 117,
      "sensor_timestamp": 17012555284903,
      "time_usec": 17012555284
    },
    {
      "frame_id": 118,
      "sensor_timestamp": 17012588531241,
      "time_usec": 17012588531
    },
    {
      "frame_id": 119,
      "sensor_timestamp": 17012621777579,
      "time_usec": 17012621777
    },
    {
      "frame_id": 120,
      "sensor_timestamp": 17012655023917,
      "time_usec": 17012655023
    },
    {
      "frame_id": 121,
      "sensor_timestamp": 17012688270499,
      "time_usec": 17012688270
    },
    {
      "frame_id": 122,
      "sensor_timestamp": 17012721516836,
      "time_usec": 17012721516
    },
    {
      "frame_id": 123,
      "sensor_timestamp": 17012754763174,
      "time_usec": 17012754763
    },
    {
      "frame_id": 124,
      "sensor_timestamp": 17012788009512,
      "time_usec": 17012788009
    },
    {
      "frame_id": 125,
      "sensor_timestamp": 17012821256094,
      "time_usec": 17012821256
    },
    {
      "frame_id": 126,
      "sensor_timestamp": 17012854502432,
      "time_usec": 17012854502
    },
    {
      "frame_id": 127,
      "sensor_timestamp": 17012887748770,
      "time_usec": 17012887748
    },
    {
      "frame_id": 128,
      "sensor_timestamp": 17012920995108,
      "time_usec": 17012920995
    },
    {
      "frame_id": 129,
      "sensor_timestamp": 17012954241690,
      "time_usec": 17012954241
    },
    {
      "frame_id": 130,
      "sensor_timestamp": 17012987488028,
      "time_usec": 17012987488
    },
    {
      "frame_id": 131,
      "sensor_timestamp": 17013020734366,
      "time_usec": 17013020734
    },
    {
      "frame_id": 132,
      "sensor_timestamp": 17013053980704,
      "time_usec": 17013053980
    },
    {
      "frame_id": 133,
      "sensor_timestamp": 17013087227286,
      "time_usec": 17013087227
    },
    {
      "frame_id": 134,
      "sensor_timestamp": 17013120473624,
      "time_usec": 17013120473
    },
    {
      "frame_id": 135,
      "sensor_timestamp": 17013153719961,
      "time_usec": 17013153719
    },
    {
      "frame_id": 136,
      "sensor_timestamp": 17013186966299,
      "time_usec": 17013186966
    },
    {
      "frame_id": 137,
      "sensor_timestamp": 17013220212881,
      "time_usec": 17013220212
    },
    {
      "frame_id": 138,
      "sensor_timestamp": 17013253459219,
      "time_usec": 17013253459
    },
    {
      "frame_id": 139,
      "sensor_timestamp": 17013286705557,
      "time_usec": 17013286705
    },
    {
      "frame_id": 140,
      "sensor_timestamp": 17013319951895,
      "time_usec": 17013319951
    },
    {
      "frame_id": 141,
      "sensor_timestamp": 17013353198233,
      "time_usec": 17013353198
    },
    {
      "frame_id": 142,
      "sensor_timestamp": 17013386444815,
      "time_usec": 17013386444
    },
    {
      "frame_id": 143,
      "sensor_timestamp": 17013419691153,
      "time_usec": 17013419691
    },
    {
      "frame_id": 144,
      "sensor_timestamp": 17013452937491,
      "time_usec": 17013452937
    },
    {
      "frame_id": 145,
      "sensor_timestamp": 17013486183829,
      "time_usec": 17013486183
    },
    {
      "frame_id": 146,
      "sensor_timestamp": 17013519430411,
      "time_usec": 17013519430
    },
    {
      "frame_id": 147,
      "sensor_timestamp": 17013552676749,
      "time_usec": 17013552676
    },
    {
      "frame_id": 148,
      "sensor_timestamp": 17013585923086,
      "time_usec": 17013585923
    },
    {
      "frame_id": 149,
      "sensor_timestamp": 17013619169424,
      "time_usec": 17013619169
    },
    {
      "frame_id": 150,
      "sensor_timestamp": 17013652416006,
      "time_usec": 17013652416
    },
    {
      "frame_id": 151,
      "sensor_timestamp": 17013685662344,
      "time_usec": 17013685662
    },
    {
      "frame_id": 152,
      "sensor_timestamp": 17013718908682,
      "time_usec": 17013718908
    },
    {
      "frame_id": 153,
      "sensor_timestamp": 17013752155020,
      "time_usec": 17013752155
    },
    {
      "frame_id": 154,
      "sensor_timestamp": 17013785401602,
      "time_usec": 17013785401
    },
    {
      "frame_id": 155,
      "sensor_timestamp": 17013818647940,
      "time_usec": 17013818647
    },
    {
      "frame_id": 156,
      "sensor_timestamp": 17013851894278,
      "time_usec": 17013851894
    },
    {
      "frame_id": 157,
      "sensor_timestamp": 17013885140616,
      "time_usec": 17013885140
    },
    {
      "frame_id": 158,
      "sensor_timestamp": 17013918387198,
      "time_usec": 17013918387
    },
    {
      "frame_id": 159,
      "sensor_timestamp": 17013951633536,
      "time_usec": 17013951633
    },
    {
      "frame_id": 160,
      "sensor_timestamp": 17013984879874,
      "time_usec": 17013984879
    },
    {
      "frame_id": 161,
      "sensor_timestamp": 17014018126211,
      "time_usec": 17014018126
    },
    {
      "frame_id": 162,
      "sensor_timestamp": 17014051372793,
      "time_usec": 17014051372
    },
    {
      "frame_id": 163,
      "sensor_timestamp": 17014084619131,
      "time_usec": 17014084619
    },
    {
      "frame_id": 164,
      "sensor_timestamp": 17014117865469,
      "time_usec": 17014117865
    },
    {
      "frame_id": 165,
      "sensor_timestamp": 17014151111807,
      "time_usec": 17014151111
    },
    {
      "frame_id": 166,
      "sensor_timestamp": 17014184358389,
      "time_usec": 17014184358
    },
    {
      "frame_id": 167,
      "sensor_timestamp": 17014217604727,
      "time_usec": 17014217604
    },
    {
      "frame_id": 168,
      "sensor_timestamp": 17014250851065,
      "time_usec": 17014250851
    },
    {
      "frame_id": 169,
      "sensor_timestamp": 17014284097403,
      "time_usec": 17014284097
    },
    {
      "frame_id": 170,
      "sensor_timestamp": 17014317343985,
      "time_usec": 17014317343
    },
    {
      "frame_id": 171,
      "sensor_timestamp": 17014350590323,
      "time_usec": 17014350590
    },
    {
      "frame_id": 172,
      "sensor_timestamp": 17014383836661,
      "time_usec": 17014383836
    },
    {
      "frame_id": 173,
      "sensor_timestamp": 17014417082999,
      "time_usec": 17014417082
    },
    {
      "frame_id": 174,
      "sensor_timestamp": 17014450329581,
      "time_usec": 17014450329
    },
    {
      "frame_id": 175,
      "sensor_timestamp": 17014483575918,
      "time_usec": 17014483575
    },
    {
      "frame_id": 176,
      "sensor_timestamp": 17014516822256,
      "time_usec": 17014516822
    },
    {
      "frame_id": 177,
      "sensor_timestamp": 17014550068594,
      "time_usec": 17014550068
    },
    {
      "frame_id": 178,
      "sensor_timestamp": 17014583314932,
      "time_usec": 17014583314
    },
    {
      "frame_id": 179,
      "sensor_timestamp": 17014616561514,
      "time_usec": 17014616561
    },
    {
      "frame_id": 180,
      "sensor_timestamp": 17014649807852,
      "time_usec": 17014649807
    },
    {
      "frame_id": 181,
      "sensor_timestamp": 17014683054190,
      "time_usec": 17014683054
    },
    {
      "frame_id": 182,
      "sensor_timestamp": 17014716300528,
      "time_usec": 17014716300
    },
    {
      "frame_id": 183,
      "sensor_timestamp": 17014749547110,
      "time_usec": 17014749547
    },
    {
      "frame_id": 184,
      "sensor_timestamp": 17014782793448,
      "time_usec": 17014782793
    },
    {
      "frame_id": 185,
      "sensor_timestamp": 17014816039786,
      "time_usec": 17014816039
    },
    {
      "frame_id": 186,
      "sensor_timestamp": 17014849286124,
      "time_usec": 17014849286
    },
    {
      "frame_id": 187,
      "sensor_timestamp": 17014882532706,
      "time_usec": 17014882532
    },
    {
      "frame_id": 188,
      "sensor_timestamp": 17014915779043,
      "time_usec": 17014915779
    },
    {
      "frame_id": 189,
      "sensor_timestamp": 17014949025381,
      "time_usec": 17014949025
    },
    {
      "frame_id": 190,
      "sensor_timestamp": 17014982271719,
      "time_usec": 17014982271
    },
    {
      "frame_id": 191,
      "sensor_timestamp": 17015015518301,
      "time_usec": 17015015518
    },
    {
      "frame_id": 192,
      "sensor_timestamp": 17015048764639,
      "time_usec": 17015048764
    },
    {
      "frame_id": 193,
      "sensor_timestamp": 17015082010977,
      "time_usec": 17015082010
    },
    {
      "frame_id": 194,
      "sensor_timestamp": 17015115257315,
      "time_usec": 17015115257
    },
    {
      "frame_id": 195,
      "sensor_timestamp": 17015148503897,
      "time_usec": 17015148503
    },
    {
      "frame_id": 196,
      "sensor_timestamp": 17015181750235,
      "time_usec": 17015181750
    },
    {
      "frame_id": 197,
      "sensor_timestamp": 17015214996573,
      "time_usec": 17015214996
    },
    {
      "frame_id": 198,
      "sensor_timestamp": 17015248242911,
      "time_usec": 17015248242
    },
    {
      "frame_id": 199,
      "sensor_timestamp": 17015281489493,
      "time_usec": 17015281489
    },
    {
      "frame_id": 200,
      "sensor_timestamp": 17015314735831,
      "time_usec": 17015314735
    },
    {
      "frame_id": 201,
      "sensor_timestamp": 17015347982168,
      "time_usec": 17015347982
    },
    {
      "frame_id": 202,
      "sensor_timestamp": 17015381228506,
      "time_usec": 17015381228
    },
    {
      "frame_id": 203,
      "sensor_timestamp": 17015414475088,
      "time_usec": 17015414475
    },
    {
      "frame_id": 204,
      "sensor_timestamp": 17015447721426,
      "time_usec": 17015447721
    },
    {
      "frame_id": 205,
      "sensor_timestamp": 17015480967764,
      "time_usec": 17015480967
    },
    {
      "frame_id": 206,
      "sensor_timestamp": 17015514214102,
      "time_usec": 17015514214
    },
    {
      "frame_id": 207,
      "sensor_timestamp": 17015547460684,
      "time_usec": 17015547460
    },
    {
      "frame_id": 208,
      "sensor_timestamp": 17015580707022,
      "time_usec": 17015580707
    },
    {
      "frame_id": 209,
      "sensor_timestamp": 17015613953360,
      "time_usec": 17015613953
    },
    {
      "frame_id": 210,
      "sensor_timestamp": 17015647199698,
      "time_usec": 17015647199
    },
    {
      "frame_id": 211,
      "sensor_timestamp": 17015680446280,
      "time_usec": 17015680446
    },
    {
      "frame_id": 212,
      "sensor_timestamp": 17015713692618,
      "time_usec": 17015713692
    },
    {
      "frame_id": 213,
      "sensor_timestamp": 17015746938956,
      "time_usec": 17015746938
    },
    {
      "frame_id": 214,
      "sensor_timestamp": 17015780185293,
      "time_usec": 17015780185
    },
    {
      "frame_id": 215,
      "sensor_timestamp": 17015813431631,
      "time_usec": 17015813431
    },
    {
      "frame_id": 216,
      "sensor_timestamp": 17015846678213,
      "time_usec": 17015846678
    },
    {
      "frame_id": 217,
      "sensor_timestamp": 17015879924551,
      "time_usec": 17015879924
    },
    {
      "frame_id": 218,
      "sensor_timestamp": 17015913170889,
      "time_usec": 17015913170
    },
    {
      "frame_id": 219,
      "sensor_timestamp": 17015946417227,
      "time_usec": 17015946417
    },
    {
      "frame_id": 220,
      "sensor_timestamp": 17015979663809,
      "time_usec": 17015979663
    },
    {
      "frame_id": 221,
      "sensor_timestamp": 17016012910147,
      "time_usec": 17016012910
    },
    {
      "frame_id": 222,
      "sensor_timestamp": 17016046156485,
      "time_usec": 17016046156
    },
    {
      "frame_id": 223,
      "sensor_timestamp": 17016079402823,
      "time_usec": 17016079402
    },
    {
      "frame_id": 224,
      "sensor_timestamp": 17016112649405,
      "time_usec": 17016112649
    },
    {
      "frame_id": 225,
      "sensor_timestamp": 17016145895743,
      "time_usec": 17016145895
    },
    {
      "frame_id": 226,
      "sensor_timestamp": 17016179142081,
      "time_usec": 17016179142
    },
    {
      "frame_id": 227,
      "sensor_timestamp": 17016212388418,
      "time_usec": 17016212388
    },
    {
      "frame_id": 228,
      "sensor_timestamp": 17016245635000,
      "time_usec": 17016245635
    },
    {
      "frame_id": 229,
      "sensor_timestamp": 17016278881338,
      "time_usec": 17016278881
    },
    {
      "frame_id": 230,
      "sensor_timestamp": 17016312127676,
      "time_usec": 17016312127
    },
    {
      "frame_id": 231,
      "sensor_timestamp": 17016345374014,
      "time_usec": 17016345374
    },
    {
      "frame_id": 232,
      "sensor_timestamp": 17016378620596,
      "time_usec": 17016378620
    },
    {
      "frame_id": 233,
      "sensor_timestamp": 17016411866934,
      "time_usec": 17016411866
    },
    {
      "frame_id": 234,
      "sensor_timestamp": 17016445113272,
      "time_usec": 17016445113
    },
    {
      "frame_id": 235,
      "sensor_timestamp": 17016478359610,
      "time_usec": 17016478359
    },
    {
      "frame_id": 236,
      "sensor_timestamp": 17016511606192,
      "time_usec": 17016511606
    },
    {
      "frame_id": 237,
      "sensor_timestamp": 17016544852530,
      "time_usec": 17016544852
    },
    {
      "frame_id": 238,
      "sensor_timestamp": 17016578098868,
      "time_usec": 17016578098
    },
    {
      "frame_id": 239,
      "sensor_timestamp": 17016611345206,
      "time_usec": 17016611345
    },
    {
      "frame_id": 240,
      "sensor_timestamp": 17016644591788,
      "time_usec": 17016644591
    },
    {
      "frame_id": 241,
      "sensor_timestamp": 17016677838125,
      "time_usec": 17016677838
    },
    {
      "frame_id": 242,
      "sensor_timestamp": 17016711084463,
      "time_usec": 17016711084
    },
    {
      "frame_id": 243,
      "sensor_timestamp": 17016744330801,
      "time_usec": 17016744330
    },
    {
      "frame_id": 244,
      "sensor_timestamp": 17016777577383,
      "time_usec": 17016777577
    },
    {
      "frame_id": 245,
      "sensor_timestamp": 17016810823721,
      "time_usec": 17016810823
    },
    {
      "frame_id": 246,
      "sensor_timestamp": 17016844070059,
      "time_usec": 17016844070
    },
    {
      "frame_id": 247,
      "sensor_timestamp": 17016877316397,
      "time_usec": 17016877316
    },
    {
      "frame_id": 248,
      "sensor_timestamp": 17016910562735,
      "time_usec": 17016910562
    },
    {
      "frame_id": 249,
      "sensor_timestamp": 17016943809317,
      "time_usec": 17016943809
    },
    {
      "frame_id": 250,
      "sensor_timestamp": 17016977055655,
      "time_usec": 17016977055
    },
    {
      "frame_id": 251,
      "sensor_timestamp": 17017010301993,
      "time_usec": 17017010301
    },
    {
      "frame_id": 252,
      "sensor_timestamp": 17017043548331,
      "time_usec": 17017043548
    },
    {
      "frame_id": 253,
      "sensor_timestamp": 17017076794913,
      "time_usec": 17017076794
    },
    {
      "frame_id": 254,
      "sensor_timestamp": 17017110041250,
      "time_usec": 17017110041
    },
    {
      "frame_id": 255,
      "sensor_timestamp": 17017143287588,
      "time_usec": 17017143287
    },
    {
      "frame_id": 256,
      "sensor_timestamp": 17017176533926,
      "time_usec": 17017176533
    },
    {
      "frame_id": 257,
      "sensor_timestamp": 17017209780508,
      "time_usec": 17017209780
    },
    {
      "frame_id": 258,
      "sensor_timestamp": 17017243026846,
      "time_usec": 17017243026
    },
    {
      "frame_id": 259,
      "sensor_timestamp": 17017276273184,
      "time_usec": 17017276273
    },
    {
      "frame_id": 260,
      "sensor_timestamp": 17017309519522,
      "time_usec": 17017309519
    },
    {
      "frame_id": 261,
      "sensor_timestamp": 17017342766104,
      "time_usec": 17017342766
    },
    {
      "frame_id": 262,
      "sensor_timestamp": 17017376012442,
      "time_usec": 17017376012
    },
    {
      "frame_id": 263,
      "sensor_timestamp": 17017409258780,
      "time_usec": 17017409258
    },
    {
      "frame_id": 264,
      "sensor_timestamp": 17017442505118,
      "time_usec": 17017442505
    },
    {
      "frame_id": 265,
      "sensor_timestamp": 17017475751700,
      "time_usec": 17017475751
    },
    {
      "frame_id": 266,
      "sensor_timestamp": 17017508998038,
      "time_usec": 17017508998
    },
    {
      "frame_id": 267,
      "sensor_timestamp": 17017542244375,
      "time_usec": 17017542244
    },
    {
      "frame_id": 268,
      "sensor_timestamp": 17017575490713,
      "time_usec": 17017575490
    },
    {
      "frame_id": 269,
      "sensor_timestamp": 17017608737295,
      "time_usec": 17017608737
    },
    {
      "frame_id": 270,
      "sensor_timestamp": 17017641983633,
      "time_usec": 17017641983
    },
    {
      "frame_id": 271,
      "sensor_timestamp": 17017675229971,
      "time_usec": 17017675229
    },
    {
      "frame_id": 272,
      "sensor_timestamp": 17017708476309,
      "time_usec": 17017708476
    },
    {
      "frame_id": 273,
      "sensor_timestamp": 17017741722891,
      "time_usec": 17017741722
    },
    {
      "frame_id": 274,
      "sensor_timestamp": 17017774969229,
      "time_usec": 17017774969
    },
    {
      "frame_id": 275,
      "sensor_timestamp": 17017808215567,
      "time_usec": 17017808215
    },
    {
      "frame_id": 276,
      "sensor_timestamp": 17017841461905,
      "time_usec": 17017841461
    },
    {
      "frame_id": 277,
      "sensor_timestamp": 17017874708487,
      "time_usec": 17017874708
    },
    {
      "frame_id": 278,
      "sensor_timestamp": 17017907954825,
      "time_usec": 17017907954
    },
    {
      "frame_id": 279,
      "sensor_timestamp": 17017941201163,
      "time_usec": 17017941201
    },
    {
      "frame_id": 280,
      "sensor_timestamp": 17017974447500,
      "time_usec": 17017974447
    },
    {
      "frame_id": 281,
      "sensor_timestamp": 17018007694083,
      "time_usec": 17018007694
    },
    {
      "frame_id": 282,
      "sensor_timestamp": 17018040940420,
      "time_usec": 17018040940
    },
    {
      "frame_id": 283,
      "sensor_timestamp": 17018074186758,
      "time_usec": 17018074186
    },
    {
      "frame_id": 284,
      "sensor_timestamp": 17018107433096,
      "time_usec": 17018107433
    },
    {
      "frame_id": 285,
      "sensor_timestamp": 17018140679434,
      "time_usec": 17018140679
    },
    {
      "frame_id": 286,
      "sensor_timestamp": 17018173926016,
      "time_usec": 17018173926
    },
    {
      "frame_id": 287,
      "sensor_timestamp": 17018207172354,
      "time_usec": 17018207172
    },
    {
      "frame_id": 288,
      "sensor_timestamp": 17018240418692,
      "time_usec": 17018240418
    },
    {
      "frame_id": 289,
      "sensor_timestamp": 17018273665030,
      "time_usec": 17018273665
    },
    {
      "frame_id": 290,
      "sensor_timestamp": 17018306911612,
      "time_usec": 17018306911
    },
    {
      "frame_id": 291,
      "sensor_timestamp": 17018340157950,
      "time_usec": 17018340157
    },
    {
      "frame_id": 292,
      "sensor_timestamp": 17018373404288,
      "time_usec": 17018373404
    },
    {
      "frame_id": 293,
      "sensor_timestamp": 17018406650625,
      "time_usec": 17018406650
    },
    {
      "frame_id": 294,
      "sensor_timestamp": 17018439897208,
      "time_usec": 17018439897
    },
    {
      "frame_id": 295,
      "sensor_timestamp": 17018473143545,
      "time_usec": 17018473143
    },
    {
      "frame_id": 296,
      "sensor_timestamp": 17018506389883,
      "time_usec": 17018506389
    },
    {
      "frame_id": 297,
      "sensor_timestamp": 17018539636221,
      "time_usec": 17018539636
    },
    {
      "frame_id": 298,
      "sensor_timestamp": 17018572882803,
      "time_usec": 17018572882
    },
    {
      "frame_id": 299,
      "sensor_timestamp": 17018606129141,
      "time_usec": 17018606129
    },
    {
      "frame_id": 300,
      "sensor_timestamp": 17018639375479,
      "time_usec": 17018639375
    },
    {
      "frame_id": 301,
      "sensor_timestamp": 17018672621817,
      "time_usec": 17018672621
    },
    {
      "frame_id": 302,
      "sensor_timestamp": 17018705868399,
      "time_usec": 17018705868
    },
    {
      "frame_id": 303,
      "sensor_timestamp": 17018739114737,
      "time_usec": 17018739114
    },
    {
      "frame_id": 304,
      "sensor_timestamp": 17018772361075,
      "time_usec": 17018772361
    },
    {
      "frame_id": 305,
      "sensor_timestamp": 17018805607413,
      "time_usec": 17018805607
    },
    {
      "frame_id": 306,
      "sensor_timestamp": 17018838853995,
      "time_usec": 17018838853
    },
    {
      "frame_id": 307,
      "sensor_timestamp": 17018872100333,
      "time_usec": 17018872100
    },
    {
      "frame_id": 308,
      "sensor_timestamp": 17018905346670,
      "time_usec": 17018905346
    },
    {
      "frame_id": 309,
      "sensor_timestamp": 17018938593008,
      "time_usec": 17018938593
    },
    {
      "frame_id": 310,
      "sensor_timestamp": 17018971839590,
      "time_usec": 17018971839
    },
    {
      "frame_id": 311,
      "sensor_timestamp": 17019005085928,
      "time_usec": 17019005085
    },
    {
      "frame_id": 312,
      "sensor_timestamp": 17019038332266,
      "time_usec": 17019038332
    },
    {
      "frame_id": 313,
      "sensor_timestamp": 17019071578604,
      "time_usec": 17019071578
    },
    {
      "frame_id": 314,
      "sensor_timestamp": 17019104825186,
      "time_usec": 17019104825
    },
    {
      "frame_id": 315,
      "sensor_timestamp": 17019138071524,
      "time_usec": 17019138071
    },
    {
      "frame_id": 316,
      "sensor_timestamp": 17019171317862,
      "time_usec": 17019171317
    },
    {
      "frame_id": 317,
      "sensor_timestamp": 17019204564200,
      "time_usec": 17019204564
    },
    {
      "frame_id": 318,
      "sensor_timestamp": 17019237810782,
      "time_usec": 17019237810
    },
    {
      "frame_id": 319,
      "sensor_timestamp": 17019271057120,
      "time_usec": 17019271057
    },
    {
      "frame_id": 320,
      "sensor_timestamp": 17019304303458,
      "time_usec": 17019304303
    },
    {
      "frame_id": 321,
      "sensor_timestamp": 17019337494744,
      "time_usec": 17019337494
    },
    {
      "frame_id": 322,
      "sensor_timestamp": 17019370796133,
      "time_usec": 17019370796
    },
    {
      "frame_id": 323,
      "sensor_timestamp": 17019404042715,
      "time_usec": 17019404042
    },
    {
      "frame_id": 324,
      "sensor_timestamp": 17019437289053,
      "time_usec": 17019437289
    },
    {
      "frame_id": 325,
      "sensor_timestamp": 17019470535391,
      "time_usec": 17019470535
    },
    {
      "frame_id": 326,
      "sensor_timestamp": 17019503781729,
      "time_usec": 17019503781
    },
    {
      "frame_id": 327,
      "sensor_timestamp": 17019537028311,
      "time_usec": 17019537028
    },
    {
      "frame_id": 328,
      "sensor_timestamp": 17019570274649,
      "time_usec": 17019570274
    },
    {
      "frame_id": 329,
      "sensor_timestamp": 17019603520987,
      "time_usec": 17019603520
    },
    {
      "frame_id": 330,
      "sensor_timestamp": 17019636767325,
      "time_usec": 17019636767
    },
    {
      "frame_id": 331,
      "sensor_timestamp": 17019670013907,
      "time_usec": 17019670013
    },
    {
      "frame_id": 332,
      "sensor_timestamp": 17019703260245,
      "time_usec": 17019703260
    },
    {
      "frame_id": 333,
      "sensor_timestamp": 17019736506583,
      "time_usec": 17019736506
    },
    {
      "frame_id": 334,
      "sensor_timestamp": 17019769752920,
      "time_usec": 17019769752
    },
    {
      "frame_id": 335,
      "sensor_timestamp": 17019802999502,
      "time_usec": 17019802999
    },
    {
      "frame_id": 336,
      "sensor_timestamp": 17019836245840,
      "time_usec": 17019836245
    },
    {
      "frame_id": 337,
      "sensor_timestamp": 17019869492178,
      "time_usec": 17019869492
    },
    {
      "frame_id": 338,
      "sensor_timestamp": 17019902738516,
      "time_usec": 17019902738
    },
    {
      "frame_id": 339,
      "sensor_timestamp": 17019935985098,
      "time_usec": 17019935985
    },
    {
      "frame_id": 340,
      "sensor_timestamp": 17019969231436,
      "time_usec": 17019969231
    },
    {
      "frame_id": 341,
      "sensor_timestamp": 17020002477774,
      "time_usec": 17020002477
    },
    {
      "frame_id": 342,
      "sensor_timestamp": 17020035724112,
      "time_usec": 17020035724
    },
    {
      "frame_id": 343,
      "sensor_timestamp": 17020068970694,
      "time_usec": 17020068970
    },
    {
      "frame_id": 344,
      "sensor_timestamp": 17020102217032,
      "time_usec": 17020102217
    },
    {
      "frame_id": 345,
      "sensor_timestamp": 17020135463370,
      "time_usec": 17020135463
    },
    {
      "frame_id": 346,
      "sensor_timestamp": 17020168709708,
      "time_usec": 17020168709
    },
    {
      "frame_id": 347,
      "sensor_timestamp": 17020201956290,
      "time_usec": 17020201956
    },
    {
      "frame_id": 348,
      "sensor_timestamp": 17020235202627,
      "time_usec": 17020235202
    },
    {
      "frame_id": 349,
      "sensor_timestamp": 17020268448965,
      "time_usec": 17020268448
    },
    {
      "frame_id": 350,
      "sensor_timestamp": 17020301695303,
      "time_usec": 17020301695
    },
    {
      "frame_id": 351,
      "sensor_timestamp": 17020334941885,
      "time_usec": 17020334941
    },
    {
      "frame_id": 352,
      "sensor_timestamp": 17020368188223,
      "time_usec": 17020368188
    },
    {
      "frame_id": 353,
      "sensor_timestamp": 17020401434561,
      "time_usec": 17020401434
    },
    {
      "frame_id": 354,
      "sensor_timestamp": 17020434680899,
      "time_usec": 17020434680
    },
    {
      "frame_id": 355,
      "sensor_timestamp": 17020467927481,
      "time_usec": 17020467927
    },
    {
      "frame_id": 356,
      "sensor_timestamp": 17020501173819,
      "time_usec": 17020501173
    },
    {
      "frame_id": 357,
      "sensor_timestamp": 17020534420157,
      "time_usec": 17020534420
    },
    {
      "frame_id": 358,
      "sensor_timestamp": 17020567666495,
      "time_usec": 17020567666
    },
    {
      "frame_id": 359,
      "sensor_timestamp": 17020600912833,
      "time_usec": 17020600912
    },
    {
      "frame_id": 360,
      "sensor_timestamp": 17020634159415,
      "time_usec": 17020634159
    },
    {
      "frame_id": 361,
      "sensor_timestamp": 17020667405752,
      "time_usec": 17020667405
    },
    {
      "frame_id": 362,
      "sensor_timestamp": 17020700652090,
      "time_usec": 17020700652
    },
    {
      "frame_id": 363,
      "sensor_timestamp": 17020733898428,
      "time_usec": 17020733898
    },
    {
      "frame_id": 364,
      "sensor_timestamp": 17020767145010,
      "time_usec": 17020767145
    },
    {
      "frame_id": 365,
      "sensor_timestamp": 17020800391348,
      "time_usec": 17020800391
    },
    {
      "frame_id": 366,
      "sensor_timestamp": 17020833637686,
      "time_usec": 17020833637
    },
    {
      "frame_id": 367,
      "sensor_timestamp": 17020866884024,
      "time_usec": 17020866884
    },
    {
      "frame_id": 368,
      "sensor_timestamp": 17020900130606,
      "time_usec": 17020900130
    },
    {
      "frame_id": 369,
      "sensor_timestamp": 17020933376944,
      "time_usec": 17020933376
    },
    {
      "frame_id": 370,
      "sensor_timestamp": 17020966623282,
      "time_usec": 17020966623
    },
    {
      "frame_id": 371,
      "sensor_timestamp": 17020999869620,
      "time_usec": 17020999869
    },
    {
      "frame_id": 372,
      "sensor_timestamp": 17021033116202,
      "time_usec": 17021033116
    },
    {
      "frame_id": 373,
      "sensor_timestamp": 17021066362540,
      "time_usec": 17021066362
    }
  ]
}