{
  "frames": [
    {
      "frame_id": 0,
      "sensor_timestamp": 667918123243905,
      "time_usec": 667918123243
    },
    {
      "frame_id": 1,
      "sensor_timestamp": 667918189810068,
      "time_usec": 667918189810
    },
    {
      "frame_id": 2,
      "sensor_timestamp": 667918223093027,
      "time_usec": 667918223093
    },
    {
      "frame_id": 3,
      "sensor_timestamp": 667918256375986,
      "time_usec": 667918256375
    },
    {
      "frame_id": 4,
      "sensor_timestamp": 667918289658945,
      "time_usec": 667918289658
    },
    {
      "frame_id": 5,
      "sensor_timestamp": 667918322942148,
      "time_usec": 667918322942
    },
    {
      "frame_id": 6,
      "sensor_timestamp": 667918356225107,
      "time_usec": 667918356225
    },
    {
      "frame_id": 7,
      "sensor_timestamp": 667918389508066,
      "time_usec": 667918389508
    },
    {
      "frame_id": 8,
      "sensor_timestamp": 667918422791025,
      "time_usec": 667918422791
    },
    {
      "frame_id": 9,
      "sensor_timestamp": 667918456073984,
      "time_usec": 667918456073
    },
    {
      "frame_id": 10,
      "sensor_timestamp": 667918489357187,
      "time_usec": 667918489357
    },
    {
      "frame_id": 11,
      "sensor_timestamp": 667918522640146,
      "time_usec": 667918522640
    },
    {
      "frame_id": 12,
      "sensor_timestamp": 667918555923105,
      "time_usec": 667918555923
    },
    {
      "frame_id": 13,
      "sensor_timestamp": 667918589206064,
      "time_usec": 667918589206
    },
    {
      "frame_id": 14,
      "sensor_timestamp": 667918622489023,
      "time_usec": 667918622489
    },
    {
      "frame_id": 15,
      "sensor_timestamp": 667918655772226,
      "time_usec": 667918655772
    },
    {
      "frame_id": 16,
      "sensor_timestamp": 667918689055185,
      "time_usec": 667918689055
    },
    {
      "frame_id": 17,
      "sensor_timestamp": 667918722338144,
      "time_usec": 667918722338
    },
    {
      "frame_id": 18,
      "sensor_timestamp": 667918755621103,
      "time_usec": 667918755621
    },
    {
      "frame_id": 19,
      "sensor_timestamp": 667918788904306,
      "time_usec": 667918788904
    },
    {
      "frame_id": 20,
      "sensor_timestamp": 667918822187265,
      "time_usec": 667918822187
    },
    {
      "frame_id": 21,
      "sensor_timestamp": 667918855470224,
      "time_usec": 667918855470
    },
    {
      "frame_id": 22,
      "sensor_timestamp": 667918888753183,
      "time_usec": 667918888753
    },
    {
      "frame_id": 23,
      "sensor_timestamp": 667918922036142,
      "time_usec": 667918922036
    },
    {
      "frame_id": 24,
      "sensor_timestamp": 667918955319345,
      "time_usec": 667918955319
    },
    {
      "frame_id": 25,
      "sensor_timestamp": 667918988602304,
      "time_usec": 667918988602
    },
    {
      "frame_id": 26,
      "sensor_timestamp": 667919021885263,
      "time_usec": 667919021885
    },
    {
      "frame_id": 27,
      "sensor_timestamp": 667919055168222,
      "time_usec": 667919055168
    },
    {
      "frame_id": 28,
      "sensor_timestamp": 667919088451425,
      "time_usec": 667919088451
    },
    {
      "frame_id": 29,
      "sensor_timestamp": 667919121734384,
      "time_usec": 667919121734
    },
    {
      "frame_id": 30,
      "sensor_timestamp": 667919155017343,
      "time_usec": 667919155017
    },
    {
      "frame_id": 31,
      "sensor_timestamp": 667919188300302,
      "time_usec": 667919188300
    },
    {
      "frame_id": 32,
      "sensor_timestamp": 667919221583261,
      "time_usec": 667919221583
    },
    {
      "frame_id": 33,
      "sensor_timestamp": 667919254866464,
      "time_usec": 667919254866
    },
    {
      "frame_id": 34,
      "sensor_timestamp": 667919288149423,
      "time_usec": 667919288149
    },
    {
      "frame_id": 35,
      "sensor_timestamp": 667919321432382,
      "time_usec": 667919321432
    },
    {
      "frame_id": 36,
      "sensor_timestamp": 667919354715341,
      "time_usec": 667919354715
    },
    {
      "frame_id": 37,
      "sensor_timestamp": 667919387998544,
      "time_usec": 667919387998
    },
    {
      "frame_id": 38,
      "sensor_timestamp": 667919421281503,
      "time_usec": 667919421281
    },
    {
      "frame_id": 39,
      "sensor_timestamp": 667919454564462,
      "time_usec": 667919454564
    },
    {
      "frame_id": 40,
      "sensor_timestamp": 667919487847421,
      "time_usec": 667919487847
    },
    {
      "frame_id": 41,
      "sensor_timestamp": 667919521130380,
      "time_usec": 667919521130
    },
    {
      "frame_id": 42,
      "sensor_timestamp": 667919554413583,
      "time_usec": 667919554413
    },
    {
      "frame_id": 43,
      "sensor_timestamp": 667919587696542,
      "time_usec": 667919587696
    },
    {
      "frame_id": 44,
      "sensor_timestamp": 667919620979501,
      "time_usec": 667919620979
    },
    {
      "frame_id": 45,
      "sensor_timestamp": 667919654262460,
      "time_usec": 667919654262
    },
    {
      "frame_id": 46,
      "sensor_timestamp": 667919687545419,
      "time_usec": 667919687545
    },
    {
      "frame_id": 47,
      "sensor_timestamp": 667919720828622,
      "time_usec": 667919720828
    },
    {
      "frame_id": 48,
      "sensor_timestamp": 667919754111581,
      "time_usec": 667919754111
    },
    {
      "frame_id": 49,
      "sensor_timestamp": 667919787394540,
      "time_usec": 667919787394
    },
    {
      "frame_id": 50,
      "sensor_timestamp": 667919820677499,
      "time_usec": 667919820677
    },
    {
      "frame_id": 51,
      "sensor_timestamp": 667919853960702,
      "time_usec": 667919853960
    },
    {
      "frame_id": 52,
      "sensor_timestamp": 667919887243661,
      "time_usec": 667919887243
    },
    {
      "frame_id": 53,
      "sensor_timestamp": 667919920526620,
      "time_usec": 667919920526
    },
    {
      "frame_id": 54,
      "sensor_timestamp": 667919953809579,
      "time_usec": 667919953809
    },
    {
      "frame_id": 55,
      "sensor_timestamp": 667919987092538,
      "time_usec": 667919987092
    },
    {
      "frame_id": 56,
      "sensor_timestamp": 667920020375741,
      "time_usec": 667920020375
    },
    {
      "frame_id": 57,
      "sensor_timestamp": 667920053658700,
      "time_usec": 667920053658
    },
    {
      "frame_id": 58,
      "sensor_timestamp": 667920086941659,
      "time_usec": 667920086941
    },
    {
      "frame_id": 59,
      "sensor_timestamp": 667920120224618,
      "time_usec": 667920120224
    },
    {
      "frame_id": 60,
      "sensor_timestamp": 667920153507821,
      "time_usec": 667920153507
    },
    {
      "frame_id": 61,
      "sensor_timestamp": 667920186790780,
      "time_usec": 667920186790
    },
    {
      "frame_id": 62,
      "sensor_timestamp": 667920220073739,
      "time_usec": 667920220073
    },
    {
      "frame_id": 63,
      "sensor_timestamp": 667920253356698,
      "time_usec": 667920253356
    },
    {
      "frame_id": 64,
      "sensor_timestamp": 667920286639657,
      "time_usec": 667920286639
    },
    {
      "frame_id": 65,
      "sensor_timestamp": 667920319922861,
      "time_usec": 667920319922
    },
    {
      "frame_id": 66,
      "sensor_timestamp": 667920353205820,
      "time_usec": 667920353205
    },
    {
      "frame_id": 67,
      "sensor_timestamp": 667920386488779,
      "time_usec": 667920386488
    },
    {
      "frame_id": 68,
      "sensor_timestamp": 667920419771738,
      "time_usec": 667920419771
    },
    {
      "frame_id": 69,
      "sensor_timestamp": 667920453054696,
      "time_usec": 667920453054
    },
    {
      "frame_id": 70,
      "sensor_timestamp": 667920486337900,
      "time_usec": 667920486337
    },
    {
      "frame_id": 71,
      "sensor_timestamp": 667920519620859,
      "time_usec": 667920519620
    },
    {
      "frame_id": 72,
      "sensor_timestamp": 667920552903818,
      "time_usec": 667920552903
    },
    {
      "frame_id": 73,
      "sensor_timestamp": 667920586186777,
      "time_usec": 667920586186
    },
    {
      "frame_id": 74,
      "sensor_timestamp": 667920619469980,
      "time_usec": 667920619469
    },
    {
      "frame_id": 75,
      "sensor_timestamp": 667920652752939,
      "time_usec": 667920652752
    },
    {
      "frame_id": 76,
      "sensor_timestamp": 667920686035898,
      "time_usec": 667920686035
    },
    {
      "frame_id": 77,
      "sensor_timestamp": 667920719318857,
      "time_usec": 667920719318
    },
    {
      "frame_id": 78,
      "sensor_timestamp": 667920752601816,
      "time_usec": 667920752601
    },
    {
      "frame_id": 79,
      "sensor_timestamp": 667920785885019,
      "time_usec": 667920785885
    },
    {
      "frame_id": 80,
      "sensor_timestamp": 667920819167978,
      "time_usec": 667920819167
    },
    {
      "frame_id": 81,
      "sensor_timestamp": 667920852450937,
      "time_usec": 667920852450
    },
    {
      "frame_id": 82,
      "sensor_timestamp": 667920885733896,
      "time_usec": 667920885733
    },
    {
      "frame_id": 83,
      "sensor_timestamp": 667920919017099,
      "time_usec": 667920919017
    },
    {
      "frame_id": 84,
      "sensor_timestamp": 667920952300058,
      "time_usec": 667920952300
    },
    {
      "frame_id": 85,
      "sensor_timestamp": 667920985583017,
      "time_usec": 667920985583
    },
    {
      "frame_id": 86,
      "sensor_timestamp": 667921018865976,
      "time_usec": 667921018865
    },
    {
      "frame_id": 87,
      "sensor_timestamp": 667921052148935,
      "time_usec": 667921052148
    },
    {
      "frame_id": 88,
      "sensor_timestamp": 667921085432138,
      "time_usec": 667921085432
    },
    {
      "frame_id": 89,
      "sensor_timestamp": 667921118715097,
      "time_usec": 667921118715
    },
    {
      "frame_id": 90,
      "sensor_timestamp": 667921151998056,
      "time_usec": 667921151998
    },
    {
      "frame_id": 91,
      "sensor_timestamp": 667921185281015,
      "time_usec": 667921185281
    },
    {
      "frame_id": 92,
      "sensor_timestamp": 667921218563974,
      "time_usec": 667921218563
    },
    {
      "frame_id": 93,
      "sensor_timestamp": 667921251847177,
      "time_usec": 667921251847
    },
    {
      "frame_id": 94,
      "sensor_timestamp": 667921285130136,
      "time_usec": 667921285130
    },
    {
      "frame_id": 95,
      "sensor_timestamp": 667921318413095,
      "time_usec": 667921318413
    },
    {
      "frame_id": 96,
      "sensor_timestamp": 667921351696054,
      "time_usec": 667921351696
    },
    {
      "frame_id": 97,
      "sensor_timestamp": 667921384979257,
      "time_usec": 667921384979
    },
    {
      "frame_id": 98,
      "sensor_timestamp": 667921418262216,
      "time_usec": 667921418262
    },
    {
      "frame_id": 99,
      "sensor_timestamp": 667921451545175,
      "time_usec": 667921451545
    },
    {
      "frame_id": 100,
      "sensor_timestamp": 667921484828134,
      "time_usec": 667921484828
    },
    {
      "frame_id": 101,
      "sensor_timestamp": 667921518111093,
      "time_usec": 667921518111
    },
    {
      "frame_id": 102,
      "sensor_timestamp": 667921551394296,
      "time_usec": 667921551394
    },
    {
      "frame_id": 103,
      "sensor_timestamp": 667921584677255,
      "time_usec": 667921584677
    },
    {
      "frame_id": 104,
      "sensor_timestamp": 667921617960214,
      "time_usec": 667921617960
    },
    {
      "frame_id": 105,
      "sensor_timestamp": 667921651243173,
      "time_usec": 667921651243
    },
    {
      "frame_id": 106,
      "sensor_timestamp": 667921684526376,
      "time_usec": 667921684526
    },
    {
      "frame_id": 107,
      "sensor_timestamp": 667921717809335,
      "time_usec": 667921717809
    },
    {
      "frame_id": 108,
      "sensor_timestamp": 667921751092294,
      "time_usec": 667921751092
    },
    {
      "frame_id": 109,
      "sensor_timestamp": 667921784375253,
      "time_usec": 667921784375
    },
    {
      "frame_id": 110,
      "sensor_timestamp": 667921817658212,
      "time_usec": 667921817658
    },
    {
      "frame_id": 111,
      "sensor_timestamp": 667921850941415,
      "time_usec": 667921850941
    },
    {
      "frame_id": 112,
      "sensor_timestamp": 667921884224374,
      "time_usec": 667921884224
    },
    {
      "frame_id": 113,
      "sensor_timestamp": 667921917507333,
      "time_usec": 667921917507
    },
    {
      "frame_id": 114,
      "sensor_timestamp": 667921950790292,
      "time_usec": 667921950790
    },
    {
      "frame_id": 115,
      "sensor_timestamp": 667921984073495,
      "time_usec": 667921984073
    },
    {
      "frame_id": 116,
      "sensor_timestamp": 667922017356454,
      "time_usec": 667922017356
    },
    {
      "frame_id": 117,
      "sensor_timestamp": 667922050639413,
      "time_usec": 667922050639
    },
    {
      "frame_id": 118,
      "sensor_timestamp": 667922083922372,
      "time_usec": 667922083922
    },
    {
      "frame_id": 119,
      "sensor_timestamp": 667922117205331,
      "time_usec": 667922117205
    },
    {
      "frame_id": 120,
      "sensor_timestamp": 667922150488534,
      "time_usec": 667922150488
    },
    {
      "frame_id": 121,
      "sensor_timestamp": 667922183771493,
      "time_usec": 667922183771
    },
    {
      "frame_id": 122,
      "sensor_timestamp": 667922217054452,
      "time_usec": 667922217054
    },
    {
      "frame_id": 123,
      "sensor_timestamp": 667922250337411,
      "time_usec": 667922250337
    },
    {
      "frame_id": 124,
      "sensor_timestamp": 667922283620370,
      "time_usec": 667922283620
    },
    {
      "frame_id": 125,
      "sensor_timestamp": 667922316903573,
      "time_usec": 667922316903
    },
    {
      "frame_id": 126,
      "sensor_timestamp": 667922350186532,
      "time_usec": 667922350186
    },
    {
      "frame_id": 127,
      "sensor_timestamp": 667922383469491,
      "time_usec": 667922383469
    },
    {
      "frame_id": 128,
      "sensor_timestamp": 667922416752450,
      "time_usec": 667922416752
    },
    {
      "frame_id": 129,
      "sensor_timestamp": 667922450035654,
      "time_usec": 667922450035
    },
    {
      "frame_id": 130,
      "sensor_timestamp": 667922483318613,
      "time_usec": 667922483318
    },
    {
      "frame_id": 131,
      "sensor_timestamp": 667922516601571,
      "time_usec": 667922516601
    },
    {
      "frame_id": 132,
      "sensor_timestamp": 667922549831888,
      "time_usec": 667922549831
    },
    {
      "frame_id": 133,
      "sensor_timestamp": 667922583167489,
      "time_usec": 667922583167
    },
    {
      "frame_id": 134,
      "sensor_timestamp": 667922616450693,
      "time_usec": 667922616450
    },
    {
      "frame_id": 135,
      "sensor_timestamp": 667922649733652,
      "time_usec": 667922649733
    },
    {
      "frame_id": 136,
      "sensor_timestamp": 667922683016611,
      "time_usec": 667922683016
    },
    {
      "frame_id": 137,
      "sensor_timestamp": 667922716299570,
      "time_usec": 667922716299
    },
    {
      "frame_id": 138,
      "sensor_timestamp": 667922749582773,
      "time_usec": 667922749582
    },
    {
      "frame_id": 139,
      "sensor_timestamp": 667922782865732,
      "time_usec": 667922782865
    },
    {
      "frame_id": 140,
      "sensor_timestamp": 667922816148691,
      "time_usec": 667922816148
    },
    {
      "frame_id": 141,
      "sensor_timestamp": 667922849431650,
      "time_usec": 667922849431
    },
    {
      "frame_id": 142,
      "sensor_timestamp": 667922882714609,
      "time_usec": 667922882714
    },
    {
      "frame_id": 143,
      "sensor_timestamp": 667922915997812,
      "time_usec": 667922915997
    },
    {
      "frame_id": 144,
      "sensor_timestamp": 667922949280771,
      "time_usec": 667922949280
    },
    {
      "frame_id": 145,
      "sensor_timestamp": 667922982563730,
      "time_usec": 667922982563
    },
    {
      "frame_id": 146,
      "sensor_timestamp": 667923015846689,
      "time_usec": 667923015846
    },
    {
      "frame_id": 147,
      "sensor_timestamp": 667923049129648,
      "time_usec": 667923049129
    },
    {
      "frame_id": 148,
      "sensor_timestamp": 667923082412851,
      "time_usec": 667923082412
    },
    {
      "frame_id": 149,
      "sensor_timestamp": 667923115695810,
      "time_usec": 667923115695
    },
    {
      "frame_id": 150,
      "sensor_timestamp": 667923148978769,
      "time_usec": 667923148978
    },
    {
      "frame_id": 151,
      "sensor_timestamp": 667923182261728,
      "time_usec": 667923182261
    },
    {
      "frame_id": 152,
      "sensor_timestamp": 667923215544931,
      "time_usec": 667923215544
    },
    {
      "frame_id": 153,
      "sensor_timestamp": 667923248827890,
      "time_usec": 667923248827
    },
    {
      "frame_id": 154,
      "sensor_timestamp": 667923282110849,
      "time_usec": 667923282110
    },
    {
      "frame_id": 155,
      "sensor_timestamp": 667923315393808,
      "time_usec": 667923315393
    },
    {
      "frame_id": 156,
      "sensor_timestamp": 667923348676767,
      "time_usec": 667923348676
    },
    {
      "frame_id": 157,
      "sensor_timestamp": 667923381959970,
      "time_usec": 667923381959
    },
    {
      "frame_id": 158,
      "sensor_timestamp": 667923415242929,
      "time_usec": 667923415242
    },
    {
      "frame_id": 159,
      "sensor_timestamp": 667923448525888,
      "time_usec": 667923448525
    },
    {
      "frame_id": 160,
      "sensor_timestamp": 667923481808847,
      "time_usec": 667923481808
    },
    {
      "frame_id": 161,
      "sensor_timestamp": 667923515092050,
      "time_usec": 667923515092
    },
    {
      "frame_id": 162,
      "sensor_timestamp": 667923548375009,
      "time_usec": 667923548375
    },
    {
      "frame_id": 163,
      "sensor_timestamp": 667923581657968,
      "time_usec": 667923581657
    },
    {
      "frame_id": 164,
      "sensor_timestamp": 667923614940927,
      "time_usec": 667923614940
    },
    {
      "frame_id": 165,
      "sensor_timestamp": 667923648223886,
      "time_usec": 667923648223
    },
    {
      "frame_id": 166,
      "sensor_timestamp": 667923681507089,
      "time_usec": 667923681507
    },
    {
      "frame_id": 167,
      "sensor_timestamp": 667923714790048,
      "time_usec": 667923714790
    },
    {
      "frame_id": 168,
      "sensor_timestamp": 667923748073007,
      "time_usec": 667923748073
    },
    {
      "frame_id": 169,
      "sensor_timestamp": 667923781355966,
      "time_usec": 667923781355
    },
    {
      "frame_id": 170,
      "sensor_timestamp": 667923814639169,
      "time_usec": 667923814639
    },
    {
      "frame_id": 171,
      "sensor_timestamp": 667923847922128,
      "time_usec": 667923847922
    },
    {
      "frame_id": 172,
      "sensor_timestamp": 667923881205087,
      "time_usec": 667923881205
    },
    {
      "frame_id": 173,
      "sensor_timestamp": 667923914488046,
      "time_usec": 667923914488
    },
    {
      "frame_id": 174,
      "sensor_timestamp": 667923947771005,
      "time_usec": 667923947771
    },
    {
      "frame_id": 175,
      "sensor_timestamp": 667923981054208,
      "time_usec": 667923981054
    },
    {
      "frame_id": 176,
      "sensor_timestamp": 667924014337167,
      "time_usec": 667924014337
    },
    {
      "frame_id": 177,
      "sensor_timestamp": 667924047620126,
      "time_usec": 667924047620
    },
    {
      "frame_id": 178,
      "sensor_timestamp": 667924080903085,
      "time_usec": 667924080903
    },
    {
      "frame_id": 179,
      "sensor_timestamp": 667924114186044,
      "time_usec": 667924114186
    },
    {
      "frame_id": 180,
      "sensor_timestamp": 667924147469247,
      "time_usec": 667924147469
    },
    {
      "frame_id": 181,
      "sensor_timestamp": 667924180752206,
      "time_usec": 667924180752
    },
    {
      "frame_id": 182,
      "sensor_timestamp": 667924214035165,
      "time_usec": 667924214035
    },
    {
      "frame_id": 183,
      "sensor_timestamp": 667924247318124,
      "time_usec": 667924247318
    },
    {
      "frame_id": 184,
      "sensor_timestamp": 667924280601327,
      "time_usec": 667924280601
    },
    {
      "frame_id": 185,
      "sensor_timestamp": 667924313884286,
      "time_usec": 667924313884
    },
    {
      "frame_id": 186,
      "sensor_timestamp": 667924347167245,
      "time_usec": 667924347167
    },
    {
      "frame_id": 187,
      "sensor_timestamp": 667924380450204,
      "time_usec": 667924380450
    },
    {
      "frame_id": 188,
      "sensor_timestamp": 667924413733163,
      "time_usec": 667924413733
    },
    {
      "frame_id": 189,
      "sensor_timestamp": 667924447016366,
      "time_usec": 667924447016
    },
    {
      "frame_id": 190,
      "sensor_timestamp": 667924480299325,
      "time_usec": 667924480299
    },
    {
      "frame_id": 191,
      "sensor_timestamp": 667924513582284,
      "time_usec": 667924513582
    },
    {
      "frame_id": 192,
      "sensor_timestamp": 667924546865243,
      "time_usec": 667924546865
    },
    {
      "frame_id": 193,
      "sensor_timestamp": 667924580148446,
      "time_usec": 667924580148
    },
    {
      "frame_id": 194,
      "sensor_timestamp": 667924613431405,
      "time_usec": 667924613431
    },
    {
      "frame_id": 195,
      "sensor_timestamp": 667924646714364,
      "time_usec": 667924646714
    },
    {
      "frame_id": 196,
      "sensor_timestamp": 667924679997323,
      "time_usec": 667924679997
    },
    {
      "frame_id": 197,
      "sensor_timestamp": 667924713280282,
      "time_usec": 667924713280
    },
    {
      "frame_id": 198,
      "sensor_timestamp": 667924746563486,
      "time_usec": 667924746563
    },
    {
      "frame_id": 199,
      "sensor_timestamp": 667924779846445,
      "time_usec": 667924779846
    },
    {
      "frame_id": 200,
      "sensor_timestamp": 667924813129404,
      "time_usec": 667924813129
    },
    {
      "frame_id": 201,
      "sensor_timestamp": 667924846412363,
      "time_usec": 667924846412
    },
    {
      "frame_id": 202,
      "sensor_timestamp": 667924879695321,
      "time_usec": 667924879695
    },
    {
      "frame_id": 203,
      "sensor_timestamp": 667924912978525,
      "time_usec": 667924912978
    },
    {
      "frame_id": 204,
      "sensor_timestamp": 667924946261484,
      "time_usec": 667924946261
    },
    {
      "frame_id": 205,
      "sensor_timestamp": 667924979544443,
      "time_usec": 667924979544
    },
    {
      "frame_id": 206,
      "sensor_timestamp": 667925012827402,
      "time_usec": 667925012827
    },
    {
      "frame_id": 207,
      "sensor_timestamp": 667925046110605,
      "time_usec": 667925046110
    },
    {
      "frame_id": 208,
      "sensor_timestamp": 667925079393564,
      "time_usec": 667925079393
    },
    {
      "frame_id": 209,
      "sensor_timestamp": 667925112676523,
      "time_usec": 667925112676
    },
    {
      "frame_id": 210,
      "sensor_timestamp": 667925145959482,
      "time_usec": 667925145959
    },
    {
      "frame_id": 211,
      "sensor_timestamp": 667925179242441,
      "time_usec": 667925179242
    },
    {
      "frame_id": 212,
      "sensor_timestamp": 667925212525644,
      "time_usec": 667925212525
    },
    {
      "frame_id": 213,
      "sensor_timestamp": 667925245808603,
      "time_usec": 667925245808
    },
    {
      "frame_id": 214,
      "sensor_timestamp": 667925279091562,
      "time_usec": 667925279091
    },
    {
      "frame_id": 215,
      "sensor_timestamp": 667925312374521,
      "time_usec": 667925312374
    },
    {
      "frame_id": 216,
      "sensor_timestamp": 667925345657724,
      "time_usec": 667925345657
    },
    {
      "frame_id": 217,
      "sensor_timestamp": 667925378940683,
      "time_usec": 667925378940
    },
    {
      "frame_id": 218,
      "sensor_timestamp": 667925412223642,
      "time_usec": 667925412223
    },
    {
      "frame_id": 219,
      "sensor_timestamp": 667925445506601,
      "time_usec": 667925445506
    },
    {
      "frame_id": 220,
      "sensor_timestamp": 667925478789560,
      "time_usec": 667925478789
    },
    {
      "frame_id": 221,
      "sensor_timestamp": 667925512072763,
      "time_usec": 667925512072
    },
    {
      "frame_id": 222,
      "sensor_timestamp": 667925545355722,
      "time_usec": 667925545355
    },
    {
      "frame_id": 223,
      "sensor_timestamp": 667925578638681,
      "time_usec": 667925578638
    },
    {
      "frame_id": 224,
      "sensor_timestamp": 667925611921640,
      "time_usec": 667925611921
    },
    {
      "frame_id": 225,
      "sensor_timestamp": 667925645204599,
      "time_usec": 667925645204
    },
    {
      "frame_id": 226,
      "sensor_timestamp": 667925678487802,
      "time_usec": 667925678487
    },
    {
      "frame_id": 227,
      "sensor_timestamp": 667925711770761,
      "time_usec": 667925711770
    },
    {
      "frame_id": 228,
      "sensor_timestamp": 667925745053720,
      "time_usec": 667925745053
    },
    {
      "frame_id": 229,
      "sensor_timestamp": 667925778281108,
      "time_usec": 667925778281
    },
    {
      "frame_id": 230,
      "sensor_timestamp": 667925811619882,
      "time_usec": 667925811619
    },
    {
      "frame_id": 231,
      "sensor_timestamp": 667925844902841,
      "time_usec": 667925844902
    },
    {
      "frame_id": 232,
      "sensor_timestamp": 667925878185800,
      "time_usec": 667925878185
    },
    {
      "frame_id": 233,
      "sensor_timestamp": 667925911468759,
      "time_usec": 667925911468
    },
    {
      "frame_id": 234,
      "sensor_timestamp": 667925944751718,
      "time_usec": 667925944751
    },
    {
      "frame_id": 235,
      "sensor_timestamp": 667925978034921,
      "time_usec": 667925978034
    },
    {
      "frame_id": 236,
      "sensor_timestamp": 667926011317880,
      "time_usec": 667926011317
    },
    {
      "frame_id": 237,
      "sensor_timestamp": 667926044600839,
      "time_usec": 667926044600
    },
    {
      "frame_id": 238,
      "sensor_timestamp": 667926077883798,
      "time_usec": 667926077883
    },
    {
      "frame_id": 239,
      "sensor_timestamp": 667926111167001,
      "time_usec": 667926111167
    },
    {
      "frame_id": 240,
      "sensor_timestamp": 667926144449960,
      "time_usec": 667926144449
    },
    {
      "frame_id": 241,
      "sensor_timestamp": 667926177732919,
      "time_usec": 667926177732
    },
    {
      "frame_id": 242,
      "sensor_timestamp": 667926211015878,
      "time_usec": 667926211015
    },
    {
      "frame_id": 243,
      "sensor_timestamp": 667926244298837,
      "time_usec": 667926244298
    },
    {
      "frame_id": 244,
      "sensor_timestamp": 667926277582040,
      "time_usec": 667926277582
    },
    {
      "frame_id": 245,
      "sensor_timestamp": 667926310864999,
      "time_usec": 667926310864
    },
    {
      "frame_id": 246,
      "sensor_timestamp": 667926344147958,
      "time_usec": 667926344147
    },
    {
      "frame_id": 247,
      "sensor_timestamp": 667926377430917,
      "time_usec": 667926377430
    },
    {
      "frame_id": 248,
      "sensor_timestamp": 667926410714120,
      "time_usec": 667926410714
    },
    {
      "frame_id": 249,
      "sensor_timestamp": 667926443997079,
      "time_usec": 667926443997
    },
    {
      "frame_id": 250,
      "sensor_timestamp": 667926477280038,
      "time_usec": 667926477280
    },
    {
      "frame_id": 251,
      "sensor_timestamp": 667926510562997,
      "time_usec": 667926510562
    },
    {
      "frame_id": 252,
      "sensor_timestamp": 667926543845956,
      "time_usec": 667926543845
    },
    {
      "frame_id": 253,
      "sensor_timestamp": 667926577129159,
      "time_usec": 667926577129
    },
    {
      "frame_id": 254,
      "sensor_timestamp": 667926610412118,
      "time_usec": 667926610412
    },
    {
      "frame_id": 255,
      "sensor_timestamp": 667926643695077,
      "time_usec": 667926643695
    },
    {
      "frame_id": 256,
      "sensor_timestamp": 667926676978036,
      "time_usec": 667926676978
    },
    {
      "frame_id": 257,
      "sensor_timestamp": 667926710260995,
      "time_usec": 667926710260
    },
    {
      "frame_id": 258,
      "sensor_timestamp": 667926743544198,
      "time_usec": 667926743544
    },
    {
      "frame_id": 259,
      "sensor_timestamp": 667926776827157,
      "time_usec": 667926776827
    },
    {
      "frame_id": 260,
      "sensor_timestamp": 667926810110116,
      "time_usec": 667926810110
    },
    {
      "frame_id": 261,
      "sensor_timestamp": 667926843393075,
      "time_usec": 667926843393
    },
    {
      "frame_id": 262,
      "sensor_timestamp": 667926876676279,
      "time_usec": 667926876676
    },
    {
      "frame_id": 263,
      "sensor_timestamp": 667926909959238,
      "time_usec": 667926909959
    },
    {
      "frame_id": 264,
      "sensor_timestamp": 667926943242196,
      "time_usec": 667926943242
    },
    {
      "frame_id": 265,
      "sensor_timestamp": 667926976525155,
      "time_usec": 667926976525
    },
    {
      "frame_id": 266,
      "sensor_timestamp": 667927009808114,
      "time_usec": 667927009808
    },
    {
      "frame_id": 267,
      "sensor_timestamp": 667927043091318,
      "time_usec": 667927043091
    },
    {
      "frame_id": 268,
      "sensor_timestamp": 667927076374277,
      "time_usec": 667927076374
    },
    {
      "frame_id": 269,
      "sensor_timestamp": 667927109657236,
      "time_usec": 667927109657
    },
    {
      "frame_id": 270,
      "sensor_timestamp": 667927142940195,
      "time_usec": 667927142940
    },
    {
      "frame_id": 271,
      "sensor_timestamp": 667927176223398,
      "time_usec": 667927176223
    },
    {
      "frame_id": 272,
      "sensor_timestamp": 667927209506357,
      "time_usec": 667927209506
    },
    {
      "frame_id": 273,
      "sensor_timestamp": 667927242789316,
      "time_usec": 667927242789
    },
    {
      "frame_id": 274,
      "sensor_timestamp": 667927276072275,
      "time_usec": 667927276072
    },
    {
      "frame_id": 275,
      "sensor_timestamp": 667927309355234,
      "time_usec": 667927309355
    },
    {
      "frame_id": 276,
      "sensor_timestamp": 667927342638437,
      "time_usec": 667927342638
    },
    {
      "frame_id": 277,
      "sensor_timestamp": 667927375921396,
      "time_usec": 667927375921
    },
    {
      "frame_id": 278,
      "sensor_timestamp": 667927409204355,
      "time_usec": 667927409204
    },
    {
      "frame_id": 279,
      "sensor_timestamp": 667927442487314,
      "time_usec": 667927442487
    },
    {
      "frame_id": 280,
      "sensor_timestamp": 667927475770273,
      "time_usec": 667927475770
    },
    {
      "frame_id": 281,
      "sensor_timestamp": 667927509053476,
      "time_usec": 667927509053
    },
    {
      "frame_id": 282,
      "sensor_timestamp": 667927542336435,
      "time_usec": 667927542336
    },
    {
      "frame_id": 283,
      "sensor_timestamp": 667927575619394,
      "time_usec": 667927575619
    },
    {
      "frame_id": 284,
      "sensor_timestamp": 667927608902353,
      "time_usec": 667927608902
    },
    {
      "frame_id": 285,
      "sensor_timestamp": 667927642185556,
      "time_usec": 667927642185
    },
    {
      "frame_id": 286,
      "sensor_timestamp": 667927675468515,
      "time_usec": 667927675468
    },
    {
      "frame_id": 287,
      "sensor_timestamp": 667927708751474,
      "time_usec": 667927708751
    },
    {
      "frame_id": 288,
      "sensor_timestamp": 667927742034433,
      "time_usec": 667927742034
    },
    {
      "frame_id": 289,
      "sensor_timestamp": 667927775317392,
      "time_usec": 667927775317
    },
    {
      "frame_id": 290,
      "sensor_timestamp": 667927808600595,
      "time_usec": 667927808600
    },
    {
      "frame_id": 291,
      "sensor_timestamp": 667927841883554,
      "time_usec": 667927841883
    },
    {
      "frame_id": 292,
      "sensor_timestamp": 667927875166513,
      "time_usec": 667927875166
    },
    {
      "frame_id": 293,
      "sensor_timestamp": 667927908449472,
      "time_usec": 667927908449
    },
    {
      "frame_id": 294,
      "sensor_timestamp": 667927941732675,
      "time_usec": 667927941732
    },
    {
      "frame_id": 295,
      "sensor_timestamp": 667927975015634,
      "time_usec": 667927975015
    },
    {
      "frame_id": 296,
      "sensor_timestamp": 667928008298593,
      "time_usec": 667928008298
    },
    {
      "frame_id": 297,
      "sensor_timestamp": 667928041581552,
      "time_usec": 667928041581
    },
    {
      "frame_id": 298,
      "sensor_timestamp": 667928074864511,
      "time_usec": 667928074864
    },
    {
      "frame_id": 299,
      "sensor_timestamp": 667928108147714,
      "time_usec": 667928108147
    },
    {
      "frame_id": 300,
      "sensor_timestamp": 667928141430673,
      "time_usec": 667928141430
    },
    {
      "frame_id": 301,
      "sensor_timestamp": 667928174713632,
      "time_usec": 667928174713
    },
    {
      "frame_id": 302,
      "sensor_timestamp": 667928207996591,
      "time_usec": 667928207996
    },
    {
      "frame_id": 303,
      "sensor_timestamp": 667928241279794,
      "time_usec": 667928241279
    },
    {
      "frame_id": 304,
      "sensor_timestamp": 667928274562753,
      "time_usec": 667928274562
    },
    {
      "frame_id": 305,
      "sensor_timestamp": 667928307845712,
      "time_usec": 667928307845
    },
    {
      "frame_id": 306,
      "sensor_timestamp": 667928341128671,
      "time_usec": 667928341128
    },
    {
      "frame_id": 307,
      "sensor_timestamp": 667928374411630,
      "time_usec": 667928374411
    },
    {
      "frame_id": 308,
      "sensor_timestamp": 667928407694833,
      "time_usec": 667928407694
    },
    {
      "frame_id": 309,
      "sensor_timestamp": 667928440977792,
      "time_usec": 667928440977
    },
    {
      "frame_id": 310,
      "sensor_timestamp": 667928474260751,
      "time_usec": 667928474260
    },
    {
      "frame_id": 311,
      "sensor_timestamp": 667928507543710,
      "time_usec": 667928507543
    },
    {
      "frame_id": 312,
      "sensor_timestamp": 667928540826669,
      "time_usec": 667928540826
    },
    {
      "frame_id": 313,
      "sensor_timestamp": 667928574109872,
      "time_usec": 667928574109
    },
    {
      "frame_id": 314,
      "sensor_timestamp": 667928607392831,
      "time_usec": 667928607392
    },
    {
      "frame_id": 315,
      "sensor_timestamp": 667928640675790,
      "time_usec": 667928640675
    },
    {
      "frame_id": 316,
      "sensor_timestamp": 667928673958749,
      "time_usec": 667928673958
    },
    {
      "frame_id": 317,
      "sensor_timestamp": 667928707241952,
      "time_usec": 667928707241
    },
    {
      "frame_id": 318,
      "sensor_timestamp": 667928740524911,
      "time_usec": 667928740524
    },
    {
      "frame_id": 319,
      "sensor_timestamp": 667928773807870,
      "time_usec": 667928773807
    },
    {
      "frame_id": 320,
      "sensor_timestamp": 667928807090829,
      "time_usec": 667928807090
    },
    {
      "frame_id": 321,
      "sensor_timestamp": 667928840373788,
      "time_usec": 667928840373
    },
    {
      "frame_id": 322,
      "sensor_timestamp": 667928873656991,
      "time_usec": 667928873656
    },
    {
      "frame_id": 323,
      "sensor_timestamp": 667928906939950,
      "time_usec": 667928906939
    },
    {
      "frame_id": 324,
      "sensor_timestamp": 667928940222909,
      "time_usec": 667928940222
    },
    {
      "frame_id": 325,
      "sensor_timestamp": 667928973505868,
      "time_usec": 667928973505
    },
    {
      "frame_id": 326,
      "sensor_timestamp": 667929006789071,
      "time_usec": 667929006789
    },
    {
      "frame_id": 327,
      "sensor_timestamp": 667929040072030,
      "time_usec": 667929040072
    },
    {
      "frame_id": 328,
      "sensor_timestamp": 667929073354989,
      "time_usec": 667929073354
    },
    {
      "frame_id": 329,
      "sensor_timestamp": 667929106637948,
      "time_usec": 667929106637
    },
    {
      "frame_id": 330,
      "sensor_timestamp": 667929139920907,
      "time_usec": 667929139920
    },
    {
      "frame_id": 331,
      "sensor_timestamp": 667929173204111,
      "time_usec": 667929173204
    },
    {
      "frame_id": 332,
      "sensor_timestamp": 667929206487070,
      "time_usec": 667929206487
    },
    {
      "frame_id": 333,
      "sensor_timestamp": 667929239770029,
      "time_usec": 667929239770
    },
    {
      "frame_id": 334,
      "sensor_timestamp": 667929273052988,
      "time_usec": 667929273052
    },
    {
      "frame_id": 335,
      "sensor_timestamp": 667929306335946,
      "time_usec": 667929306335
    },
    {
      "frame_id": 336,
      "sensor_timestamp": 667929339619150,
      "time_usec": 667929339619
    },
    {
      "frame_id": 337,
      "sensor_timestamp": 667929372902109,
      "time_usec": 667929372902
    },
    {
      "frame_id": 338,
      "sensor_timestamp": 667929406185068,
      "time_usec": 667929406185
    },
    {
      "frame_id": 339,
      "sensor_timestamp": 667929439468027,
      "time_usec": 667929439468
    },
    {
      "frame_id": 340,
      "sensor_timestamp": 667929472751230,
      "time_usec": 667929472751
    },
    {
      "frame_id": 341,
      "sensor_timestamp": 667929506034189,
      "time_usec": 667929506034
    },
    {
      "frame_id": 342,
      "sensor_timestamp": 667929539317148,
      "time_usec": 667929539317
    },
    {
      "frame_id": 343,
      "sensor_timestamp": 667929572600107,
      "time_usec": 667929572600
    },
    {
      "frame_id": 344,
      "sensor_timestamp": 667929605883066,
      "time_usec": 667929605883
    },
    {
      "frame_id": 345,
      "sensor_timestamp": 667929639166269,
      "time_usec": 667929639166
    },
    {
      "frame_id": 346,
      "sensor_timestamp": 667929672449228,
      "time_usec": 667929672449
    },
    {
      "frame_id": 347,
      "sensor_timestamp": 667929705732187,
      "time_usec": 667929705732
    },
    {
      "frame_id": 348,
      "sensor_timestamp": 667929739015146,
      "time_usec": 667929739015
    },
    {
      "frame_id": 349,
      "sensor_timestamp": 667929772298349,
      "time_usec": 667929772298
    },
    {
      "frame_id": 350,
      "sensor_timestamp": 667929805581308,
      "time_usec": 667929805581
    },
    {
      "frame_id": 351,
      "sensor_timestamp": 667929838864267,
      "time_usec": 667929838864
    },
    {
      "frame_id": 352,
      "sensor_timestamp": 667929872147226,
      "time_usec": 667929872147
    },
    {
      "frame_id": 353,
      "sensor_timestamp": 667929905430185,
      "time_usec": 667929905430
    },
    {
      "frame_id": 354,
      "sensor_timestamp": 667929938713388,
      "time_usec": 667929938713
    },
    {
      "frame_id": 355,
      "sensor_timestamp": 667929971996347,
      "time_usec": 667929971996
    },
    {
      "frame_id": 356,
      "sensor_timestamp": 667930005279306,
      "time_usec": 667930005279
    },
    {
      "frame_id": 357,
      "sensor_timestamp": 667930038562265,
      "time_usec": 667930038562
    },
    {
      "frame_id": 358,
      "sensor_timestamp": 667930071845224,
      "time_usec": 667930071845
    },
    {
      "frame_id": 359,
      "sensor_timestamp": 667930105128427,
      "time_usec": 667930105128
    },
    {
      "frame_id": 360,
      "sensor_timestamp": 667930138411386,
      "time_usec": 667930138411
    },
    {
      "frame_id": 361,
      "sensor_timestamp": 667930171694345,
      "time_usec": 667930171694
    },
    {
      "frame_id": 362,
      "sensor_timestamp": 667930204977304,
      "time_usec": 667930204977
    },
    {
      "frame_id": 363,
      "sensor_timestamp": 667930238260507,
      "time_usec": 667930238260
    },
    {
      "frame_id": 364,
      "sensor_timestamp": 667930271543466,
      "time_usec": 667930271543
    },
    {
      "frame_id": 365,
      "sensor_timestamp": 667930304826425,
      "time_usec": 667930304826
    },
    {
      "frame_id": 366,
      "sensor_timestamp": 667930338109384,
      "time_usec": 667930338109
    },
    {
      "frame_id": 367,
      "sensor_timestamp": 667930371392343,
      "time_usec": 667930371392
    },
    {
      "frame_id": 368,
      "sensor_timestamp": 667930404675546,
      "time_usec": 667930404675
    },
    {
      "frame_id": 369,
      "sensor_timestamp": 667930437958505,
      "time_usec": 667930437958
    },
    {
      "frame_id": 370,
      "sensor_timestamp": 667930471241464,
      "time_usec": 667930471241
    },
    {
      "frame_id": 371,
      "sensor_timestamp": 667930504524423,
      "time_usec": 667930504524
    },
    {
      "frame_id": 372,
      "sensor_timestamp": 667930537807626,
      "time_usec": 667930537807
    },
    {
      "frame_id": 373,
      "sensor_timestamp": 667930571090585,
      "time_usec": 667930571090
    },
    {
      "frame_id": 374,
      "sensor_timestamp": 667930604373544,
      "time_usec": 667930604373
    },
    {
      "frame_id": 375,
      "sensor_timestamp": 667930637656503,
      "time_usec": 667930637656
    },
    {
      "frame_id": 376,
      "sensor_timestamp": 667930670939462,
      "time_usec": 667930670939
    },
    {
      "frame_id": 377,
      "sensor_timestamp": 667930704222665,
      "time_usec": 667930704222
    },
    {
      "frame_id": 378,
      "sensor_timestamp": 667930737505624,
      "time_usec": 667930737505
    },
    {
      "frame_id": 379,
      "sensor_timestamp": 667930770788583,
      "time_usec": 667930770788
    },
    {
      "frame_id": 380,
      "sensor_timestamp": 667930804071542,
      "time_usec": 667930804071
    },
    {
      "frame_id": 381,
      "sensor_timestamp": 667930837354745,
      "time_usec": 667930837354
    },
    {
      "frame_id": 382,
      "sensor_timestamp": 667930870637704,
      "time_usec": 667930870637
    },
    {
      "frame_id": 383,
      "sensor_timestamp": 667930903920663,
      "time_usec": 667930903920
    },
    {
      "frame_id": 384,
      "sensor_timestamp": 667930937203622,
      "time_usec": 667930937203
    },
    {
      "frame_id": 385,
      "sensor_timestamp": 667930970486581,
      "time_usec": 667930970486
    },
    {
      "frame_id": 386,
      "sensor_timestamp": 667931003769784,
      "time_usec": 667931003769
    },
    {
      "frame_id": 387,
      "sensor_timestamp": 667931037052743,
      "time_usec": 667931037052
    },
    {
      "frame_id": 388,
      "sensor_timestamp": 667931070335702,
      "time_usec": 667931070335
    },
    {
      "frame_id": 389,
      "sensor_timestamp": 667931103618661,
      "time_usec": 667931103618
    },
    {
      "frame_id": 390,
      "sensor_timestamp": 667931136901620,
      "time_usec": 667931136901
    },
    {
      "frame_id": 391,
      "sensor_timestamp": 667931170184823,
      "time_usec": 667931170184
    },
    {
      "frame_id": 392,
      "sensor_timestamp": 667931203467782,
      "time_usec": 667931203467
    },
    {
      "frame_id": 393,
      "sensor_timestamp": 667931236750741,
      "time_usec": 667931236750
    },
    {
      "frame_id": 394,
      "sensor_timestamp": 667931270033700,
      "time_usec": 667931270033
    },
    {
      "frame_id": 395,
      "sensor_timestamp": 667931303316904,
      "time_usec": 667931303316
    },
    {
      "frame_id": 396,
      "sensor_timestamp": 667931336599863,
      "time_usec": 667931336599
    },
    {
      "frame_id": 397,
      "sensor_timestamp": 667931369882821,
      "time_usec": 667931369882
    },
    {
      "frame_id": 398,
      "sensor_timestamp": 667931403165780,
      "time_usec": 667931403165
    },
    {
      "frame_id": 399,
      "sensor_timestamp": 667931436448739,
      "time_usec": 667931436448
    },
    {
      "frame_id": 400,
      "sensor_timestamp": 667931469731943,
      "time_usec": 667931469731
    },
    {
      "frame_id": 401,
      "sensor_timestamp": 667931503014902,
      "time_usec": 667931503014
    },
    {
      "frame_id": 402,
      "sensor_timestamp": 667931536297861,
      "time_usec": 667931536297
    },
    {
      "frame_id": 403,
      "sensor_timestamp": 667931569580820,
      "time_usec": 667931569580
    },
    {
      "frame_id": 404,
      "sensor_timestamp": 667931602864023,
      "time_usec": 667931602864
    },
    {
      "frame_id": 405,
      "sensor_timestamp": 667931636146982,
      "time_usec": 667931636146
    },
    {
      "frame_id": 406,
      "sensor_timestamp": 667931669429941,
      "time_usec": 667931669429
    },
    {
      "frame_id": 407,
      "sensor_timestamp": 667931702712900,
      "time_usec": 667931702712
    },
    {
      "frame_id": 408,
      "sensor_timestamp": 667931735995859,
      "time_usec": 667931735995
    },
    {
      "frame_id": 409,
      "sensor_timestamp": 667931769279062,
      "time_usec": 667931769279
    },
    {
      "frame_id": 410,
      "sensor_timestamp": 667931802562021,
      "time_usec": 667931802562
    },
    {
      "frame_id": 411,
      "sensor_timestamp": 667931835844980,
      "time_usec": 667931835844
    },
    {
      "frame_id": 412,
      "sensor_timestamp": 667931869127939,
      "time_usec": 667931869127
    },
    {
      "frame_id": 413,
      "sensor_timestamp": 667931902410898,
      "time_usec": 667931902410
    },
    {
      "frame_id": 414,
      "sensor_timestamp": 667931935694101,
      "time_usec": 667931935694
    },
    {
      "frame_id": 415,
      "sensor_timestamp": 667931968977060,
      "time_usec": 667931968977
    },
    {
      "frame_id": 416,
      "sensor_timestamp": 667932002260019,
      "time_usec": 667932002260
    },
    {
      "frame_id": 417,
      "sensor_timestamp": 667932035542978,
      "time_usec": 667932035542
    },
    {
      "frame_id": 418,
      "sensor_timestamp": 667932068826181,
      "time_usec": 667932068826
    },
    {
      "frame_id": 419,
      "sensor_timestamp": 667932102109140,
      "time_usec": 667932102109
    },
    {
      "frame_id": 420,
      "sensor_timestamp": 667932135392099,
      "time_usec": 667932135392
    },
    {
      "frame_id": 421,
      "sensor_timestamp": 667932168675058,
      "time_usec": 667932168675
    },
    {
      "frame_id": 422,
      "sensor_timestamp": 667932201958017,
      "time_usec": 667932201958
    },
    {
      "frame_id": 423,
      "sensor_timestamp": 667932235241220,
      "time_usec": 667932235241
    },
    {
      "frame_id": 424,
      "sensor_timestamp": 667932268524179,
      "time_usec": 667932268524
    },
    {
      "frame_id": 425,
      "sensor_timestamp": 667932301807138,
      "time_usec": 667932301807
    },
    {
      "frame_id": 426,
      "sensor_timestamp": 667932335090097,
      "time_usec": 667932335090
    },
    {
      "frame_id": 427,
      "sensor_timestamp": 667932368373300,
      "time_usec": 667932368373
    },
    {
      "frame_id": 428,
      "sensor_timestamp": 667932401656259,
      "time_usec": 667932401656
    },
    {
      "frame_id": 429,
      "sensor_timestamp": 667932434939218,
      "time_usec": 667932434939
    },
    {
      "frame_id": 430,
      "sensor_timestamp": 667932468222177,
      "time_usec": 667932468222
    },
    {
      "frame_id": 431,
      "sensor_timestamp": 667932501505136,
      "time_usec": 667932501505
    },
    {
      "frame_id": 432,
      "sensor_timestamp": 667932534788339,
      "time_usec": 667932534788
    },
    {
      "frame_id": 433,
      "sensor_timestamp": 667932568071298,
      "time_usec": 667932568071
    },
    {
      "frame_id": 434,
      "sensor_timestamp": 667932601354257,
      "time_usec": 667932601354
    },
    {
      "frame_id": 435,
      "sensor_timestamp": 667932634637216,
      "time_usec": 667932634637
    },
    {
      "frame_id": 436,
      "sensor_timestamp": 667932667920419,
      "time_usec": 667932667920
    },
    {
      "frame_id": 437,
      "sensor_timestamp": 667932701203378,
      "time_usec": 667932701203
    },
    {
      "frame_id": 438,
      "sensor_timestamp": 667932734486337,
      "time_usec": 667932734486
    },
    {
      "frame_id": 439,
      "sensor_timestamp": 667932767769296,
      "time_usec": 667932767769
    },
    {
      "frame_id": 440,
      "sensor_timestamp": 667932801052255,
      "time_usec": 667932801052
    },
    {
      "frame_id": 441,
      "sensor_timestamp": 667932834335458,
      "time_usec": 667932834335
    },
    {
      "frame_id": 442,
      "sensor_timestamp": 667932867618417,
      "time_usec": 667932867618
    },
    {
      "frame_id": 443,
      "sensor_timestamp": 667932900901376,
      "time_usec": 667932900901
    },
    {
      "frame_id": 444,
      "sensor_timestamp": 667932934184335,
      "time_usec": 667932934184
    },
    {
      "frame_id": 445,
      "sensor_timestamp": 667932967467294,
      "time_usec": 667932967467
    },
    {
      "frame_id": 446,
      "sensor_timestamp": 667933000750497,
      "time_usec": 667933000750
    },
    {
      "frame_id": 447,
      "sensor_timestamp": 667933034033456,
      "time_usec": 667933034033
    },
    {
      "frame_id": 448,
      "sensor_timestamp": 667933067316415,
      "time_usec": 667933067316
    },
    {
      "frame_id": 449,
      "sensor_timestamp": 667933100599374,
      "time_usec": 667933100599
    },
    {
      "frame_id": 450,
      "sensor_timestamp": 667933133882577,
      "time_usec": 667933133882
    },
    {
      "frame_id": 451,
      "sensor_timestamp": 667933167165536,
      "time_usec": 667933167165
    },
    {
      "frame_id": 452,
      "sensor_timestamp": 667933200448495,
      "time_usec": 667933200448
    },
    {
      "frame_id": 453,
      "sensor_timestamp": 667933233731454,
      "time_usec": 667933233731
    },
    {
      "frame_id": 454,
      "sensor_timestamp": 667933267014413,
      "time_usec": 667933267014
    },
    {
      "frame_id": 455,
      "sensor_timestamp": 667933300297616,
      "time_usec": 667933300297
    },
    {
      "frame_id": 456,
      "sensor_timestamp": 667933333580575,
      "time_usec": 667933333580
    },
    {
      "frame_id": 457,
      "sensor_timestamp": 667933366863534,
      "time_usec": 667933366863
    },
    {
      "frame_id": 458,
      "sensor_timestamp": 667933400146493,
      "time_usec": 667933400146
    },
    {
      "frame_id": 459,
      "sensor_timestamp": 667933433429696,
      "time_usec": 667933433429
    },
    {
      "frame_id": 460,
      "sensor_timestamp": 667933466712655,
      "time_usec": 667933466712
    },
    {
      "frame_id": 461,
      "sensor_timestamp": 667933499995614,
      "time_usec": 667933499995
    },
    {
      "frame_id": 462,
      "sensor_timestamp": 667933533278573,
      "time_usec": 667933533278
    },
    {
      "frame_id": 463,
      "sensor_timestamp": 667933566561532,
      "time_usec": 667933566561
    },
    {
      "frame_id": 464,
      "sensor_timestamp": 667933599844736,
      "time_usec": 667933599844
    },
    {
      "frame_id": 465,
      "sensor_timestamp": 667933633127695,
      "time_usec": 667933633127
    },
    {
      "frame_id": 466,
      "sensor_timestamp": 667933666410654,
      "time_usec": 667933666410
    },
    {
      "frame_id": 467,
      "sensor_timestamp": 667933699693613,
      "time_usec": 667933699693
    },
    {
      "frame_id": 468,
      "sensor_timestamp": 667933732976571,
      "time_usec": 667933732976
    },
    {
      "frame_id": 469,
      "sensor_timestamp": 667933766259775,
      "time_usec": 667933766259
    },
    {
      "frame_id": 470,
      "sensor_timestamp": 667933799542734,
      "time_usec": 667933799542
    },
    {
      "frame_id": 471,
      "sensor_timestamp": 667933832825693,
      "time_usec": 667933832825
    },
    {
      "frame_id": 472,
      "sensor_timestamp": 667933866108652,
      "time_usec": 667933866108
    },
    {
      "frame_id": 473,
      "sensor_timestamp": 667933899391855,
      "time_usec": 667933899391
    },
    {
      "frame_id": 474,
      "sensor_timestamp": 667933932674814,
      "time_usec": 667933932674
    },
    {
      "frame_id": 475,
      "sensor_timestamp": 667933965957773,
      "time_usec": 667933965957
    },
    {
      "frame_id": 476,
      "sensor_timestamp": 667933999240732,
      "time_usec": 667933999240
    },
    {
      "frame_id": 477,
      "sensor_timestamp": 667934032523691,
      "time_usec": 667934032523
    },
    {
      "frame_id": 478,
      "sensor_timestamp": 667934065806894,
      "time_usec": 667934065806
    },
    {
      "frame_id": 479,
      "sensor_timestamp": 667934099089853,
      "time_usec": 667934099089
    },
    {
      "frame_id": 480,
      "sensor_timestamp": 667934132372812,
      "time_usec": 667934132372
    },
    {
      "frame_id": 481,
      "sensor_timestamp": 667934165655771,
      "time_usec": 667934165655
    },
    {
      "frame_id": 482,
      "sensor_timestamp": 667934198938974,
      "time_usec": 667934198938
    },
    {
      "frame_id": 483,
      "sensor_timestamp": 667934232221933,
      "time_usec": 667934232221
    },
    {
      "frame_id": 484,
      "sensor_timestamp": 667934265504892,
      "time_usec": 667934265504
    },
    {
      "frame_id": 485,
      "sensor_timestamp": 667934298787851,
      "time_usec": 667934298787
    },
    {
      "frame_id": 486,
      "sensor_timestamp": 667934332070810,
      "time_usec": 667934332070
    },
    {
      "frame_id": 487,
      "sensor_timestamp": 667934365354013,
      "time_usec": 667934365354
    },
    {
      "frame_id": 488,
      "sensor_timestamp": 667934398636972,
      "time_usec": 667934398636
    },
    {
      "frame_id": 489,
      "sensor_timestamp": 667934431919931,
      "time_usec": 667934431919
    },
    {
      "frame_id": 490,
      "sensor_timestamp": 667934465202890,
      "time_usec": 667934465202
    },
    {
      "frame_id": 491,
      "sensor_timestamp": 667934498485849,
      "time_usec": 667934498485
    },
    {
      "frame_id": 492,
      "sensor_timestamp": 667934531769052,
      "time_usec": 667934531769
    },
    {
      "frame_id": 493,
      "sensor_timestamp": 667934565052011,
      "time_usec": 667934565052
    },
    {
      "frame_id": 494,
      "sensor_timestamp": 667934598334970,
      "time_usec": 667934598334
    },
    {
      "frame_id": 495,
      "sensor_timestamp": 667934631617929,
      "time_usec": 667934631617
    },
    {
      "frame_id": 496,
      "sensor_timestamp": 667934664901132,
      "time_usec": 667934664901
    },
    {
      "frame_id": 497,
      "sensor_timestamp": 667934698184091,
      "time_usec": 667934698184
    },
    {
      "frame_id": 498,
      "sensor_timestamp": 667934731467050,
      "time_usec": 667934731467
    },
    {
      "frame_id": 499,
      "sensor_timestamp": 667934764750009,
      "time_usec": 667934764750
    },
    {
      "frame_id": 500,
      "sensor_timestamp": 667934798032968,
      "time_usec": 667934798032
    },
    {
      "frame_id": 501,
      "sensor_timestamp": 667934831316171,
      "time_usec": 667934831316
    },
    {
      "frame_id": 502,
      "sensor_timestamp": 667934864599130,
      "time_usec": 667934864599
    },
    {
      "frame_id": 503,
      "sensor_timestamp": 667934897882089,
      "time_usec": 667934897882
    },
    {
      "frame_id": 504,
      "sensor_timestamp": 667934931165048,
      "time_usec": 667934931165
    },
    {
      "frame_id": 505,
      "sensor_timestamp": 667934964448251,
      "time_usec": 667934964448
    },
    {
      "frame_id": 506,
      "sensor_timestamp": 667934997731210,
      "time_usec": 667934997731
    },
    {
      "frame_id": 507,
      "sensor_timestamp": 667935031014169,
      "time_usec": 667935031014
    },
    {
      "frame_id": 508,
      "sensor_timestamp": 667935064297128,
      "time_usec": 667935064297
    },
    {
      "frame_id": 509,
      "sensor_timestamp": 667935097580087,
      "time_usec": 667935097580
    },
    {
      "frame_id": 510,
      "sensor_timestamp": 667935130863290,
      "time_usec": 667935130863
    },
    {
      "frame_id": 511,
      "sensor_timestamp": 667935164146249,
      "time_usec": 667935164146
    },
    {
      "frame_id": 512,
      "sensor_timestamp": 667935197429208,
      "time_usec": 667935197429
    },
    {
      "frame_id": 513,
      "sensor_timestamp": 667935230712167,
      "time_usec": 667935230712
    },
    {
      "frame_id": 514,
      "sensor_timestamp": 667935263995370,
      "time_usec": 667935263995
    },
    {
      "frame_id": 515,
      "sensor_timestamp": 667935297278329,
      "time_usec": 667935297278
    },
    {
      "frame_id": 516,
      "sensor_timestamp": 667935330561288,
      "time_usec": 667935330561
    },
    {
      "frame_id": 517,
      "sensor_timestamp": 667935363797511,
      "time_usec": 667935363797
    },
    {
      "frame_id": 518,
      "sensor_timestamp": 667935397127206,
      "time_usec": 667935397127
    },
    {
      "frame_id": 519,
      "sensor_timestamp": 667935430410409,
      "time_usec": 667935430410
    },
    {
      "frame_id": 520,
      "sensor_timestamp": 667935463693368,
      "time_usec": 667935463693
    },
    {
      "frame_id": 521,
      "sensor_timestamp": 667935496976327,
      "time_usec": 667935496976
    },
    {
      "frame_id": 522,
      "sensor_timestamp": 667935530259286,
      "time_usec": 667935530259
    },
    {
      "frame_id": 523,
      "sensor_timestamp": 667935563542245,
      "time_usec": 667935563542
    },
    {
      "frame_id": 524,
      "sensor_timestamp": 667935596825448,
      "time_usec": 667935596825
    },
    {
      "frame_id": 525,
      "sensor_timestamp": 667935630108407,
      "time_usec": 667935630108
    },
    {
      "frame_id": 526,
      "sensor_timestamp": 667935663391366,
      "time_usec": 667935663391
    },
    {
      "frame_id": 527,
      "sensor_timestamp": 667935696674325,
      "time_usec": 667935696674
    },
    {
      "frame_id": 528,
      "sensor_timestamp": 667935729957529,
      "time_usec": 667935729957
    },
    {
      "frame_id": 529,
      "sensor_timestamp": 667935763240488,
      "time_usec": 667935763240
    },
    {
      "frame_id": 530,
      "sensor_timestamp": 667935796523446,
      "time_usec": 667935796523
    },
    {
      "frame_id": 531,
      "sensor_timestamp": 667935829806405,
      "time_usec": 667935829806
    },
    {
      "frame_id": 532,
      "sensor_timestamp": 667935863089364,
      "time_usec": 667935863089
    },
    {
      "frame_id": 533,
      "sensor_timestamp": 667935896372568,
      "time_usec": 667935896372
    },
    {
      "frame_id": 534,
      "sensor_timestamp": 667935929655527,
      "time_usec": 667935929655
    },
    {
      "frame_id": 535,
      "sensor_timestamp": 667935962938486,
      "time_usec": 667935962938
    },
    {
      "frame_id": 536,
      "sensor_timestamp": 667935996221445,
      "time_usec": 667935996221
    },
    {
      "frame_id": 537,
      "sensor_timestamp": 667936029504648,
      "time_usec": 667936029504
    },
    {
      "frame_id": 538,
      "sensor_timestamp": 667936062787607,
      "time_usec": 667936062787
    },
    {
      "frame_id": 539,
      "sensor_timestamp": 667936096070566,
      "time_usec": 667936096070
    },
    {
      "frame_id": 540,
      "sensor_timestamp": 667936129353525,
      "time_usec": 667936129353
    },
    {
      "frame_id": 541,
