{
  "rotations": [
    {
      "x": 0.0019853119738399982,
      "y": -0.0029016099870204926,
      "z": -0.001527163083665073,
      "time_usec": 667917736135
    },
    {
      "x": -4.5814894838258624E-4,
      "y": -0.001679879380390048,
      "z": -0.0027488935738801956,
      "time_usec": 667917738395
    },
    {
      "x": -0.001679879380390048,
      "y": -0.001679879380390048,
      "z": -0.0065668015740811825,
      "time_usec": 667917740651
    },
    {
      "x": -4.5814894838258624E-4,
      "y": -0.0029016099870204926,
      "z": -0.0039706239476799965,
      "time_usec": 667917742910
    },
    {
      "x": -0.0029016099870204926,
      "y": 0.0019853119738399982,
      "z": -0.001527163083665073,
      "time_usec": 667917745162
    },
    {
      "x": -0.00427605677396059,
      "y": -4.5814894838258624E-4,
      "z": -3.054326225537807E-4,
      "time_usec": 667917747413
    },
    {
      "x": -0.001832595793530345,
      "y": -0.001527163083665073,
      "z": 0.004581489134579897,
      "time_usec": 667917749681
    },
    {
      "x": 7.635815418325365E-4,
      "y": 7.635815418325365E-4,
      "z": 0.002138028386980295,
      "time_usec": 667917751926
    },
    {
      "x": 0.0019853119738399982,
      "y": -0.001679879380390048,
      "z": 9.162978967651725E-4,
      "time_usec": 667917754200
    },
    {
      "x": 0.0032070425804704428,
      "y": 0.00427605677396059,
      "z": -0.001527163083665073,
      "time_usec": 667917756450
    },
    {
      "x": -4.5814894838258624E-4,
      "y": 0.009162978269159794,
      "z": -0.0039706239476799965,
      "time_usec": 667917758702
    },
    {
      "x": 7.635815418325365E-4,
      "y": 0.009162978269159794,
      "z": -0.0027488935738801956,
      "time_usec": 667917760953
    },
    {
      "x": -4.5814894838258624E-4,
      "y": 0.007941247895359993,
      "z": -0.0027488935738801956,
      "time_usec": 667917763213
    },
    {
      "x": 7.635815418325365E-4,
      "y": -4.5814894838258624E-4,
      "z": -0.001527163083665073,
      "time_usec": 667917765483
    },
    {
      "x": -6.108652451075613E-4,
      "y": -0.005192354787141085,
      "z": 9.162978967651725E-4,
      "time_usec": 667917767732
    },
    {
      "x": -0.00427605677396059,
      "y": -0.0064140851609408855,
      "z": 0.004581489134579897,
      "time_usec": 667917770003
    },
    {
      "x": -6.108652451075613E-4,
      "y": -0.0064140851609408855,
      "z": 0.003359758760780096,
      "time_usec": 667917772256
    },
    {
      "x": -0.001679879380390048,
      "y": -4.5814894838258624E-4,
      "z": -0.001527163083665073,
      "time_usec": 667917774505
    },
    {
      "x": 7.635815418325365E-4,
      "y": 7.635815418325365E-4,
      "z": 9.162978967651725E-4,
      "time_usec": 667917776769
    },
    {
      "x": 7.635815418325365E-4,
      "y": 0.0019853119738399982,
      "z": -0.001527163083665073,
      "time_usec": 667917779014
    },
    {
      "x": -4.5814894838258624E-4,
      "y": 0.005497787147760391,
      "z": -0.0027488935738801956,
      "time_usec": 667917781279
    },
    {
      "x": 7.635815418325365E-4,
      "y": 0.0019853119738399982,
      "z": -0.0039706239476799965,
      "time_usec": 667917783546
    },
    {
      "x": -4.5814894838258624E-4,
      "y": 0.0019853119738399982,
      "z": 0.003359758760780096,
      "time_usec": 667917785807
    },
    {
      "x": -4.5814894838258624E-4,
      "y": -0.001679879380390048,
      "z": -3.054326225537807E-4,
      "time_usec": 667917788065
    },
    {
      "x": -0.001679879380390048,
      "y": 7.635815418325365E-4,
      "z": 9.162978967651725E-4,
      "time_usec": 667917790320
    },
    {
      "x": -0.001832595793530345,
      "y": -0.001679879380390048,
      "z": 0.002138028386980295,
      "time_usec": 667917792574
    },
    {
      "x": -0.001679879380390048,
      "y": 7.635815418325365E-4,
      "z": 0.002138028386980295,
      "time_usec": 667917794821
    },
    {
      "x": -0.001832595793530345,
      "y": -4.5814894838258624E-4,
      "z": 9.162978967651725E-4,
      "time_usec": 667917797092
    },
    {
      "x": -0.00427605677396059,
      "y": -0.001679879380390048,
      "z": -0.001527163083665073,
      "time_usec": 667917799350
    },
    {
      "x": -0.001679879380390048,
      "y": -4.5814894838258624E-4,
      "z": -0.0039706239476799965,
      "time_usec": 667917801609
    },
    {
      "x": 7.635815418325365E-4,
      "y": -0.001679879380390048,
      "z": -0.001527163083665073,
      "time_usec": 667917803856
    },
    {
      "x": 0.001832595793530345,
      "y": -0.0064140851609408855,
      "z": 9.162978967651725E-4,
      "time_usec": 667917806110
    },
    {
      "x": -4.5814894838258624E-4,
      "y": -4.5814894838258624E-4,
      "z": -0.001527163083665073,
      "time_usec": 667917808380
    },
    {
      "x": -4.5814894838258624E-4,
      "y": 0.005497787147760391,
      "z": -3.054326225537807E-4,
      "time_usec": 667917810636
    },
    {
      "x": -4.5814894838258624E-4,
      "y": 0.0032070425804704428,
      "z": -3.054326225537807E-4,
      "time_usec": 667917812894
    },
    {
      "x": 7.635815418325365E-4,
      "y": 0.0032070425804704428,
      "z": 9.162978967651725E-4,
      "time_usec": 667917815154
    },
    {
      "x": -0.001832595793530345,
      "y": -0.001679879380390048,
      "z": -3.054326225537807E-4,
      "time_usec": 667917817411
    },
    {
      "x": -6.108652451075613E-4,
      "y": -0.004123340360820293,
      "z": -0.001527163083665073,
      "time_usec": 667917819670
    },
    {
      "x": 7.635815418325365E-4,
      "y": -0.004123340360820293,
      "z": -0.0039706239476799965,
      "time_usec": 667917821927
    },
    {
      "x": -0.001832595793530345,
      "y": -0.001679879380390048,
      "z": -3.054326225537807E-4,
      "time_usec": 667917824185
    },
    {
      "x": -0.00427605677396059,
      "y": -0.0039706239476799965,
      "z": -3.054326225537807E-4,
      "time_usec": 667917826443
    },
    {
      "x": 7.635815418325365E-4,
      "y": 7.635815418325365E-4,
      "z": -3.054326225537807E-4,
      "time_usec": 667917828699
    },
    {
      "x": -0.001679879380390048,
      "y": 7.635815418325365E-4,
      "z": 0.002138028386980295,
      "time_usec": 667917830956
    },
    {
      "x": -4.5814894838258624E-4,
      "y": 7.635815418325365E-4,
      "z": 0.002138028386980295,
      "time_usec": 667917833210
    },
    {
      "x": 7.635815418325365E-4,
      "y": -4.5814894838258624E-4,
      "z": -3.054326225537807E-4,
      "time_usec": 667917835467
    },
    {
      "x": 7.635815418325365E-4,
      "y": 7.635815418325365E-4,
      "z": -0.001527163083665073,
      "time_usec": 667917837731
    },
    {
      "x": -0.001679879380390048,
      "y": 0.0019853119738399982,
      "z": -3.054326225537807E-4,
      "time_usec": 667917839989
    },
    {
      "x": -4.5814894838258624E-4,
      "y": 0.006719517521560192,
      "z": -0.001527163083665073,
      "time_usec": 667917842247
    },
    {
      "x": -4.5814894838258624E-4,
      "y": 0.0032070425804704428,
      "z": 9.162978967651725E-4,
      "time_usec": 667917844504
    },
    {
      "x": -0.0029016099870204926,
      "y": 0.004428773187100887,
      "z": -0.001527163083665073,
      "time_usec": 667917846752
    },
    {
      "x": -4.5814894838258624E-4,
      "y": 0.004428773187100887,
      "z": -3.054326225537807E-4,
      "time_usec": 667917849005
    },
    {
      "x": -4.5814894838258624E-4,
      "y": 7.635815418325365E-4,
      "z": 9.162978967651725E-4,
      "time_usec": 667917851276
    },
    {
      "x": -0.001832595793530345,
      "y": -0.0027488935738801956,
      "z": 0.002138028386980295,
      "time_usec": 667917853534
    },
    {
      "x": -0.001832595793530345,
      "y": -0.001679879380390048,
      "z": -0.001527163083665073,
      "time_usec": 667917855787
    },
    {
      "x": -0.003054326167330146,
      "y": -0.001679879380390048,
      "z": 9.162978967651725E-4,
      "time_usec": 667917858037
    },
    {
      "x": -0.001679879380390048,
      "y": 0.0019853119738399982,
      "z": -0.001527163083665073,
      "time_usec": 667917860307
    },
    {
      "x": 7.635815418325365E-4,
      "y": 0.00427605677396059,
      "z": -0.001527163083665073,
      "time_usec": 667917862567
    },
    {
      "x": 0.0032070425804704428,
      "y": 0.003054326167330146,
      "z": -0.0027488935738801956,
      "time_usec": 667917864824
    },
    {
      "x": 7.635815418325365E-4,
      "y": 0.0019853119738399982,
      "z": 9.162978967651725E-4,
      "time_usec": 667917867075
    },
    {
      "x": 7.635815418325365E-4,
      "y": -0.0029016099870204926,
      "z": -3.054326225537807E-4,
      "time_usec": 667917869337
    },
    {
      "x": 0.0019853119738399982,
      "y": -0.0029016099870204926,
      "z": 9.162978967651725E-4,
      "time_usec": 667917871593
    },
    {
      "x": 0.0019853119738399982,
      "y": -4.5814894838258624E-4,
      "z": -3.054326225537807E-4,
      "time_usec": 667917873843
    },
    {
      "x": 7.635815418325365E-4,
      "y": 0.0019853119738399982,
      "z": -3.054326225537807E-4,
      "time_usec": 667917876099
    },
    {
      "x": -0.001832595793530345,
      "y": 7.635815418325365E-4,
      "z": 0.002138028386980295,
      "time_usec": 667917878369
    },
    {
      "x": 7.635815418325365E-4,
      "y": 0.0019853119738399982,
      "z": -3.054326225537807E-4,
      "time_usec": 667917880629
    },
    {
      "x": -4.5814894838258624E-4,
      "y": -4.5814894838258624E-4,
      "z": -3.054326225537807E-4,
      "time_usec": 667917882886
    },
    {
      "x": 7.635815418325365E-4,
      "y": -0.0029016099870204926,
      "z": -3.054326225537807E-4,
      "time_usec": 667917885135
    },
    {
      "x": -6.108652451075613E-4,
      "y": -0.001679879380390048,
      "z": 9.162978967651725E-4,
      "time_usec": 667917887390
    },
    {
      "x": 7.635815418325365E-4,
      "y": -0.001679879380390048,
      "z": 9.162978967651725E-4,
      "time_usec": 667917889641
    },
    {
      "x": -4.5814894838258624E-4,
      "y": 7.635815418325365E-4,
      "z": 0.003359758760780096,
      "time_usec": 667917891903
    },
    {
      "x": -0.0029016099870204926,
      "y": 0.004428773187100887,
      "z": -3.054326225537807E-4,
      "time_usec": 667917894171
    },
    {
      "x": 0.0032070425804704428,
      "y": 0.00427605677396059,
      "z": 9.162978967651725E-4,
      "time_usec": 667917896421
    },
    {
      "x": 7.635815418325365E-4,
      "y": 0.00427605677396059,
      "z": -3.054326225537807E-4,
      "time_usec": 667917898692
    },
    {
      "x": -4.5814894838258624E-4,
      "y": 0.0019853119738399982,
      "z": -3.054326225537807E-4,
      "time_usec": 667917900945
    },
    {
      "x": -0.003054326167330146,
      "y": -0.001679879380390048,
      "z": -0.001527163083665073,
      "time_usec": 667917903203
    },
    {
      "x": -4.5814894838258624E-4,
      "y": -0.001679879380390048,
      "z": -3.054326225537807E-4,
      "time_usec": 667917905455
    },
    {
      "x": -0.003054326167330146,
      "y": -4.5814894838258624E-4,
      "z": -0.001527163083665073,
      "time_usec": 667917907718
    },
    {
      "x": -0.001832595793530345,
      "y": -4.5814894838258624E-4,
      "z": -3.054326225537807E-4,
      "time_usec": 667917909973
    },
    {
      "x": -0.001832595793530345,
      "y": -4.5814894838258624E-4,
      "z": 9.162978967651725E-4,
      "time_usec": 667917912222
    },
    {
      "x": -4.5814894838258624E-4,
      "y": -4.5814894838258624E-4,
      "z": 9.162978967651725E-4,
      "time_usec": 667917914490
    },
    {
      "x": 7.635815418325365E-4,
      "y": -4.5814894838258624E-4,
      "z": -3.054326225537807E-4,
      "time_usec": 667917916746
    },
    {
      "x": 7.635815418325365E-4,
      "y": -4.5814894838258624E-4,
      "z": -0.0027488935738801956,
      "time_usec": 667917919010
    },
    {
      "x": 7.635815418325365E-4,
      "y": -4.5814894838258624E-4,
      "z": -0.001527163083665073,
      "time_usec": 667917921264
    },
    {
      "x": -4.5814894838258624E-4,
      "y": -0.0029016099870204926,
      "z": -0.0027488935738801956,
      "time_usec": 667917923522
    },
    {
      "x": -6.108652451075613E-4,
      "y": -0.0029016099870204926,
      "z": -3.054326225537807E-4,
      "time_usec": 667917925774
    },
    {
      "x": -0.001679879380390048,
      "y": 0.0019853119738399982,
      "z": 0.003359758760780096,
      "time_usec": 667917928038
    },
    {
      "x": -4.5814894838258624E-4,
      "y": 0.0032070425804704428,
      "z": 9.162978967651725E-4,
      "time_usec": 667917930295
    },
    {
      "x": -4.5814894838258624E-4,
      "y": 7.635815418325365E-4,
      "z": -3.054326225537807E-4,
      "time_usec": 667917932554
    },
    {
      "x": -0.001832595793530345,
      "y": -0.005192354787141085,
      "z": -3.054326225537807E-4,
      "time_usec": 667917934810
    },
    {
      "x": 0.004428773187100887,
      "y": -0.0029016099870204926,
      "z": 9.162978967651725E-4,
      "time_usec": 667917937064
    },
    {
      "x": 0.0032070425804704428,
      "y": -0.0029016099870204926,
      "z": -3.054326225537807E-4,
      "time_usec": 667917939326
    },
    {
      "x": 7.635815418325365E-4,
      "y": -0.0029016099870204926,
      "z": -0.0027488935738801956,
      "time_usec": 667917941583
    },
    {
      "x": 0.0019853119738399982,
      "y": 7.635815418325365E-4,
      "z": -3.054326225537807E-4,
      "time_usec": 667917943841
    },
    {
      "x": -0.00427605677396059,
      "y": 7.635815418325365E-4,
      "z": -3.054326225537807E-4,
      "time_usec": 667917946094
    },
    {
      "x": 0.0019853119738399982,
      "y": 0.00427605677396059,
      "z": 9.162978967651725E-4,
      "time_usec": 667917948356
    },
    {
      "x": 0.0032070425804704428,
      "y": 0.003054326167330146,
      "z": 9.162978967651725E-4,
      "time_usec": 667917950613
    },
    {
      "x": -4.5814894838258624E-4,
      "y": -0.001679879380390048,
      "z": 9.162978967651725E-4,
      "time_usec": 667917952867
    },
    {
      "x": -6.108652451075613E-4,
      "y": -0.0029016099870204926,
      "z": 9.162978967651725E-4,
      "time_usec": 667917955123
    },
    {
      "x": 7.635815418325365E-4,
      "y": -0.0029016099870204926,
      "z": 9.162978967651725E-4,
      "time_usec": 667917957382
    },
    {
      "x": -4.5814894838258624E-4,
      "y": 7.635815418325365E-4,
      "z": 9.162978967651725E-4,
      "time_usec": 667917959645
    },
    {
      "x": -4.5814894838258624E-4,
      "y": 0.0019853119738399982,
      "z": 9.162978967651725E-4,
      "time_usec": 667917961899
    },
    {
      "x": -4.5814894838258624E-4,
      "y": -0.001679879380390048,
      "z": -3.054326225537807E-4,
      "time_usec": 667917964160
    },
    {
      "x": 7.635815418325365E-4,
      "y": -4.5814894838258624E-4,
      "z": -3.054326225537807E-4,
      "time_usec": 667917966412
    },
    {
      "x": -4.5814894838258624E-4,
      "y": 0.004428773187100887,
      "z": 9.162978967651725E-4,
      "time_usec": 667917968677
    },
    {
      "x": 0.0019853119738399982,
      "y": -4.5814894838258624E-4,
      "z": 9.162978967651725E-4,
      "time_usec": 667917970936
    },
    {
      "x": 7.635815418325365E-4,
      "y": -0.001679879380390048,
      "z": 0.002138028386980295,
      "time_usec": 667917973195
    },
    {
      "x": 7.635815418325365E-4,
      "y": -0.0029016099870204926,
      "z": -3.054326225537807E-4,
      "time_usec": 667917975436
    },
    {
      "x": 0.0019853119738399982,
      "y": 7.635815418325365E-4,
      "z": -0.001527163083665073,
      "time_usec": 667917977706
    },
    {
      "x": 0.0019853119738399982,
      "y": 7.635815418325365E-4,
      "z": -0.0039706239476799965,
      "time_usec": 667917979960
    },
    {
      "x": 7.635815418325365E-4,
      "y": 0.0019853119738399982,
      "z": -3.054326225537807E-4,
      "time_usec": 667917982215
    },
    {
      "x": -4.5814894838258624E-4,
      "y": 0.0032070425804704428,
      "z": -0.0027488935738801956,
      "time_usec": 667917984478
    },
    {
      "x": -4.5814894838258624E-4,
      "y": 7.635815418325365E-4,
      "z": -3.054326225537807E-4,
      "time_usec": 667917986733
    },
    {
      "x": 7.635815418325365E-4,
      "y": 0.0019853119738399982,
      "z": -3.054326225537807E-4,
      "time_usec": 667917989000
    },
    {
      "x": 0.004428773187100887,
      "y": -0.0065668015740811825,
      "z": 9.162978967651725E-4,
      "time_usec": 667917991251
    },
    {
      "x": 0.0019853119738399982,
      "y": -0.005345070734620094,
      "z": -0.001527163083665073,
      "time_usec": 667917993502
    },
    {
      "x": -0.001679879380390048,
      "y": 0.0019853119738399982,
      "z": -3.054326225537807E-4,
      "time_usec": 667917995760
    },
    {
      "x": -0.0065668015740811825,
      "y": 0.006872233934700489,
      "z": -0.001527163083665073,
      "time_usec": 667917998017
    },
    {
      "x": -0.00427605677396059,
      "y": 7.635815418325365E-4,
      "z": 9.162978967651725E-4,
      "time_usec": 667918000285
    },
    {
      "x": 0.0032070425804704428,
      "y": -0.0029016099870204926,
      "z": -0.001527163083665073,
      "time_usec": 667918002542
    },
    {
      "x": 0.0032070425804704428,
      "y": -0.004123340360820293,
      "z": -3.054326225537807E-4,
      "time_usec": 667918004800
    },
    {
      "x": 0.004428773187100887,
      "y": -0.001679879380390048,
      "z": -0.001527163083665073,
      "time_usec": 667918007052
    },
    {
      "x": 0.006872233934700489,
      "y": -0.0029016099870204926,
      "z": 9.162978967651725E-4,
      "time_usec": 667918009314
    },
    {
      "x": 0.0032070425804704428,
      "y": 7.635815418325365E-4,
      "z": 0.004581489134579897,
      "time_usec": 667918011571
    },
    {
      "x": -0.00427605677396059,
      "y": 0.0019853119738399982,
      "z": 0.003359758760780096,
      "time_usec": 667918013829
    },
    {
      "x": -0.001832595793530345,
      "y": -0.001679879380390048,
      "z": 0.002138028386980295,
      "time_usec": 667918016082
    },
    {
      "x": -0.001832595793530345,
      "y": -0.0064140851609408855,
      "z": -3.054326225537807E-4,
      "time_usec": 667918018345
    },
    {
      "x": -0.00427605677396059,
      "y": -0.0064140851609408855,
      "z": -0.0029016099870204926,
      "time_usec": 667918020602
    },
    {
      "x": -0.0029016099870204926,
      "y": 0.0019853119738399982,
      "z": -0.005192354787141085,
      "time_usec": 667918022860
    },
    {
      "x": -4.5814894838258624E-4,
      "y": 0.005497787147760391,
      "z": -0.0027488935738801956,
      "time_usec": 667918025113
    },
    {
      "x": -4.5814894838258624E-4,
      "y": 0.01160643994808197,
      "z": -0.0027488935738801956,
      "time_usec": 667918027370
    },
    {
      "x": -4.5814894838258624E-4,
      "y": 0.009162978269159794,
      "z": 9.162978967651725E-4,
      "time_usec": 667918029632
    },
    {
      "x": 0.004428773187100887,
      "y": 0.001832595793530345,
      "z": 9.162978967651725E-4,
      "time_usec": 667918031889
    },
    {
      "x": 0.001832595793530345,
      "y": -0.004123340360820293,
      "z": 0.003359758760780096,
      "time_usec": 667918034150
    },
    {
      "x": -0.001832595793530345,
      "y": -0.005192354787141085,
      "z": 0.002138028386980295,
      "time_usec": 667918036398
    },
    {
      "x": -6.108652451075613E-4,
      "y": -0.011301007121801376,
      "z": -0.001527163083665073,
      "time_usec": 667918038668
    },
    {
      "x": -0.001832595793530345,
      "y": -0.0029016099870204926,
      "z": -0.0027488935738801956,
      "time_usec": 667918040930
    },
    {
      "x": -0.0029016099870204926,
      "y": 7.635815418325365E-4,
      "z": -0.0027488935738801956,
      "time_usec": 667918043192
    },
    {
      "x": -0.0029016099870204926,
      "y": 0.005650503560900688,
      "z": -0.0029016099870204926,
      "time_usec": 667918045431
    },
    {
      "x": -0.0029016099870204926,
      "y": 0.004428773187100887,
      "z": -0.001679879380390048,
      "time_usec": 667918047702
    },
    {
      "x": -4.5814894838258624E-4,
      "y": -4.5814894838258624E-4,
      "z": 7.635815418325365E-4,
      "time_usec": 667918049958
    },
    {
      "x": -6.108652451075613E-4,
      "y": -0.001679879380390048,
      "z": 0.0032070425804704428,
      "time_usec": 667918052211
    },
    {
      "x": -6.108652451075613E-4,
      "y": -0.001679879380390048,
      "z": 7.635815418325365E-4,
      "time_usec": 667918054466
    },
    {
      "x": 0.0019853119738399982,
      "y": 0.0019853119738399982,
      "z": 0.0032070425804704428,
      "time_usec": 667918056720
    },
    {
      "x": 0.004428773187100887,
      "y": 0.001832595793530345,
      "z": -4.5814894838258624E-4,
      "time_usec": 667918058984
    },
    {
      "x": 0.0032070425804704428,
      "y": 0.003054326167330146,
      "z": -4.5814894838258624E-4,
      "time_usec": 667918061243
    },
    {
      "x": -0.001679879380390048,
      "y": 0.0032070425804704428,
      "z": -0.0029016099870204926,
      "time_usec": 667918063499
    },
    {
      "x": -4.5814894838258624E-4,
      "y": -4.5814894838258624E-4,
      "z": -0.0029016099870204926,
      "time_usec": 667918065751
    },
    {
      "x": -0.001832595793530345,
      "y": -0.0029016099870204926,
      "z": -4.5814894838258624E-4,
      "time_usec": 667918068012
    },
    {
      "x": -0.001832595793530345,
      "y": -0.005192354787141085,
      "z": -4.5814894838258624E-4,
      "time_usec": 667918070266
    },
    {
      "x": -0.001832595793530345,
      "y": -0.0064140851609408855,
      "z": 0.0019853119738399982,
      "time_usec": 667918072530
    },
    {
      "x": -0.001832595793530345,
      "y": -4.5814894838258624E-4,
      "z": 0.0032070425804704428,
      "time_usec": 667918074786
    },
    {
      "x": -4.5814894838258624E-4,
      "y": 0.004428773187100887,
      "z": 7.635815418325365E-4,
      "time_usec": 667918077041
    },
    {
      "x": -4.5814894838258624E-4,
      "y": 0.004428773187100887,
      "z": 7.635815418325365E-4,
      "time_usec": 667918079303
    },
    {
      "x": 7.635815418325365E-4,
      "y": 0.003054326167330146,
      "z": -0.0029016099870204926,
      "time_usec": 667918081560
    },
    {
      "x": 0.0019853119738399982,
      "y": 7.635815418325365E-4,
      "z": -0.0029016099870204926,
      "time_usec": 667918083818
    },
    {
      "x": -4.5814894838258624E-4,
      "y": -0.001679879380390048,
      "z": -0.004123340360820293,
      "time_usec": 667918086070
    },
    {
      "x": 7.635815418325365E-4,
      "y": -0.0029016099870204926,
      "z": -0.001679879380390048,
      "time_usec": 667918088335
    },
    {
      "x": 0.0019853119738399982,
      "y": 7.635815418325365E-4,
      "z": -4.5814894838258624E-4,
      "time_usec": 667918090590
    },
    {
      "x": 0.0019853119738399982,
      "y": 0.004428773187100887,
      "z": 0.0032070425804704428,
      "time_usec": 667918092848
    },
    {
      "x": -0.001679879380390048,
      "y": 0.0032070425804704428,
      "z": 0.0019853119738399982,
      "time_usec": 667918095099
    },
    {
      "x": -6.108652451075613E-4,
      "y": -0.005192354787141085,
      "z": 0.0019853119738399982,
      "time_usec": 667918097360
    },
    {
      "x": -6.108652451075613E-4,
      "y": -0.0039706239476799965,
      "z": 0.0019853119738399982,
      "time_usec": 667918099623
    },
    {
      "x": -0.005497787147760391,
      "y": 7.635815418325365E-4,
      "z": -4.5814894838258624E-4,
      "time_usec": 667918101886
    },
    {
      "x": -0.001679879380390048,
      "y": -0.001679879380390048,
      "z": -0.005345070734620094,
      "time_usec": 667918104137
    },
    {
      "x": 0.006872233934700489,
      "y": -0.007788531947880983,
      "z": -0.004123340360820293,
      "time_usec": 667918106389
    },
    {
      "x": 0.014202617108821869,
      "y": -0.011453723534941673,
      "z": -0.001679879380390048,
      "time_usec": 667918108650
    },
    {
      "x": 0.012980886735022068,
      "y": -0.003054326167330146,
      "z": 0.0032070425804704428,
      "time_usec": 667918110906
    },
    {
      "x": 0.006872233934700489,
      "y": 0.009162978269159794,
      "z": 0.005650503560900688,
      "time_usec": 667918113168
    },
    {
      "x": -4.5814894838258624E-4,
      "y": 0.009162978269159794,
      "z": 0.004428773187100887,
      "time_usec": 667918115421
    },
    {
      "x": -0.009162978269159794,
      "y": 0.00809396430850029,
      "z": 0.0019853119738399982,
      "time_usec": 667918117684
    },
    {
      "x": -0.014049900695681572,
      "y": -3.054326225537807E-4,
      "z": -0.001832595793530345,
      "time_usec": 667918119940
    },
    {
      "x": -0.01038470957428217,
      "y": -0.008704829961061478,
      "z": -0.005497787147760391,
      "time_usec": 667918122196
    },
    {
      "x": -0.006719517521560192,
      "y": -0.010079276748001575,
      "z": -0.005497787147760391,
      "time_usec": 667918124455
    },
    {
      "x": -0.001679879380390048,
      "y": -4.5814894838258624E-4,
      "z": -0.004123340360820293,
      "time_usec": 667918126708
    },
    {
      "x": 0.0032070425804704428,
      "y": 0.007941247895359993,
      "z": -0.001679879380390048,
      "time_usec": 667918128973
    },
    {
      "x": 0.008246680721640587,
      "y": 0.011453723534941673,
      "z": 0.0019853119738399982,
      "time_usec": 667918131231
    },
    {
      "x": 0.009468411095440388,
      "y": 0.007941247895359993,
      "z": 0.004428773187100887,
      "time_usec": 667918133489
    },
    {
      "x": 0.004428773187100887,
      "y": -4.5814894838258624E-4,
      "z": 0.0032070425804704428,
      "time_usec": 667918135737
    },
    {
      "x": 0.003054326167330146,
      "y": -0.012522737495601177,
      "z": 0.0019853119738399982,
      "time_usec": 667918137991
    },
    {
      "x": 6.108652451075613E-4,
      "y": -0.014966198243200779,
      "z": -4.5814894838258624E-4,
      "time_usec": 667918140255
    },
    {
      "x": -0.005497787147760391,
      "y": -0.007635815534740686,
      "z": -6.108652451075613E-4,
      "time_usec": 667918142523
    },
    {
      "x": -0.006719517521560192,
      "y": 0.0032070425804704428,
      "z": -0.003054326167330146,
      "time_usec": 667918144776
    },
    {
      "x": -0.005345070734620094,
      "y": 0.01038470957428217,
      "z": -0.001679879380390048,
      "time_usec": 667918147029
    },
    {
      "x": -0.004123340360820293,
      "y": 0.012828170321881771,
      "z": -0.004123340360820293,
      "time_usec": 667918149289
    },
    {
      "x": -4.5814894838258624E-4,
      "y": 0.007941247895359993,
      "z": -4.5814894838258624E-4,
      "time_usec": 667918151549
    },
    {
      "x": 0.0019853119738399982,
      "y": -0.001679879380390048,
      "z": 7.635815418325365E-4,
      "time_usec": 667918153805
    },
    {
      "x": 0.005650503560900688,
      "y": -0.007788531947880983,
      "z": 7.635815418325365E-4,
      "time_usec": 667918156053
    },
    {
      "x": 0.00809396430850029,
      "y": -0.010231993161141872,
      "z": 0.0032070425804704428,
      "time_usec": 667918158321
    },
    {
      "x": 0.0019853119738399982,
      "y": -0.001679879380390048,
      "z": 0.0019853119738399982,
      "time_usec": 667918160579
    },
    {
      "x": -4.5814894838258624E-4,
      "y": 0.004428773187100887,
      "z": 7.635815418325365E-4,
      "time_usec": 667918162838
    },
    {
      "x": 7.635815418325365E-4,
      "y": 0.007941247895359993,
      "z": 7.635815418325365E-4,
      "time_usec": 667918165088
    },
    {
      "x": -0.0029016099870204926,
      "y": 0.0032070425804704428,
      "z": -0.001679879380390048,
      "time_usec": 667918167347
    },
    {
      "x": -0.001832595793530345,
      "y": -0.0029016099870204926,
      "z": -4.5814894838258624E-4,
      "time_usec": 667918169611
    },
    {
      "x": -0.003054326167330146,
      "y": -0.007635815534740686,
      "z": -0.001832595793530345,
      "time_usec": 667918171869
    },
    {
      "x": -0.003054326167330146,
      "y": -0.007635815534740686,
      "z": 7.635815418325365E-4,
      "time_usec": 667918174125
    },
    {
      "x": -6.108652451075613E-4,
      "y": -0.004123340360820293,
      "z": 7.635815418325365E-4,
      "time_usec": 667918176374
    },
    {
      "x": 7.635815418325365E-4,
      "y": 0.006719517521560192,
      "z": 0.0019853119738399982,
      "time_usec": 667918178627
    },
    {
      "x": 0.0032070425804704428,
      "y": 0.009162978269159794,
      "z": 0.0032070425804704428,
      "time_usec": 667918180893
    },
    {
      "x": 0.0032070425804704428,
      "y": 0.009162978269159794,
      "z": 0.0019853119738399982,
      "time_usec": 667918183156
    },
    {
      "x": 0.004428773187100887,
      "y": 0.001832595793530345,
      "z": -4.5814894838258624E-4,
      "time_usec": 667918185411
    },
    {
      "x": 0.0032070425804704428,
      "y": -0.004123340360820293,
      "z": -0.0029016099870204926,
      "time_usec": 667918187674
    },
    {
      "x": -0.001832595793530345,
      "y": -0.0064140851609408855,
      "z": -0.001679879380390048,
      "time_usec": 667918189929
    },
    {
      "x": -6.108652451075613E-4,
      "y": -0.005192354787141085,
      "z": -0.001679879380390048,
      "time_usec": 667918192187
    },
    {
      "x": -0.006719517521560192,
      "y": -0.0027488935738801956,
      "z": 0.001832595793530345,
      "time_usec": 667918194428
    },
    {
      "x": -0.0029016099870204926,
      "y": 0.0032070425804704428,
      "z": 7.635815418325365E-4,
      "time_usec": 667918196689
    },
    {
      "x": -0.001679879380390048,
      "y": 0.007941247895359993,
      "z": 7.635815418325365E-4,
      "time_usec": 667918198957
    },
    {
      "x": 7.635815418325365E-4,
      "y": 0.004428773187100887,
      "z": 7.635815418325365E-4,
      "time_usec": 667918201213
    },
    {
      "x": -4.5814894838258624E-4,
      "y": 7.635815418325365E-4,
      "z": -4.5814894838258624E-4,
      "time_usec": 667918203477
    },
    {
      "x": 0.0019853119738399982,
      "y": -0.005345070734620094,
      "z": -0.001679879380390048,
      "time_usec": 667918205730
    },
    {
      "x": -6.108652451075613E-4,
      "y": -0.005345070734620094,
      "z": -0.0029016099870204926,
      "time_usec": 667918207992
    },
    {
      "x": -0.001679879380390048,
      "y": 0.0019853119738399982,
      "z": -0.0029016099870204926,
      "time_usec": 667918210248
    },
    {
      "x": -4.5814894838258624E-4,
      "y": 0.005497787147760391,
      "z": -4.5814894838258624E-4,
      "time_usec": 667918212506
    },
    {
      "x": 7.635815418325365E-4,
      "y": 0.0032070425804704428,
      "z": 0.0032070425804704428,
      "time_usec": 667918214762
    },
    {
      "x": -4.5814894838258624E-4,
      "y": 0.0019853119738399982,
      "z": 0.0032070425804704428,
      "time_usec": 667918217016
    },
    {
      "x": -4.5814894838258624E-4,
      "y": -4.5814894838258624E-4,
      "z": 7.635815418325365E-4,
      "time_usec": 667918219278
    },
    {
      "x": -0.003054326167330146,
      "y": -0.008857546374201775,
      "z": -6.108652451075613E-4,
      "time_usec": 667918221534
    },
    {
      "x": -0.001832595793530345,
      "y": -0.007635815534740686,
      "z": 7.635815418325365E-4,
      "time_usec": 667918223783
    },
    {
      "x": -0.001832595793530345,
      "y": -0.0029016099870204926,
      "z": -4.5814894838258624E-4,
      "time_usec": 667918226047
    },
    {
      "x": -0.0029016099870204926,
      "y": 0.0032070425804704428,
      "z": -4.5814894838258624E-4,
      "time_usec": 667918228309
    },
    {
      "x": 7.635815418325365E-4,
      "y": 0.006719517521560192,
      "z": 0.0019853119738399982,
      "time_usec": 667918230570
    },
    {
      "x": 7.635815418325365E-4,
      "y": 0.007941247895359993,
      "z": 0.0019853119738399982,
      "time_usec": 667918232825
    },
    {
      "x": -4.5814894838258624E-4,
      "y": 0.0032070425804704428,
      "z": -0.001679879380390048,
      "time_usec": 667918235077
    },
    {
      "x": 7.635815418325365E-4,
      "y": -0.001679879380390048,
      "z": -4.5814894838258624E-4,
      "time_usec": 667918237335
    },
    {
      "x": 6.108652451075613E-4,
      "y": -0.0064140851609408855,
      "z": -4.5814894838258624E-4,
      "time_usec": 667918239599
    },
    {
      "x": -6.108652451075613E-4,
      "y": -0.004123340360820293,
      "z": -4.5814894838258624E-4,
      "time_usec": 667918241858
    },
    {
      "x": 7.635815418325365E-4,
      "y": -0.001679879380390048,
      "z": 7.635815418325365E-4,
      "time_usec": 667918244113
    },
    {
      "x": -0.003054326167330146,
      "y": 0.0019853119738399982,
      "z": 0.0019853119738399982,
      "time_usec": 667918246365
    },
    {
      "x": -0.001679879380390048,
      "y": 0.004428773187100887,
      "z": 0.0019853119738399982,
      "time_usec": 667918248627
    },
    {
      "x": -4.5814894838258624E-4,
      "y": 0.005497787147760391,
      "z": -4.5814894838258624E-4,
      "time_usec": 667918250883
    },
    {
      "x": 7.635815418325365E-4,
      "y": 7.635815418325365E-4,
      "z": -0.001679879380390048,
      "time_usec": 667918253143
    },
    {
      "x": 0.0032070425804704428,
      "y": -0.0029016099870204926,
      "z": -4.5814894838258624E-4,
      "time_usec": 667918255393
    },
    {
      "x": -6.108652451075613E-4,
      "y": -0.0029016099870204926,
      "z": -4.5814894838258624E-4,
      "time_usec": 667918257657
    },
    {
      "x": -4.5814894838258624E-4,
      "y": 0.0019853119738399982,
      "z": -4.5814894838258624E-4,
      "time_usec": 667918259902
    },
    {
      "x": 7.635815418325365E-4,
      "y": 0.0032070425804704428,
      "z": -4.5814894838258624E-4,
      "time_usec": 667918262165
    },
    {
      "x": -4.5814894838258624E-4,
      "y": 0.0019853119738399982,
      "z": 0.0032070425804704428,
      "time_usec": 667918264431
    },
    {
      "x": -0.0029016099870204926,
      "y": 0.004428773187100887,
      "z": -4.5814894838258624E-4,
      "time_usec": 667918266688
    },
    {
      "x": -0.001679879380390048,
      "y": 7.635815418325365E-4,
      "z": -4.5814894838258624E-4,
      "time_usec": 667918268950
    },
    {
      "x": -0.00427605677396059,
      "y": -4.5814894838258624E-4,
      "z": -0.001679879380390048,
      "time_usec": 667918271203
    },
    {
      "x": -0.001832595793530345,
      "y": -0.0039706239476799965,
      "z": -4.5814894838258624E-4,
      "time_usec": 667918273463
    },
    {
      "x": 7.635815418325365E-4,
      "y": -0.004123340360820293,
      "z": -4.5814894838258624E-4,
      "time_usec": 667918275716
    },
    {
      "x": 7.635815418325365E-4,
      "y": -4.5814894838258624E-4,
      "z": 0.004428773187100887,
      "time_usec": 667918277980
    },
    {
      "x": 0.0019853119738399982,
      "y": 0.0032070425804704428,
      "z": 0.004428773187100887,
      "time_usec": 667918280238
    },
    {
      "x": -0.001679879380390048,
      "y": 0.004428773187100887,
      "z": 7.635815418325365E-4,
      "time_usec": 667918282495
    },
    {
      "x": -0.001679879380390048,
      "y": 0.0019853119738399982,
      "z": 0.0019853119738399982,
      "time_usec": 667918284750
    },
    {
      "x": -0.001679879380390048,
      "y": -4.5814894838258624E-4,
      "z": -0.004123340360820293,
      "time_usec": 667918287004
    },
    {
      "x": -0.001679879380390048,
      "y": -0.001679879380390048,
      "z": -0.004123340360820293,
      "time_usec": 667918289267
    },
    {
      "x": -4.5814894838258624E-4,
      "y": -4.5814894838258624E-4,
      "z": -0.004123340360820293,
      "time_usec": 667918291525
    },
    {
      "x": -0.001679879380390048,
      "y": 7.635815418325365E-4,
      "z": 7.635815418325365E-4,
      "time_usec": 667918293781
    },
    {
      "x": 7.635815418325365E-4,
      "y": -4.5814894838258624E-4,
      "z": -4.5814894838258624E-4,
      "time_usec": 667918296028
    },
    {
      "x": 7.635815418325365E-4,
      "y": 0.0019853119738399982,
      "z": 7.635815418325365E-4,
      "time_usec": 667918298297
    },
    {
      "x": -0.0029016099870204926,
      "y": 0.005650503560900688,
      "z": -4.5814894838258624E-4,
      "time_usec": 667918300555
    },
    {
      "x": -4.5814894838258624E-4,
      "y": -4.5814894838258624E-4,
      "z": 7.635815418325365E-4,
      "time_usec": 667918302815
    },
    {
      "x": -0.001832595793530345,
      "y": -0.001679879380390048,
      "z": -0.001679879380390048,
      "time_usec": 667918305066
    },
    {
      "x": -4.5814894838258624E-4,
      "y": 7.635815418325365E-4,
      "z": -4.5814894838258624E-4,
      "time_usec": 667918307323
    },
    {
      "x": -4.5814894838258624E-4,
      "y": -0.0029016099870204926,
      "z": -0.0029016099870204926,
      "time_usec": 667918309586
    },
    {
      "x": -0.0029016099870204926,
      "y": 7.635815418325365E-4,
      "z": -0.0029016099870204926,
      "time_usec": 667918311845
    },
    {
      "x": -4.5814894838258624E-4,
      "y": 0.005497787147760391,
      "z": -4.5814894838258624E-4,
      "time_usec": 667918314102
    },
    {
      "x": -4.5814894838258624E-4,
      "y": 0.004428773187100887,
      "z": -4.5814894838258624E-4,
      "time_usec": 667918316347
    },
    {
      "x": -0.0029016099870204926,
      "y": 0.004428773187100887,
      "z": 0.0032070425804704428,
      "time_usec": 667918318605
    },
    {
      "x": -0.004123340360820293,
      "y": 0.004428773187100887,
      "z": 7.635815418325365E-4,
      "time_usec": 667918320877
    },
    {
      "x": 7.635815418325365E-4,
      "y": -4.5814894838258624E-4,
      "z": 0.0019853119738399982,
      "time_usec": 667918323132
    },
    {
      "x": 7.635815418325365E-4,
      "y": -0.0029016099870204926,
      "z": -0.001679879380390048,
      "time_usec": 667918325388
    },
    {
      "x": -4.5814894838258624E-4,
      "y": -0.0029016099870204926,
      "z": -0.001679879380390048,
      "time_usec": 667918327646
    },
    {
      "x": -0.001679879380390048,
      "y": -4.5814894838258624E-4,
      "z": -4.5814894838258624E-4,
      "time_usec": 667918329901
    },
    {
      "x": 7.635815418325365E-4,
      "y": 7.635815418325365E-4,
      "z": -4.5814894838258624E-4,
      "time_usec": 667918332165
    },
    {
      "x": 7.635815418325365E-4,
      "y": 0.005497787147760391,
      "z": -0.004123340360820293,
      "time_usec": 667918334419
    },
    {
      "x": -0.0029016099870204926,
      "y": 0.0032070425804704428,
      "z": -4.5814894838258624E-4,
      "time_usec": 667918336674
    },
    {
      "x": -0.003054326167330146,
      "y": -4.5814894838258624E-4,
      "z": -4.5814894838258624E-4,
      "time_usec": 667918338938
    },
    {
      "x": -4.5814894838258624E-4,
      "y": -0.001679879380390048,
      "z": -4.5814894838258624E-4,
      "time_usec": 667918341200
    },
    {
      "x": 7.635815418325365E-4,
      "y": -4.5814894838258624E-4,
      "z": -0.001679879380390048,
      "time_usec": 667918343451
    },
    {
      "x": 7.635815418325365E-4,
      "y": -0.001679879380390048,
      "z": -0.0029016099870204926,
      "time_usec": 667918345704
    },
    {
      "x": 0.0032070425804704428,
      "y": 0.003054326167330146,
      "z": 7.635815418325365E-4,
      "time_usec": 667918347967
    },
    {
      "x": 0.0032070425804704428,
      "y": 0.0019853119738399982,
      "z": 7.635815418325365E-4,
      "time_usec": 667918350231
    },
    {
      "x": 7.635815418325365E-4,
      "y": 0.0032070425804704428,
      "z": 0.0019853119738399982,
      "time_usec": 667918352483
    },
    {
      "x": -0.003054326167330146,
      "y": -4.5814894838258624E-4,
      "z": -4.5814894838258624E-4,
      "time_usec": 667918354738
    },
    {
      "x": 6.108652451075613E-4,
      "y": -0.005192354787141085,
      "z": 0.0019853119738399982,
      "time_usec": 667918356990
    },
    {
      "x": 6.108652451075613E-4,
      "y": -0.004123340360820293,
      "z": 0.0032070425804704428,
      "time_usec": 667918359250
    },
    {
      "x": -6.108652451075613E-4,
      "y": -0.004123340360820293,
      "z": -4.5814894838258624E-4,
      "time_usec": 667918361513
    },
    {
      "x": -4.5814894838258624E-4,
      "y": 7.635815418325365E-4,
      "z": 0.0019853119738399982,
      "time_usec": 667918363770
    },
    {
      "x": -4.5814894838258624E-4,
      "y": 0.005497787147760391,
      "z": 7.635815418325365E-4,
      "time_usec": 667918366025
    },
    {
      "x": -0.001679879380390048,
      "y": 0.004428773187100887,
      "z": -4.5814894838258624E-4,
      "time_usec": 667918368287
    },
    {
      "x": 7.635815418325365E-4,
      "y": 0.0019853119738399982,
      "z": -4.5814894838258624E-4,
      "time_usec": 667918370544
    },
    {
      "x": 0.0032070425804704428,
      "y": -0.001679879380390048,
      "z": -0.001679879380390048,
      "time_usec": 667918372802
    },
    {
      "x": -6.108652451075613E-4,
      "y": -0.0029016099870204926,
      "z": -0.001679879380390048,
      "time_usec": 667918375054
    },
    {
      "x": 7.635815418325365E-4,
      "y": -0.001679879380390048,
      "z": -4.5814894838258624E-4,
      "time_usec": 667918377311
    },
    {
      "x": 7.635815418325365E-4,
      "y": -0.0029016099870204926,
      "z": -4.5814894838258624E-4,
      "time_usec": 667918379574
    },
    {
      "x": 7.635815418325365E-4,
      "y": 0.0019853119738399982,
      "z": 0.0019853119738399982,
      "time_usec": 667918381833
    },
    {
      "x": 0.0032070425804704428,
      "y": 0.003054326167330146,
      "z": -0.001679879380390048,
      "time_usec": 667918384090
    },
    {
      "x": 0.0019853119738399982,
      "y": 7.635815418325365E-4,
      "z": 7.635815418325365E-4,
      "time_usec": 667918386340
    },
    {
      "x": -4.5814894838258624E-4,
      "y": 0.0019853119738399982,
      "z": -0.001679879380390048,
      "time_usec": 667918388592
    },
    {
      "x": -4.5814894838258624E-4,
      "y": -0.001679879380390048,
      "z": -0.004123340360820293,
      "time_usec": 667918390863
    },
    {
      "x": 7.635815418325365E-4,
      "y": -0.0029016099870204926,
      "z": 7.635815418325365E-4,
      "time_usec": 667918393120
    },
    {
      "x": -4.5814894838258624E-4,
      "y": -4.5814894838258624E-4,
      "z": -4.5814894838258624E-4,
      "time_usec": 667918395376
    },
    {
      "x": -0.0029016099870204926,
      "y": 0.004428773187100887,
      "z": 7.635815418325365E-4,
      "time_usec": 667918397635
    },
    {
      "x": -4.5814894838258624E-4,
      "y": 0.004428773187100887,
      "z": 0.0032070425804704428,
      "time_usec": 667918399889
    },
    {
      "x": -0.001679879380390048,
      "y": 0.009162978269159794,
      "z": 0.0019853119738399982,
      "time_usec": 667918402153
    },
    {
      "x": -0.001679879380390048,
      "y": 0.0032070425804704428,
      "z": 0.0019853119738399982,
      "time_usec": 667918404409
    },
    {
      "x": 0.0019853119738399982,
      "y": -0.0029016099870204926,
      "z": -0.001679879380390048,
      "time_usec": 667918406663
    },
    {
      "x": 0.004428773187100887,
      "y": -0.007788531947880983,
      "z": -0.001679879380390048,
      "time_usec": 667918408928
    },
    {
      "x": 0.0032070425804704428,
      "y": -0.0065668015740811825,
      "z": -0.004123340360820293,
      "time_usec": 667918411183
    },
    {
      "x": 0.004428773187100887,
      "y": -4.5814894838258624E-4,
      "z": 0.0019853119738399982,
      "time_usec": 667918413440
    },
    {
      "x": -0.001679879380390048,
      "y": 0.004428773187100887,
      "z": 0.0032070425804704428,
      "time_usec": 667918415692
    },
    {
      "x": -0.0029016099870204926,
      "y": 0.006872233934700489,
      "z": 7.635815418325365E-4,
      "time_usec": 667918417958
    },
    {
      "x": -4.5814894838258624E-4,
      "y": 7.635815418325365E-4,
      "z": -4.5814894838258624E-4,
      "time_usec": 667918420209
    },
    {
      "x": -4.5814894838258624E-4,
      "y": -4.5814894838258624E-4,
      "z": 7.635815418325365E-4,
      "time_usec": 667918422459
    },
    {
      "x": 7.635815418325365E-4,
      "y": -4.5814894838258624E-4,
      "z": -0.001679879380390048,
      "time_usec": 667918424715
    },
    {
      "x": -6.108652451075613E-4,
      "y": -0.004123340360820293,
      "z": 7.635815418325365E-4,
      "time_usec": 667918426981
    },
    {
      "x": 7.635815418325365E-4,
      "y": -0.001679879380390048,
      "z": 0.0019853119738399982,
      "time_usec": 667918429246
    },
    {
      "x": -4.5814894838258624E-4,
      "y": 0.0032070425804704428,
      "z": -0.001679879380390048,
      "time_usec": 667918431504
    },
    {
      "x": -4.5814894838258624E-4,
      "y": 0.006719517521560192,
      "z": 7.635815418325365E-4,
      "time_usec": 667918433759
    },
    {
      "x": -0.001679879380390048,
      "y": 0.004428773187100887,
      "z": -0.001679879380390048,
      "time_usec": 667918436011
    },
    {
      "x": 7.635815418325365E-4,
      "y": -0.001679879380390048,
      "z": -4.5814894838258624E-4,
      "time_usec": 667918438274
    },
    {
      "x": 0.0032070425804704428,
      "y": -0.0029016099870204926,
      "z": 7.635815418325365E-4,
      "time_usec": 667918440533
    },
    {
      "x": 0.0019853119738399982,
      "y": -0.0029016099870204926,
      "z": 0.0019853119738399982,
      "time_usec": 667918442791
    },
    {
      "x": 7.635815418325365E-4,
      "y": -0.004123340360820293,
      "z": -0.001679879380390048,
      "time_usec": 667918445047
    },
    {
      "x": 0.0032070425804704428,
      "y": -4.5814894838258624E-4,
      "z": -0.001679879380390048,
      "time_usec": 667918447299
    },
    {
      "x": 0.0019853119738399982,
      "y": 0.0032070425804704428,
      "z": 0.0032070425804704428,
      "time_usec": 667918449563
    },
    {
      "x": -0.001679879380390048,
      "y": 0.0032070425804704428,
      "z": 0.0019853119738399982,
      "time_usec": 667918451820
    },
    {
      "x": -4.5814894838258624E-4,
      "y": 7.635815418325365E-4,
      "z": 7.635815418325365E-4,
      "time_usec": 667918454078
    },
    {
      "x": 7.635815418325365E-4,
      "y": -0.001679879380390048,
      "z": -0.0029016099870204926,
      "time_usec": 667918456331
    },
    {
      "x": 6.108652451075613E-4,
      "y": -0.0065668015740811825,
      "z": -0.0029016099870204926,
      "time_usec": 667918458594
    },
    {
      "x": 7.635815418325365E-4,
      "y": -4.5814894838258624E-4,
      "z": 7.635815418325365E-4,
      "time_usec": 667918460838
    },
    {
      "x": -4.5814894838258624E-4,
      "y": 0.0019853119738399982,
      "z": -0.001679879380390048,
      "time_usec": 667918463109
    },
    {
      "x": 0.0019853119738399982,
      "y": 0.003054326167330146,
      "z": -0.001679879380390048,
      "time_usec": 667918465360
    },
    {
      "x": -0.001679879380390048,
      "y": 0.0032070425804704428,
      "z": -0.001679879380390048,
      "time_usec": 667918467629
    },
    {
      "x": -4.5814894838258624E-4,
      "y": 7.635815418325365E-4,
      "z": 7.635815418325365E-4,
      "time_usec": 667918469886
    },
    {
      "x": -4.5814894838258624E-4,
      "y": -0.001679879380390048,
      "z": -4.5814894838258624E-4,
      "time_usec": 667918472141
    },
    {
      "x": -6.108652451075613E-4,
      "y": -0.004123340360820293,
      "z": -4.5814894838258624E-4,
      "time_usec": 667918474396
    },
    {
      "x": 0.0019853119738399982,
      "y": -0.004123340360820293,
      "z": 7.635815418325365E-4,
      "time_usec": 667918476649
    },
    {
      "x": 7.635815418325365E-4,
      "y": -0.0029016099870204926,
      "z": -4.5814894838258624E-4,
      "time_usec": 667918478908
    },
    {
      "x": -4.5814894838258624E-4,
      "y": 7.635815418325365E-4,
      "z": 7.635815418325365E-4,
      "time_usec": 667918481170
    },
    {
      "x": -0.001679879380390048,
      "y": 0.004428773187100887,
      "z": 7.635815418325365E-4,
      "time_usec": 667918483428
    },
    {
      "x": 7.635815418325365E-4,
      "y": 0.006719517521560192,
      "z": 7.635815418325365E-4,
      "time_usec": 667918485681
    },
    {
      "x": 7.635815418325365E-4,
      "y": 0.0019853119738399982,
      "z": -4.5814894838258624E-4,
      "time_usec": 667918487942
    },
    {
      "x": 0.0019853119738399982,
      "y": -0.004123340360820293,
      "z": -0.001679879380390048,
      "time_usec": 667918490197
    },
    {
      "x": 0.0019853119738399982,
      "y": -0.0029016099870204926,
      "z": -0.001679879380390048,
      "time_usec": 667918492462
    },
    {
      "x": 0.0019853119738399982,
      "y": -0.001679879380390048,
      "z": -4.5814894838258624E-4,
      "time_usec": 667918494722
    },
    {
      "x": -4.5814894838258624E-4,
      "y": 0.0032070425804704428,
      "z": -0.001679879380390048,
      "time_usec": 667918496969
    },
    {
      "x": 0.0032070425804704428,
      "y": 7.635815418325365E-4,
      "z": -4.5814894838258624E-4,
      "time_usec": 667918499231
    },
    {
      "x": 7.635815418325365E-4,
      "y": 0.0032070425804704428,
      "z": 7.635815418325365E-4,
      "time_usec": 667918501488
    },
    {
      "x": -0.003054326167330146,
      "y": 7.635815418325365E-4,
      "z": -4.5814894838258624E-4,
      "time_usec": 667918503747
    },
    {
      "x": -4.5814894838258624E-4,
      "y": -0.001679879380390048,
      "z": 7.635815418325365E-4,
      "time_usec": 667918506000
    },
    {
      "x": 7.635815418325365E-4,
      "y": -4.5814894838258624E-4,
      "z": 7.635815418325365E-4,
      "time_usec": 667918508262
    },
    {
      "x": -4.5814894838258624E-4,
      "y": -0.001679879380390048,
      "z": -0.0029016099870204926,
      "time_usec": 667918510520
    },
    {
      "x": 0.0019853119738399982,
      "y": 7.635815418325365E-4,
      "z": 7.635815418325365E-4,
      "time_usec": 667918512780
    },
    {
      "x": 7.635815418325365E-4,
      "y": 7.635815418325365E-4,
      "z": -0.001679879380390048,
      "time_usec": 667918515034
    },
    {
      "x": -0.001679879380390048,
      "y": 0.005497787147760391,
      "z": -0.001679879380390048,
      "time_usec": 667918517288
    },
    {
      "x": -0.003054326167330146,
      "y": 7.635815418325365E-4,
      "z": 0.0019853119738399982,
      "time_usec": 667918519550
    },
    {
      "x": -6.108652451075613E-4,
      "y": -0.001679879380390048,
      "z": 0.0019853119738399982,
      "time_usec": 667918521805
    },
    {
      "x": -0.003054326167330146,
      "y": -4.5814894838258624E-4,
      "z": -4.5814894838258624E-4,
      "time_usec": 667918524066
    },
    {
      "x": 7.635815418325365E-4,
      "y": -0.001679879380390048,
      "z": -0.001679879380390048,
      "time_usec": 667918526318
    },
    {
      "x": -4.5814894838258624E-4,
      "y": 0.0019853119738399982,
      "z": -4.5814894838258624E-4,
      "time_usec": 667918528583
    },
    {
      "x": -0.001679879380390048,
      "y": 0.005650503560900688,
      "z": 0.0019853119738399982,
      "time_usec": 667918530840
    },
    {
      "x": -4.5814894838258624E-4,
      "y": 0.0032070425804704428,
      "z": 0.0032070425804704428,
      "time_usec": 667918533097
    },
    {
      "x": -4.5814894838258624E-4,
      "y": 0.004428773187100887,
      "z": -0.001679879380390048,
      "time_usec": 667918535349
    },
    {
      "x": -0.0029016099870204926,
      "y": 0.0019853119738399982,
      "z": 7.635815418325365E-4,
      "time_usec": 667918537612
    },
    {
      "x": -6.108652451075613E-4,
      "y": -0.0039706239476799965,
      "z": 0.0019853119738399982,
      "time_usec": 667918539871
    },
    {
      "x": 0.0032070425804704428,
      "y": -0.0029016099870204926,
      "z": 7.635815418325365E-4,
      "time_usec": 667918542129
    },
    {
      "x": 0.001832595793530345,
      "y": -0.0065668015740811825,
      "z": -4.5814894838258624E-4,
      "time_usec": 667918544384
    },
    {
      "x": 0.005650503560900688,
      "y": 0.003054326167330146,
      "z": 7.635815418325365E-4,
      "time_usec": 667918546637
    },
    {
      "x": 7.635815418325365E-4,
      "y": 0.005497787147760391,
      "z": -4.5814894838258624E-4,
      "time_usec": 667918548897
    },
    {
      "x": -0.0029016099870204926,
      "y": 0.005650503560900688,
      "z": -0.0029016099870204926,
      "time_usec": 667918551158
    },
    {
      "x": -0.003054326167330146,
      "y": 7.635815418325365E-4,
      "z": -4.5814894838258624E-4,
      "time_usec": 667918553416
    },
    {
      "x": 7.635815418325365E-4,
      "y": -0.001679879380390048,
      "z": -4.5814894838258624E-4,
      "time_usec": 667918555666
    },
    {
      "x": 7.635815418325365E-4,
      "y": -0.005345070734620094,
      "z": -0.0029016099870204926,
      "time_usec": 667918557920
    },
    {
      "x": -0.001832595793530345,
      "y": -0.005192354787141085,
      "z": 7.635815418325365E-4,
      "time_usec": 667918560194
    },
    {
      "x": -0.001679879380390048,
      "y": -4.5814894838258624E-4,
      "z": -4.5814894838258624E-4,
      "time_usec": 667918562448
    },
    {
      "x": -4.5814894838258624E-4,
      "y": 0.0032070425804704428,
      "z": -4.5814894838258624E-4,
      "time_usec": 667918564707
    },
    {
      "x": -4.5814894838258624E-4,
      "y": 0.006719517521560192,
      "z": -0.001679879380390048,
      "time_usec": 667918566956
    },
    {
      "x": -0.001679879380390048,
      "y": 0.004428773187100887,
      "z": -0.0029016099870204926,
      "time_usec": 667918569212
    },
    {
      "x": -0.001679879380390048,
      "y": -4.5814894838258624E-4,
      "z": -0.0029016099870204926,
      "time_usec": 667918571478
    },
    {
      "x": -0.001832595793530345,
      "y": -0.007635815534740686,
      "z": -4.5814894838258624E-4,
      "time_usec": 667918573735
    },
    {
      "x": 0.0019853119738399982,
      "y": -0.004123340360820293,
      "z": -0.001679879380390048,
      "time_usec": 667918575990
    },
    {
      "x": 0.004428773187100887,
      "y": -0.001679879380390048,
      "z": 7.635815418325365E-4,
      "time_usec": 667918578250
    },
    {
      "x": 0.0019853119738399982,
      "y": 0.00427605677396059,
      "z": 7.635815418325365E-4,
      "time_usec": 667918580508
    },
    {
      "x": 0.0019853119738399982,
      "y": 0.005497787147760391,
      "z": -4.5814894838258624E-4,
      "time_usec": 667918582768
    },
    {
      "x": 0.0019853119738399982,
      "y": 0.00427605677396059,
      "z": -4.5814894838258624E-4,
      "time_usec": 667918585024
    },
    {
      "x": 0.0019853119738399982,
      "y": -4.5814894838258624E-4,
      "z": -4.5814894838258624E-4,
      "time_usec": 667918587276
    },
    {
      "x": 6.108652451075613E-4,
      "y": -0.005345070734620094,
      "z": -4.5814894838258624E-4,
      "time_usec": 667918589539
    },
    {
      "x": -6.108652451075613E-4,
      "y": -0.005345070734620094,
      "z": -0.001679879380390048,
      "time_usec": 667918591793
    },
    {
      "x": 0.0019853119738399982,
      "y": -0.0029016099870204926,
      "z": 0.0019853119738399982,
      "time_usec": 667918594042
    },
    {
      "x": 7.635815418325365E-4,
      "y": 7.635815418325365E-4,
      "z": 7.635815418325365E-4,
      "time_usec": 667918596307
    },
    {
      "x": -4.5814894838258624E-4,
      "y": 0.0032070425804704428,
      "z": 7.635815418325365E-4,
      "time_usec": 667918598570
    },
    {
      "x": -0.001679879380390048,
      "y": 0.004428773187100887,
      "z": 0.0019853119738399982,
      "time_usec": 667918600831
    },
    {
      "x": -4.5814894838258624E-4,
      "y": 0.0019853119738399982,
      "z": 7.635815418325365E-4,
      "time_usec": 667918603086
    },
    {
      "x": 6.108652451075613E-4,
      "y": -0.0029016099870204926,
      "z": 0.0019853119738399982,
      "time_usec": 667918605337
    },
    {
      "x": 6.108652451075613E-4,
      "y": -0.007635815534740686,
      "z": -0.0029016099870204926,
      "time_usec": 667918607601
    },
    {
      "x": 6.108652451075613E-4,
      "y": -0.007635815534740686,
      "z": -4.5814894838258624E-4,
      "time_usec": 667918609862
    },
    {
      "x": -0.001832595793530345,
      "y": -4.5814894838258624E-4,
      "z": -4.5814894838258624E-4,
      "time_usec": 667918612117
    },
    {
      "x": 7.635815418325365E-4,
      "y": 0.0032070425804704428,
      "z": 0.0019853119738399982,
      "time_usec": 667918614372
    },
    {
      "x": 0.0019853119738399982,
      "y": 0.00427605677396059,
      "z": 7.635815418325365E-4,
      "time_usec": 667918616624
    },
    {
      "x": 7.635815418325365E-4,
      "y": 0.00427605677396059,
      "z": -0.0029016099870204926,
      "time_usec": 667918618885
    },
    {
      "x": 0.0019853119738399982,
      "y": 0.0019853119738399982,
      "z": -0.001679879380390048,
      "time_usec": 667918621145
    },
    {
      "x": 0.001832595793530345,
      "y": -0.0064140851609408855,
      "z": 7.635815418325365E-4,
      "time_usec": 667918623394
    },
    {
      "x": 6.108652451075613E-4,
      "y": -0.008857546374201775,
      "z": 7.635815418325365E-4,
      "time_usec": 667918625656
    },
    {
      "x": 0.0019853119738399982,
      "y": -0.001679879380390048,
      "z": 7.635815418325365E-4,
      "time_usec": 667918627915
    },
    {
      "x": 7.635815418325365E-4,
      "y": 0.0032070425804704428,
      "z": -4.5814894838258624E-4,
      "time_usec": 667918630180
    },
    {
      "x": 7.635815418325365E-4,
      "y": 0.007941247895359993,
      "z": -4.5814894838258624E-4,
      "time_usec": 667918632436
    },
    {
      "x": 7.635815418325365E-4,
      "y": 0.005497787147760391,
      "z": -4.5814894838258624E-4,
      "time_usec": 667918634690
    },
    {
      "x": 7.635815418325365E-4,
      "y": 7.635815418325365E-4,
      "z": -4.5814894838258624E-4,
      "time_usec": 667918636937
    },
    {
      "x": -0.003054326167330146,
      "y": -0.005192354787141085,
      "z": -0.003054326167330146,
      "time_usec": 667918639203
    },
    {
      "x": 6.108652451075613E-4,
      "y": -0.0064140851609408855,
      "z": 7.635815418325365E-4,
      "time_usec": 667918641466
    },
    {
      "x": 0.0019853119738399982,
      "y": -0.001679879380390048,
      "z": 7.635815418325365E-4,
      "time_usec": 667918643725
    },
    {
      "x": 7.635815418325365E-4,
      "y": 7.635815418325365E-4,
      "z": -4.5814894838258624E-4,
      "time_usec": 667918645977
    },
    {
      "x": -0.001679879380390048,
      "y": 0.007941247895359993,
      "z": 7.635815418325365E-4,
      "time_usec": 667918648239
    },
    {
      "x": -0.0029016099870204926,
      "y": 0.006872233934700489,
      "z": 7.635815418325365E-4,
      "time_usec": 667918650497
    },
    {
      "x": 7.635815418325365E-4,
      "y": 0.005497787147760391,
      "z": -4.5814894838258624E-4,
      "time_usec": 667918652755
    },
    {
      "x": 7.635815418325365E-4,
      "y": -0.001679879380390048,
      "z": -4.5814894838258624E-4,
      "time_usec": 667918655011
    },
    {
      "x": 6.108652451075613E-4,
      "y": -0.007635815534740686,
