{
  "accelerations": [
    {
      "x": 9.81117057800293,
      "y": -0.3888336718082428,
      "z": 0.4827519655227661,
      "time_usec": 213849297795
    },
    {
      "x": 9.80219841003418,
      "y": -0.35533416271209717,
      "z": 0.4540380835533142,
      "time_usec": 213849300054
    },
    {
      "x": 9.81236743927002,
      "y": -0.3122633695602417,
      "z": 0.41575294733047485,
      "time_usec": 213849302309
    },
    {
      "x": 9.779465675354004,
      "y": -0.29790642857551575,
      "z": 0.372682124376297,
      "time_usec": 213849304567
    },
    {
      "x": 9.779465675354004,
      "y": -0.26440688967704773,
      "z": 0.3678964674472809,
      "time_usec": 213849306824
    },
    {
      "x": 9.760323524475098,
      "y": -0.2356930375099182,
      "z": 0.3678964674472809,
      "time_usec": 213849309082
    },
    {
      "x": 9.732208251953125,
      "y": -0.2356930375099182,
      "z": 0.372682124376297,
      "time_usec": 213849311340
    },
    {
      "x": 9.731609344482422,
      "y": -0.25004997849464417,
      "z": 0.4007977843284607,
      "time_usec": 213849313596
    },
    {
      "x": 9.726823806762695,
      "y": -0.25423741340637207,
      "z": 0.41515472531318665,
      "time_usec": 213849315848
    },
    {
      "x": 9.741181373596191,
      "y": -0.25423741340637207,
      "z": 0.44386860728263855,
      "time_usec": 213849318113
    },
    {
      "x": 9.759725570678711,
      "y": -0.29312077164649963,
      "z": 0.4534398913383484,
      "time_usec": 213849320368
    },
    {
      "x": 9.754940032958984,
      "y": -0.3314059376716614,
      "z": 0.46779683232307434,
      "time_usec": 213849322622
    },
    {
      "x": 9.759725570678711,
      "y": -0.32662028074264526,
      "z": 0.49651068449020386,
      "time_usec": 213849324885
    },
    {
      "x": 9.754341125488281,
      "y": -0.3696911036968231,
      "z": 0.4821537733078003,
      "time_usec": 213849327143
    },
    {
      "x": 9.76391315460205,
      "y": -0.3840480446815491,
      "z": 0.4821537733078003,
      "time_usec": 213849329400
    },
    {
      "x": 9.759127616882324,
      "y": -0.4127618968486786,
      "z": 0.4492524564266205,
      "time_usec": 213849331647
    },
    {
      "x": 9.773484230041504,
      "y": -0.4127618968486786,
      "z": 0.4540380835533142,
      "time_usec": 213849333916
    },
    {
      "x": 9.787840843200684,
      "y": -0.40319061279296875,
      "z": 0.44446679949760437,
      "time_usec": 213849336175
    },
    {
      "x": 9.783055305480957,
      "y": -0.3840480446815491,
      "z": 0.43489551544189453,
      "time_usec": 213849338434
    },
    {
      "x": 9.80219841003418,
      "y": -0.37926238775253296,
      "z": 0.4540380835533142,
      "time_usec": 213849340689
    },
    {
      "x": 9.787840843200684,
      "y": -0.37926238775253296,
      "z": 0.43489551544189453,
      "time_usec": 213849342946
    },
    {
      "x": 9.79262638092041,
      "y": -0.3840480446815491,
      "z": 0.41096729040145874,
      "time_usec": 213849345205
    },
    {
      "x": 9.806983947753906,
      "y": -0.3936193287372589,
      "z": 0.4205385744571686,
      "time_usec": 213849347462
    },
    {
      "x": 9.783055305480957,
      "y": -0.3936193287372589,
      "z": 0.41096729040145874,
      "time_usec": 213849349719
    },
    {
      "x": 9.806983947753906,
      "y": -0.40797626972198486,
      "z": 0.4253242313861847,
      "time_usec": 213849351977
    },
    {
      "x": 9.821340560913086,
      "y": -0.39421752095222473,
      "z": 0.4061816334724426,
      "time_usec": 213849354232
    },
    {
      "x": 9.830911636352539,
      "y": -0.4085744619369507,
      "z": 0.41575294733047485,
      "time_usec": 213849356476
    },
    {
      "x": 9.81655502319336,
      "y": -0.37926238775253296,
      "z": 0.43489551544189453,
      "time_usec": 213849358739
    },
    {
      "x": 9.845269203186035,
      "y": -0.3655036687850952,
      "z": 0.44446679949760437,
      "time_usec": 213849361003
    },
    {
      "x": 9.826126098632812,
      "y": -0.3696911036968231,
      "z": 0.4588237404823303,
      "time_usec": 213849363254
    },
    {
      "x": 9.835697174072266,
      "y": -0.3798605799674988,
      "z": 0.43968117237091064,
      "time_usec": 213849365515
    },
    {
      "x": 9.826126098632812,
      "y": -0.3696911036968231,
      "z": 0.44446679949760437,
      "time_usec": 213849367777
    },
    {
      "x": 9.835099220275879,
      "y": -0.40378883481025696,
      "z": 0.44446679949760437,
      "time_usec": 213849370031
    },
    {
      "x": 9.845269203186035,
      "y": -0.40378883481025696,
      "z": 0.3966103494167328,
      "time_usec": 213849372298
    },
    {
      "x": 9.830911636352539,
      "y": -0.42293140292167664,
      "z": 0.38225340843200684,
      "time_usec": 213849374552
    },
    {
      "x": 9.835099220275879,
      "y": -0.4468596279621124,
      "z": 0.41575294733047485,
      "time_usec": 213849376809
    },
    {
      "x": 9.844670295715332,
      "y": -0.45643091201782227,
      "z": 0.4013960063457489,
      "time_usec": 213849379055
    },
    {
      "x": 9.830313682556152,
      "y": -0.48035913705825806,
      "z": 0.4061816334724426,
      "time_usec": 213849381324
    },
    {
      "x": 9.81117057800293,
      "y": -0.494716078042984,
      "z": 0.39182472229003906,
      "time_usec": 213849383577
    },
    {
      "x": 9.787840843200684,
      "y": -0.4995017349720001,
      "z": 0.3678964674472809,
      "time_usec": 213849385841
    },
    {
      "x": 9.801599502563477,
      "y": -0.5186443328857422,
      "z": 0.3774677813053131,
      "time_usec": 213849388098
    },
    {
      "x": 9.787840843200684,
      "y": -0.5330012440681458,
      "z": 0.372682124376297,
      "time_usec": 213849390358
    },
    {
      "x": 9.783055305480957,
      "y": -0.5377869009971619,
      "z": 0.33439695835113525,
      "time_usec": 213849392613
    },
    {
      "x": 9.773484230041504,
      "y": -0.5617151260375977,
      "z": 0.3487538993358612,
      "time_usec": 213849394866
    },
    {
      "x": 9.792028427124023,
      "y": -0.5521438121795654,
      "z": 0.35832518339157104,
      "time_usec": 213849397129
    },
    {
      "x": 9.79681396484375,
      "y": -0.5521438121795654,
      "z": 0.3774677813053131,
      "time_usec": 213849399386
    },
    {
      "x": 9.801599502563477,
      "y": -0.5377869009971619,
      "z": 0.39182472229003906,
      "time_usec": 213849401645
    },
    {
      "x": 9.8207426071167,
      "y": -0.542572557926178,
      "z": 0.41575294733047485,
      "time_usec": 213849403900
    },
    {
      "x": 9.815957069396973,
      "y": -0.5282155871391296,
      "z": 0.4253242313861847,
      "time_usec": 213849406155
    },
    {
      "x": 9.8207426071167,
      "y": -0.542572557926178,
      "z": 0.41575294733047485,
      "time_usec": 213849408423
    },
    {
      "x": 9.79681396484375,
      "y": -0.5186443328857422,
      "z": 0.4013960063457489,
      "time_usec": 213849410673
    },
    {
      "x": 9.815957069396973,
      "y": -0.5042873620986938,
      "z": 0.3966103494167328,
      "time_usec": 213849412927
    },
    {
      "x": 9.783055305480957,
      "y": -0.50907301902771,
      "z": 0.38225340843200684,
      "time_usec": 213849415183
    },
    {
      "x": 9.797411918640137,
      "y": -0.4660021960735321,
      "z": 0.3774677813053131,
      "time_usec": 213849417448
    },
    {
      "x": 9.806983947753906,
      "y": -0.45643091201782227,
      "z": 0.39182472229003906,
      "time_usec": 213849419703
    },
    {
      "x": 9.80219841003418,
      "y": -0.45164528489112854,
      "z": 0.39182472229003906,
      "time_usec": 213849421950
    },
    {
      "x": 9.840482711791992,
      "y": -0.42293140292167664,
      "z": 0.4061816334724426,
      "time_usec": 213849424206
    },
    {
      "x": 9.821340560913086,
      "y": -0.4181457459926605,
      "z": 0.41096729040145874,
      "time_usec": 213849426473
    },
    {
      "x": 9.821340560913086,
      "y": -0.39421752095222473,
      "z": 0.43489551544189453,
      "time_usec": 213849428738
    },
    {
      "x": 9.821340560913086,
      "y": -0.389431893825531,
      "z": 0.44446679949760437,
      "time_usec": 213849430993
    },
    {
      "x": 9.840482711791992,
      "y": -0.37507495284080505,
      "z": 0.4301098585128784,
      "time_usec": 213849433240
    },
    {
      "x": 9.845269203186035,
      "y": -0.35114672780036926,
      "z": 0.4588237404823303,
      "time_usec": 213849435503
    },
    {
      "x": 9.840482711791992,
      "y": -0.3367897868156433,
      "z": 0.4492524564266205,
      "time_usec": 213849437766
    },
    {
      "x": 9.830911636352539,
      "y": -0.37028929591178894,
      "z": 0.43968117237091064,
      "time_usec": 213849440026
    },
    {
      "x": 9.830911636352539,
      "y": -0.3415754437446594,
      "z": 0.41096729040145874,
      "time_usec": 213849442281
    },
    {
      "x": 9.850054740905762,
      "y": -0.35114672780036926,
      "z": 0.397208571434021,
      "time_usec": 213849444534
    },
    {
      "x": 9.845269203186035,
      "y": -0.3367897868156433,
      "z": 0.41096729040145874,
      "time_usec": 213849446796
    },
    {
      "x": 9.835697174072266,
      "y": -0.3320041298866272,
      "z": 0.4061816334724426,
      "time_usec": 213849449054
    },
    {
      "x": 9.831509590148926,
      "y": -0.32243284583091736,
      "z": 0.39182472229003906,
      "time_usec": 213849451311
    },
    {
      "x": 9.836296081542969,
      "y": -0.3032902777194977,
      "z": 0.3774677813053131,
      "time_usec": 213849453560
    },
    {
      "x": 9.836296081542969,
      "y": -0.3080759048461914,
      "z": 0.349352091550827,
      "time_usec": 213849455811
    },
    {
      "x": 9.802796363830566,
      "y": -0.3128615617752075,
      "z": 0.35832518339157104,
      "time_usec": 213849458068
    },
    {
      "x": 9.802796363830566,
      "y": -0.3122633695602417,
      "z": 0.38225340843200684,
      "time_usec": 213849460327
    },
    {
      "x": 9.779465675354004,
      "y": -0.29790642857551575,
      "z": 0.38703906536102295,
      "time_usec": 213849462587
    },
    {
      "x": 9.778867721557617,
      "y": -0.3074777126312256,
      "z": 0.4205385744571686,
      "time_usec": 213849464848
    },
    {
      "x": 9.765109062194824,
      "y": -0.3122633695602417,
      "z": 0.41096729040145874,
      "time_usec": 213849467118
    },
    {
      "x": 9.760323524475098,
      "y": -0.3074777126312256,
      "z": 0.4205385744571686,
      "time_usec": 213849469375
    },
    {
      "x": 9.754940032958984,
      "y": -0.3170489966869354,
      "z": 0.44446679949760437,
      "time_usec": 213849471630
    },
    {
      "x": 9.745368003845215,
      "y": -0.32183465361595154,
      "z": 0.44386860728263855,
      "time_usec": 213849473873
    },
    {
      "x": 9.741181373596191,
      "y": -0.2835494875907898,
      "z": 0.44386860728263855,
      "time_usec": 213849476140
    },
    {
      "x": 9.722038269042969,
      "y": -0.3122633695602417,
      "z": 0.44386860728263855,
      "time_usec": 213849478403
    },
    {
      "x": 9.707083702087402,
      "y": -0.32602208852767944,
      "z": 0.49651068449020386,
      "time_usec": 213849480665
    },
    {
      "x": 9.664610862731934,
      "y": -0.3355933725833893,
      "z": 0.49172505736351013,
      "time_usec": 213849482921
    },
    {
      "x": 9.674181938171387,
      "y": -0.3595215976238251,
      "z": 0.49172505736351013,
      "time_usec": 213849485170
    },
    {
      "x": 9.664610862731934,
      "y": -0.3643072545528412,
      "z": 0.4534398913383484,
      "time_usec": 213849487433
    },
    {
      "x": 9.678369522094727,
      "y": -0.373878538608551,
      "z": 0.5533402562141418,
      "time_usec": 213849489690
    },
    {
      "x": 9.664610862731934,
      "y": -0.35473597049713135,
      "z": 0.4247260093688965,
      "time_usec": 213849491942
    },
    {
      "x": 9.701699256896973,
      "y": -0.35473597049713135,
      "z": 0.6107679605484009,
      "time_usec": 213849494190
    },
    {
      "x": 9.717252731323242,
      "y": -0.32183465361595154,
      "z": 0.43908295035362244,
      "time_usec": 213849496451
    },
    {
      "x": 9.692726135253906,
      "y": -0.29730820655822754,
      "z": 0.5635097622871399,
      "time_usec": 213849498720
    },
    {
      "x": 9.674181938171387,
      "y": -0.29730820655822754,
      "z": 0.5676971673965454,
      "time_usec": 213849500967
    },
    {
      "x": 9.669994354248047,
      "y": -0.2877369225025177,
      "z": 0.4486542344093323,
      "time_usec": 213849503224
    },
    {
      "x": 9.664012908935547,
      "y": -0.3116651475429535,
      "z": 0.582054078578949,
      "time_usec": 213849505478
    },
    {
      "x": 9.650253295898438,
      "y": -0.30209386348724365,
      "z": 0.4863412082195282,
      "time_usec": 213849507742
    },
    {
      "x": 9.602995872497559,
      "y": -0.30628129839897156,
      "z": 0.4815555512905121,
      "time_usec": 213849510012
    },
    {
      "x": 9.611968994140625,
      "y": -0.33020952343940735,
      "z": 0.5198407173156738,
      "time_usec": 213849512268
    },
    {
      "x": 9.626923561096191,
      "y": -0.32123643159866333,
      "z": 0.47676992416381836,
      "time_usec": 213849514522
    },
    {
      "x": 9.626923561096191,
      "y": -0.32123643159866333,
      "z": 0.5006981492042542,
      "time_usec": 213849516783
    },
    {
      "x": 9.645467758178711,
      "y": -0.32123643159866333,
      "z": 0.49591249227523804,
      "time_usec": 213849519041
    },
    {
      "x": 9.635896682739258,
      "y": -0.3355933725833893,
      "z": 0.4911268353462219,
      "time_usec": 213849521299
    },
    {
      "x": 9.645467758178711,
      "y": -0.32602208852767944,
      "z": 0.49591249227523804,
      "time_usec": 213849523540
    },
    {
      "x": 9.640682220458984,
      "y": -0.3116651475429535,
      "z": 0.5150550603866577,
      "time_usec": 213849525807
    },
    {
      "x": 9.635896682739258,
      "y": -0.30209386348724365,
      "z": 0.5150550603866577,
      "time_usec": 213849528066
    },
    {
      "x": 9.631111145019531,
      "y": -0.33020952343940735,
      "z": 0.5341976284980774,
      "time_usec": 213849530318
    },
    {
      "x": 9.626325607299805,
      "y": -0.3397808074951172,
      "z": 0.5246263742446899,
      "time_usec": 213849532583
    },
    {
      "x": 9.616754531860352,
      "y": -0.3445664644241333,
      "z": 0.5389832854270935,
      "time_usec": 213849534831
    },
    {
      "x": 9.607182502746582,
      "y": -0.32542386651039124,
      "z": 0.5533402562141418,
      "time_usec": 213849537100
    },
    {
      "x": 9.631111145019531,
      "y": -0.32542386651039124,
      "z": 0.5389832854270935,
      "time_usec": 213849539342
    },
    {
      "x": 9.631111145019531,
      "y": -0.3403790295124054,
      "z": 0.5006981492042542,
      "time_usec": 213849541603
    },
    {
      "x": 9.631111145019531,
      "y": -0.32602208852767944,
      "z": 0.5006981492042542,
      "time_usec": 213849543860
    },
    {
      "x": 9.626923561096191,
      "y": -0.3355933725833893,
      "z": 0.47198426723480225,
      "time_usec": 213849546126
    },
    {
      "x": 9.617352485656738,
      "y": -0.3355933725833893,
      "z": 0.4815555512905121,
      "time_usec": 213849548379
    },
    {
      "x": 9.640682220458984,
      "y": -0.32602208852767944,
      "z": 0.49591249227523804,
      "time_usec": 213849550646
    },
    {
      "x": 9.631111145019531,
      "y": -0.31106695532798767,
      "z": 0.5437689423561096,
      "time_usec": 213849552890
    },
    {
      "x": 9.588638305664062,
      "y": -0.31106695532798767,
      "z": 0.5533402562141418,
      "time_usec": 213849555148
    },
    {
      "x": 9.54078197479248,
      "y": -0.33020952343940735,
      "z": 0.5383850932121277,
      "time_usec": 213849557406
    },
    {
      "x": 9.5264253616333,
      "y": -0.349352091550827,
      "z": 0.5240281820297241,
      "time_usec": 213849559676
    },
    {
      "x": 9.56471061706543,
      "y": -0.349352091550827,
      "z": 0.4911268353462219,
      "time_usec": 213849561922
    },
    {
      "x": 9.583852767944336,
      "y": -0.3206382393836975,
      "z": 0.47198426723480225,
      "time_usec": 213849564181
    },
    {
      "x": 9.583852767944336,
      "y": -0.32542386651039124,
      "z": 0.4576273262500763,
      "time_usec": 213849566444
    },
    {
      "x": 9.622138023376465,
      "y": -0.32542386651039124,
      "z": 0.4863412082195282,
      "time_usec": 213849568698
    },
    {
      "x": 9.617352485656738,
      "y": -0.33080771565437317,
      "z": 0.4624129831790924,
      "time_usec": 213849570967
    },
    {
      "x": 9.621540069580078,
      "y": -0.33499518036842346,
      "z": 0.49591249227523804,
      "time_usec": 213849573217
    },
    {
      "x": 9.612566947937012,
      "y": -0.32542386651039124,
      "z": 0.46719861030578613,
      "time_usec": 213849575479
    },
    {
      "x": 9.602995872497559,
      "y": -0.3206382393836975,
      "z": 0.47676992416381836,
      "time_usec": 213849577741
    },
    {
      "x": 9.56471061706543,
      "y": -0.3397808074951172,
      "z": 0.47198426723480225,
      "time_usec": 213849579993
    },
    {
      "x": 9.45583724975586,
      "y": -0.38703906536102295,
      "z": 0.4426721930503845,
      "time_usec": 213849582238
    },
    {
      "x": 9.745368003845215,
      "y": -0.3074777126312256,
      "z": 0.4821537733078003,
      "time_usec": 213849584497
    },
    {
      "x": 9.626325607299805,
      "y": -0.35473597049713135,
      "z": 0.4863412082195282,
      "time_usec": 213849586768
    },
    {
      "x": 9.493523597717285,
      "y": -0.4013960063457489,
      "z": 0.5000999569892883,
      "time_usec": 213849589029
    },
    {
      "x": 9.621540069580078,
      "y": -0.37866419553756714,
      "z": 0.46719861030578613,
      "time_usec": 213849591286
    },
    {
      "x": 9.659825325012207,
      "y": -0.3643072545528412,
      "z": 0.4582255482673645,
      "time_usec": 213849593539
    },
    {
      "x": 9.574281692504883,
      "y": -0.40677985548973083,
      "z": 0.4576273262500763,
      "time_usec": 213849595793
    },
    {
      "x": 9.588638305664062,
      "y": -0.38763725757598877,
      "z": 0.4289134442806244,
      "time_usec": 213849598056
    },
    {
      "x": 9.650253295898438,
      "y": -0.38344982266426086,
      "z": 0.4582255482673645,
      "time_usec": 213849600313
    },
    {
      "x": 9.626325607299805,
      "y": -0.3930211067199707,
      "z": 0.46719861030578613,
      "time_usec": 213849602571
    },
    {
      "x": 9.602396965026855,
      "y": -0.4169493317604065,
      "z": 0.44327038526535034,
      "time_usec": 213849604823
    },
    {
      "x": 9.66939640045166,
      "y": -0.40259242057800293,
      "z": 0.4534398913383484,
      "time_usec": 213849607087
    },
    {
      "x": 9.668798446655273,
      "y": -0.4169493317604065,
      "z": 0.4821537733078003,
      "time_usec": 213849609344
    },
    {
      "x": 9.664012908935547,
      "y": -0.41216370463371277,
      "z": 0.486939400434494,
      "time_usec": 213849611603
    },
    {
      "x": 9.68794059753418,
      "y": -0.4265206456184387,
      "z": 0.49651068449020386,
      "time_usec": 213849613859
    },
    {
      "x": 9.668798446655273,
      "y": -0.4408775866031647,
      "z": 0.5060819983482361,
      "time_usec": 213849616111
    },
    {
      "x": 9.664012908935547,
      "y": -0.4408775866031647,
      "z": 0.5198407173156738,
      "time_usec": 213849618374
    },
    {
      "x": 9.678369522094727,
      "y": -0.4456632137298584,
      "z": 0.5060819983482361,
      "time_usec": 213849620632
    },
    {
      "x": 9.696913719177246,
      "y": -0.4504488706588745,
      "z": 0.5156532526016235,
      "time_usec": 213849622891
    },
    {
      "x": 9.687342643737793,
      "y": -0.4743770956993103,
      "z": 0.5060819983482361,
      "time_usec": 213849625147
    },
    {
      "x": 9.69212818145752,
      "y": -0.4504488706588745,
      "z": 0.5156532526016235,
      "time_usec": 213849627404
    },
    {
      "x": 9.701699256896973,
      "y": -0.45523449778556824,
      "z": 0.5108676552772522,
      "time_usec": 213849629662
    },
    {
      "x": 9.7064847946167,
      "y": -0.4743770956993103,
      "z": 0.5108676552772522,
      "time_usec": 213849631918
    },
    {
      "x": 9.7064847946167,
      "y": -0.46002015471458435,
      "z": 0.5108676552772522,
      "time_usec": 213849634171
    },
    {
      "x": 9.711270332336426,
      "y": -0.4456632137298584,
      "z": 0.5060819983482361,
      "time_usec": 213849636426
    },
    {
      "x": 9.687342643737793,
      "y": -0.4695914387702942,
      "z": 0.5108676552772522,
      "time_usec": 213849638692
    },
    {
      "x": 9.725627899169922,
      "y": -0.4654040038585663,
      "z": 0.5156532526016235,
      "time_usec": 213849640945
    },
    {
      "x": 9.730413436889648,
      "y": -0.4749752879142761,
      "z": 0.50129634141922,
      "time_usec": 213849643198
    },
    {
      "x": 9.720842361450195,
      "y": -0.4749752879142761,
      "z": 0.5060819983482361,
      "time_usec": 213849645453
    },
    {
      "x": 9.7064847946167,
      "y": -0.45523449778556824,
      "z": 0.5108676552772522,
      "time_usec": 213849647724
    },
    {
      "x": 9.711270332336426,
      "y": -0.46480581164360046,
      "z": 0.5156532526016235,
      "time_usec": 213849649983
    },
    {
      "x": 9.735198974609375,
      "y": -0.45583271980285645,
      "z": 0.49172505736351013,
      "time_usec": 213849652238
    },
    {
      "x": 9.759127616882324,
      "y": -0.45104706287384033,
      "z": 0.4630111753940582,
      "time_usec": 213849654491
    },
    {
      "x": 9.773484230041504,
      "y": -0.45583271980285645,
      "z": 0.43968117237091064,
      "time_usec": 213849656753
    },
    {
      "x": 9.77826976776123,
      "y": -0.4366901218891144,
      "z": 0.44446679949760437,
      "time_usec": 213849659012
    },
    {
      "x": 9.77826976776123,
      "y": -0.4366901218891144,
      "z": 0.4731806814670563,
      "time_usec": 213849661271
    },
    {
      "x": 9.768698692321777,
      "y": -0.43190449476242065,
      "z": 0.4821537733078003,
      "time_usec": 213849663523
    },
    {
      "x": 9.77826976776123,
      "y": -0.4175475537776947,
      "z": 0.5018945336341858,
      "time_usec": 213849665779
    },
    {
      "x": 9.78245735168457,
      "y": -0.42711883783340454,
      "z": 0.5252245664596558,
      "time_usec": 213849668041
    },
    {
      "x": 9.76391315460205,
      "y": -0.40319061279296875,
      "z": 0.5491527915000916,
      "time_usec": 213849670300
    },
    {
      "x": 9.768698692321777,
      "y": -0.40319061279296875,
      "z": 0.5491527915000916,
      "time_usec": 213849672557
    },
    {
      "x": 9.79681396484375,
      "y": -0.4175475537776947,
      "z": 0.5635097622871399,
      "time_usec": 213849674809
    },
    {
      "x": 9.81117057800293,
      "y": -0.42711883783340454,
      "z": 0.5736792087554932,
      "time_usec": 213849677073
    },
    {
      "x": 9.844072341918945,
      "y": -0.4612165689468384,
      "z": 0.5497509837150574,
      "time_usec": 213849679331
    },
    {
      "x": 9.848857879638672,
      "y": -0.4660021960735321,
      "z": 0.5210371017456055,
      "time_usec": 213849681589
    },
    {
      "x": 9.881759643554688,
      "y": -0.4899304509162903,
      "z": 0.5306084156036377,
      "time_usec": 213849683844
    },
    {
      "x": 9.900901794433594,
      "y": -0.5138586759567261,
      "z": 0.5264210104942322,
      "time_usec": 213849686094
    },
    {
      "x": 9.910472869873047,
      "y": -0.50907301902771,
      "z": 0.5312066078186035,
      "time_usec": 213849688347
    },
    {
      "x": 9.900901794433594,
      "y": -0.5234299302101135,
      "z": 0.5497509837150574,
      "time_usec": 213849690618
    },
    {
      "x": 9.900901794433594,
      "y": -0.542572557926178,
      "z": 0.5353940725326538,
      "time_usec": 213849692875
    },
    {
      "x": 9.90568733215332,
      "y": -0.5377869009971619,
      "z": 0.5545366406440735,
      "time_usec": 213849695131
    },
    {
      "x": 9.843474388122559,
      "y": -0.5521438121795654,
      "z": 0.544965386390686,
      "time_usec": 213849697392
    },
    {
      "x": 9.848259925842285,
      "y": -0.5665007829666138,
      "z": 0.5258227586746216,
      "time_usec": 213849699648
    },
    {
      "x": 9.857831001281738,
      "y": -0.5617151260375977,
      "z": 0.511465847492218,
      "time_usec": 213849701907
    },
    {
      "x": 9.872187614440918,
      "y": -0.5521438121795654,
      "z": 0.5162515044212341,
      "time_usec": 213849704157
    },
    {
      "x": 9.843474388122559,
      "y": -0.5617151260375977,
      "z": 0.5401797294616699,
      "time_usec": 213849706418
    },
    {
      "x": 9.853045463562012,
      "y": -0.5760720372200012,
      "z": 0.5306084156036377,
      "time_usec": 213849708682
    },
    {
      "x": 9.867402076721191,
      "y": -0.5712863802909851,
      "z": 0.5306084156036377,
      "time_usec": 213849710932
    },
    {
      "x": 9.853045463562012,
      "y": -0.5712863802909851,
      "z": 0.5162515044212341,
      "time_usec": 213849713190
    },
    {
      "x": 9.896116256713867,
      "y": -0.5904290080070496,
      "z": 0.5072783827781677,
      "time_usec": 213849715446
    },
    {
      "x": 9.820143699645996,
      "y": -0.5952146053314209,
      "z": 0.511465847492218,
      "time_usec": 213849717710
    },
    {
      "x": 9.839286804199219,
      "y": -0.5521438121795654,
      "z": 0.511465847492218,
      "time_usec": 213849719969
    },
    {
      "x": 9.910472869873047,
      "y": -0.5521438121795654,
      "z": 0.4977070987224579,
      "time_usec": 213849722231
    },
    {
      "x": 9.834501266479492,
      "y": -0.5712863802909851,
      "z": 0.5018945336341858,
      "time_usec": 213849724473
    },
    {
      "x": 9.805787086486816,
      "y": -0.5808576941490173,
      "z": 0.44446679949760437,
      "time_usec": 213849726727
    },
    {
      "x": 9.844072341918945,
      "y": -0.5808576941490173,
      "z": 0.4540380835533142,
      "time_usec": 213849728995
    },
    {
      "x": 9.801599502563477,
      "y": -0.5665007829666138,
      "z": 0.43968117237091064,
      "time_usec": 213849731256
    },
    {
      "x": 9.79681396484375,
      "y": -0.5665007829666138,
      "z": 0.41096729040145874,
      "time_usec": 213849733513
    },
    {
      "x": 9.792028427124023,
      "y": -0.5808576941490173,
      "z": 0.4013960063457489,
      "time_usec": 213849735757
    },
    {
      "x": 9.78245735168457,
      "y": -0.600000262260437,
      "z": 0.4061816334724426,
      "time_usec": 213849738028
    },
    {
      "x": 9.787242889404297,
      "y": -0.5904290080070496,
      "z": 0.3966103494167328,
      "time_usec": 213849740285
    },
    {
      "x": 9.787242889404297,
      "y": -0.6047859191894531,
      "z": 0.3966103494167328,
      "time_usec": 213849742545
    },
    {
      "x": 9.758528709411621,
      "y": -0.6281159520149231,
      "z": 0.41096729040145874,
      "time_usec": 213849744795
    },
    {
      "x": 9.763314247131348,
      "y": -0.6137589812278748,
      "z": 0.41575294733047485,
      "time_usec": 213849747058
    },
    {
      "x": 9.763314247131348,
      "y": -0.623330295085907,
      "z": 0.4205385744571686,
      "time_usec": 213849749316
    },
    {
      "x": 9.772287368774414,
      "y": -0.6430711150169373,
      "z": 0.43489551544189453,
      "time_usec": 213849751572
    },
    {
      "x": 9.77707290649414,
      "y": -0.6622136831283569,
      "z": 0.43489551544189453,
      "time_usec": 213849753815
    },
    {
      "x": 9.772287368774414,
      "y": -0.6717849373817444,
      "z": 0.4253242313861847,
      "time_usec": 213849756076
    },
    {
      "x": 9.772287368774414,
      "y": -0.6813562512397766,
      "z": 0.41096729040145874,
      "time_usec": 213849758346
    },
    {
      "x": 9.791430473327637,
      "y": -0.6717849373817444,
      "z": 0.3966103494167328,
      "time_usec": 213849760607
    },
    {
      "x": 9.796216011047363,
      "y": -0.6909275650978088,
      "z": 0.39182472229003906,
      "time_usec": 213849762863
    },
    {
      "x": 9.80100154876709,
      "y": -0.7100701332092285,
      "z": 0.39182472229003906,
      "time_usec": 213849765114
    },
    {
      "x": 9.791430473327637,
      "y": -0.7100701332092285,
      "z": 0.41096729040145874,
      "time_usec": 213849767377
    },
    {
      "x": 9.772287368774414,
      "y": -0.6909275650978088,
      "z": 0.4253242313861847,
      "time_usec": 213849769632
    },
    {
      "x": 9.78664493560791,
      "y": -0.7387840151786804,
      "z": 0.41575294733047485,
      "time_usec": 213849771879
    },
    {
      "x": 9.753145217895508,
      "y": -0.7435696125030518,
      "z": 0.4205385744571686,
      "time_usec": 213849774143
    },
    {
      "x": 9.762716293334961,
      "y": -0.7244270443916321,
      "z": 0.41575294733047485,
      "time_usec": 213849776401
    },
    {
      "x": 9.757930755615234,
      "y": -0.7387840151786804,
      "z": 0.43489551544189453,
      "time_usec": 213849778664
    },
    {
      "x": 9.743574142456055,
      "y": -0.7334001660346985,
      "z": 0.4103690981864929,
      "time_usec": 213849780920
    },
    {
      "x": 9.734002113342285,
      "y": -0.7238288521766663,
      "z": 0.4295116662979126,
      "time_usec": 213849783183
    },
    {
      "x": 9.729216575622559,
      "y": -0.7381857633590698,
      "z": 0.41994038224220276,
      "time_usec": 213849785433
    },
    {
      "x": 9.738788604736328,
      "y": -0.7525427341461182,
      "z": 0.4342973232269287,
      "time_usec": 213849787696
    },
    {
      "x": 9.743574142456055,
      "y": -0.7238288521766663,
      "z": 0.44386860728263855,
      "time_usec": 213849789948
    },
    {
      "x": 9.724431037902832,
      "y": -0.7334001660346985,
      "z": 0.43908295035362244,
      "time_usec": 213849792210
    },
    {
      "x": 9.729216575622559,
      "y": -0.7334001660346985,
      "z": 0.44386860728263855,
      "time_usec": 213849794462
    },
    {
      "x": 9.724431037902832,
      "y": -0.7573283910751343,
      "z": 0.4582255482673645,
      "time_usec": 213849796726
    },
    {
      "x": 9.714859962463379,
      "y": -0.7334001660346985,
      "z": 0.4582255482673645,
      "time_usec": 213849798982
    },
    {
      "x": 9.705886840820312,
      "y": -0.714257538318634,
      "z": 0.4486542344093323,
      "time_usec": 213849801239
    },
    {
      "x": 9.686145782470703,
      "y": -0.7238288521766663,
      "z": 0.47258245944976807,
      "time_usec": 213849803497
    },
    {
      "x": 9.677172660827637,
      "y": -0.714257538318634,
      "z": 0.4773681163787842,
      "time_usec": 213849805752
    },
    {
      "x": 9.69093132019043,
      "y": -0.7190431952476501,
      "z": 0.4821537733078003,
      "time_usec": 213849808011
    },
    {
      "x": 9.691530227661133,
      "y": -0.6999006271362305,
      "z": 0.486939400434494,
      "time_usec": 213849810258
    },
    {
      "x": 9.7005033493042,
      "y": -0.6999006271362305,
      "z": 0.4821537733078003,
      "time_usec": 213849812528
    },
    {
      "x": 9.701101303100586,
      "y": -0.6951149702072144,
      "z": 0.4486542344093323,
      "time_usec": 213849814781
    },
    {
      "x": 9.724431037902832,
      "y": -0.6855437159538269,
      "z": 0.4582255482673645,
      "time_usec": 213849817047
    },
    {
      "x": 9.710672378540039,
      "y": -0.6855437159538269,
      "z": 0.4534398913383484,
      "time_usec": 213849819301
    },
    {
      "x": 9.753145217895508,
      "y": -0.6664010882377625,
      "z": 0.4486542344093323,
      "time_usec": 213849821561
    },
    {
      "x": 9.772287368774414,
      "y": -0.6622136831283569,
      "z": 0.4301098585128784,
      "time_usec": 213849823816
    },
    {
      "x": 9.791430473327637,
      "y": -0.6478567123413086,
      "z": 0.4013960063457489,
      "time_usec": 213849826069
    },
    {
      "x": 9.829715728759766,
      "y": -0.6191428303718567,
      "z": 0.3966103494167328,
      "time_usec": 213849828332
    },
    {
      "x": 9.848857879638672,
      "y": -0.600000262260437,
      "z": 0.39182472229003906,
      "time_usec": 213849830589
    },
    {
      "x": 9.848857879638672,
      "y": -0.5712863802909851,
      "z": 0.4061816334724426,
      "time_usec": 213849832847
    },
    {
      "x": 9.868000984191895,
      "y": -0.5617151260375977,
      "z": 0.4492524564266205,
      "time_usec": 213849835100
    },
    {
      "x": 9.858428955078125,
      "y": -0.5712863802909851,
      "z": 0.44446679949760437,
      "time_usec": 213849837362
    },
    {
      "x": 9.848857879638672,
      "y": -0.5617151260375977,
      "z": 0.43968117237091064,
      "time_usec": 213849839620
    },
    {
      "x": 9.853643417358398,
      "y": -0.5473581552505493,
      "z": 0.4205385744571686,
      "time_usec": 213849841879
    },
    {
      "x": 9.858428955078125,
      "y": -0.5282155871391296,
      "z": 0.4301098585128784,
      "time_usec": 213849844129
    },
    {
      "x": 9.853643417358398,
      "y": -0.5186443328857422,
      "z": 0.4301098585128784,
      "time_usec": 213849846388
    },
    {
      "x": 9.848857879638672,
      "y": -0.542572557926178,
      "z": 0.43968117237091064,
      "time_usec": 213849848651
    },
    {
      "x": 9.815957069396973,
      "y": -0.5377869009971619,
      "z": 0.4588237404823303,
      "time_usec": 213849850912
    },
    {
      "x": 9.787242889404297,
      "y": -0.5659025311470032,
      "z": 0.46839502453804016,
      "time_usec": 213849853166
    },
    {
      "x": 9.763314247131348,
      "y": -0.5706881880760193,
      "z": 0.4588237404823303,
      "time_usec": 213849855418
    },
    {
      "x": 9.734601020812988,
      "y": -0.6041877269744873,
      "z": 0.4486542344093323,
      "time_usec": 213849857679
    },
    {
      "x": 9.720243453979492,
      "y": -0.6089733839035034,
      "z": 0.44386860728263855,
      "time_usec": 213849859934
    },
    {
      "x": 9.715457916259766,
      "y": -0.6376872062683105,
      "z": 0.4486542344093323,
      "time_usec": 213849862197
    },
    {
      "x": 9.691530227661133,
      "y": -0.6424728631973267,
      "z": 0.4534398913383484,
      "time_usec": 213849864449
    },
    {
      "x": 9.686744689941406,
      "y": -0.6616154313087463,
      "z": 0.4821537733078003,
      "time_usec": 213849866712
    },
    {
      "x": 9.644271850585938,
      "y": -0.6562315821647644,
      "z": 0.4863412082195282,
      "time_usec": 213849868966
    },
    {
      "x": 9.620343208312988,
      "y": -0.6658028960227966,
      "z": 0.4911268353462219,
      "time_usec": 213849871216
    },
    {
      "x": 9.625128746032715,
      "y": -0.6418746709823608,
      "z": 0.5006981492042542,
      "time_usec": 213849873481
    },
    {
      "x": 9.624530792236328,
      "y": -0.6610172390937805,
      "z": 0.529412031173706,
      "time_usec": 213849875728
    },
    {
      "x": 9.615557670593262,
      "y": -0.6562315821647644,
      "z": 0.49591249227523804,
      "time_usec": 213849877990
    },
    {
      "x": 9.610772132873535,
      "y": -0.6658028960227966,
      "z": 0.5102694034576416,
      "time_usec": 213849880254
    },
    {
      "x": 9.625128746032715,
      "y": -0.6370890140533447,
      "z": 0.5150550603866577,
      "time_usec": 213849882516
    },
    {
      "x": 9.625128746032715,
      "y": -0.6275177597999573,
      "z": 0.4815555512905121,
      "time_usec": 213849884770
    },
    {
      "x": 9.639486312866211,
      "y": -0.6275177597999573,
      "z": 0.49591249227523804,
      "time_usec": 213849887031
    },
    {
      "x": 9.658628463745117,
      "y": -0.617946445941925,
      "z": 0.5054838061332703,
      "time_usec": 213849889287
    },
    {
      "x": 9.66819953918457,
      "y": -0.6083751320838928,
      "z": 0.50129634141922,
      "time_usec": 213849891546
    },
    {
      "x": 9.681958198547363,
      "y": -0.6131607890129089,
      "z": 0.5108676552772522,
      "time_usec": 213849893802
    },
    {
      "x": 9.719645500183105,
      "y": -0.623330295085907,
      "z": 0.5395814776420593,
      "time_usec": 213849896054
    },
    {
      "x": 9.729216575622559,
      "y": -0.6329016089439392,
      "z": 0.5491527915000916,
      "time_usec": 213849898310
    },
    {
      "x": 9.714859962463379,
      "y": -0.623330295085907,
      "z": 0.5635097622871399,
      "time_usec": 213849900576
    },
    {
      "x": 9.738788604736328,
      "y": -0.6520441770553589,
      "z": 0.5826523303985596,
      "time_usec": 213849902833
    },
    {
      "x": 9.734002113342285,
      "y": -0.6807580590248108,
      "z": 0.5730810165405273,
      "time_usec": 213849905088
    },
    {
      "x": 9.714859962463379,
      "y": -0.7094719409942627,
      "z": 0.5539384484291077,
      "time_usec": 213849907348
    },
    {
      "x": 9.714859962463379,
      "y": -0.7238288521766663,
      "z": 0.5491527915000916,
      "time_usec": 213849909606
    },
    {
      "x": 9.738189697265625,
      "y": -0.7238288521766663,
      "z": 0.534795880317688,
      "time_usec": 213849911864
    },
    {
      "x": 9.757332801818848,
      "y": -0.747757077217102,
      "z": 0.5395814776420593,
      "time_usec": 213849914114
    },
    {
      "x": 9.757332801818848,
      "y": -0.7190431952476501,
      "z": 0.5443671345710754,
      "time_usec": 213849916366
    },
    {
      "x": 9.79083251953125,
      "y": -0.6951149702072144,
      "z": 0.5730810165405273,
      "time_usec": 213849918636
    },
    {
      "x": 9.818947792053223,
      "y": -0.666999340057373,
      "z": 0.6113662123680115,
      "time_usec": 213849920895
    },
    {
      "x": 9.857233047485352,
      "y": -0.6478567123413086,
      "z": 0.6406782865524292,
      "time_usec": 213849923154
    },
    {
      "x": 9.82373332977295,
      "y": -0.6664010882377625,
      "z": 0.6305087804794312,
      "time_usec": 213849925403
    },
    {
      "x": 9.814162254333496,
      "y": -0.6424728631973267,
      "z": 0.6161518096923828,
      "time_usec": 213849927661
    },
    {
      "x": 9.795618057250977,
      "y": -0.6472585201263428,
      "z": 0.592223584651947,
      "time_usec": 213849929920
    },
    {
      "x": 9.748359680175781,
      "y": -0.6424728631973267,
      "z": 0.5443671345710754,
      "time_usec": 213849932182
    },
    {
      "x": 9.714859962463379,
      "y": -0.6424728631973267,
      "z": 0.5252245664596558,
      "time_usec": 213849934430
    },
    {
      "x": 9.710672378540039,
      "y": -0.6376872062683105,
      "z": 0.5060819983482361,
      "time_usec": 213849936697
    },
    {
      "x": 9.681958198547363,
      "y": -0.6131607890129089,
      "z": 0.5204389095306396,
      "time_usec": 213849938951
    },
    {
      "x": 9.681958198547363,
      "y": -0.6275177597999573,
      "z": 0.534795880317688,
      "time_usec": 213849941215
    },
    {
      "x": 9.677172660827637,
      "y": -0.5892325639724731,
      "z": 0.5204389095306396,
      "time_usec": 213849943469
    },
    {
      "x": 9.66819953918457,
      "y": -0.5700899958610535,
      "z": 0.5150550603866577,
      "time_usec": 213849945723
    },
    {
      "x": 9.66819953918457,
      "y": -0.5605186820030212,
      "z": 0.486939400434494,
      "time_usec": 213849947985
    },
    {
      "x": 9.663414001464844,
      "y": -0.5557330846786499,
      "z": 0.5006981492042542,
      "time_usec": 213849950240
    },
    {
      "x": 9.640084266662598,
      "y": -0.5318048596382141,
      "z": 0.4815555512905121,
      "time_usec": 213849952501
    },
    {
      "x": 9.654440879821777,
      "y": -0.527019202709198,
      "z": 0.4630111753940582,
      "time_usec": 213849954753
    },
    {
      "x": 9.620942115783691,
      "y": -0.5126622319221497,
      "z": 0.4576273262500763,
      "time_usec": 213849957017
    },
    {
      "x": 9.635298728942871,
      "y": -0.5078766345977783,
      "z": 0.45284169912338257,
      "time_usec": 213849959273
    },
    {
      "x": 9.640084266662598,
      "y": -0.5030909776687622,
      "z": 0.45284169912338257,
      "time_usec": 213849961531
    },
    {
      "x": 9.64965534210205,
      "y": -0.47916272282600403,
      "z": 0.43908295035362244,
      "time_usec": 213849963782
    },
    {
      "x": 9.659226417541504,
      "y": -0.45523449778556824,
      "z": 0.4582255482673645,
      "time_usec": 213849966040
    },
    {
      "x": 9.68794059753418,
      "y": -0.4456632137298584,
      "z": 0.43908295035362244,
      "time_usec": 213849968298
    },
    {
      "x": 9.716654777526855,
      "y": -0.4654040038585663,
      "z": 0.4486542344093323,
      "time_usec": 213849970562
    },
    {
      "x": 9.735198974609375,
      "y": -0.45104706287384033,
      "z": 0.4534398913383484,
      "time_usec": 213849972819
    },
    {
      "x": 9.754341125488281,
      "y": -0.45583271980285645,
      "z": 0.4486542344093323,
      "time_usec": 213849975073
    },
    {
      "x": 9.76391315460205,
      "y": -0.4654040038585663,
      "z": 0.44446679949760437,
      "time_usec": 213849977334
    },
    {
      "x": 9.787840843200684,
      "y": -0.4414757788181305,
      "z": 0.43968117237091064,
      "time_usec": 213849979592
    },
    {
      "x": 9.77826976776123,
      "y": -0.45583271980285645,
      "z": 0.43968117237091064,
      "time_usec": 213849981850
    },
    {
      "x": 9.815957069396973,
      "y": -0.4660021960735321,
      "z": 0.4540380835533142,
      "time_usec": 213849984102
    },
    {
      "x": 9.830313682556152,
      "y": -0.48514479398727417,
      "z": 0.4731806814670563,
      "time_usec": 213849986361
    },
    {
      "x": 9.8207426071167,
      "y": -0.48514479398727417,
      "z": 0.4588237404823303,
      "time_usec": 213849988622
    },
    {
      "x": 9.820143699645996,
      "y": -0.5186443328857422,
      "z": 0.47796630859375,
      "time_usec": 213849990881
    },
    {
      "x": 9.830313682556152,
      "y": -0.5234299302101135,
      "z": 0.44446679949760437,
      "time_usec": 213849993138
    },
    {
      "x": 9.792028427124023,
      "y": -0.5228317379951477,
      "z": 0.4588237404823303,
      "time_usec": 213849995391
    },
    {
      "x": 9.787242889404297,
      "y": -0.5084748268127441,
      "z": 0.46360939741134644,
      "time_usec": 213849997654
    },
    {
      "x": 9.777671813964844,
      "y": -0.5132604837417603,
      "z": 0.4588237404823303,
      "time_usec": 213849999914
    },
    {
      "x": 9.758528709411621,
      "y": -0.5228317379951477,
      "z": 0.49172505736351013,
      "time_usec": 213850002168
    },
    {
      "x": 9.753743171691895,
      "y": -0.5084748268127441,
      "z": 0.486939400434494,
      "time_usec": 213850004418
    },
    {
      "x": 9.754341125488281,
      "y": -0.4941178858280182,
      "z": 0.4821537733078003,
      "time_usec": 213850006667
    },
    {
      "x": 9.744770050048828,
      "y": -0.5228317379951477,
      "z": 0.47258245944976807,
      "time_usec": 213850008929
    },
    {
      "x": 9.772886276245117,
      "y": -0.4989035129547119,
      "z": 0.46839502453804016,
      "time_usec": 213850011199
    },
    {
      "x": 9.777671813964844,
      "y": -0.4893322288990021,
      "z": 0.4588237404823303,
      "time_usec": 213850013458
    },
    {
      "x": 9.777671813964844,
      "y": -0.4941178858280182,
      "z": 0.46839502453804016,
      "time_usec": 213850015711
    },
    {
      "x": 9.801599502563477,
      "y": -0.48035913705825806,
      "z": 0.44446679949760437,
      "time_usec": 213850017973
    },
    {
      "x": 9.806385040283203,
      "y": -0.4707878530025482,
      "z": 0.43489551544189453,
      "time_usec": 213850020237
    },
    {
      "x": 9.830313682556152,
      "y": -0.47557350993156433,
      "z": 0.4540380835533142,
      "time_usec": 213850022487
    },
    {
      "x": 9.830313682556152,
      "y": -0.4707878530025482,
      "z": 0.4827519655227661,
      "time_usec": 213850024739
    },
    {
      "x": 9.863214492797852,
      "y": -0.5042873620986938,
      "z": 0.4875376224517822,
      "time_usec": 213850026998
    },
    {
      "x": 9.844072341918945,
      "y": -0.5042873620986938,
      "z": 0.47796630859375,
      "time_usec": 213850029254
    },
    {
      "x": 9.834501266479492,
      "y": -0.4995017349720001,
      "z": 0.47796630859375,
      "time_usec": 213850031518
    },
    {
      "x": 9.849455833435059,
      "y": -0.48514479398727417,
      "z": 0.4492524564266205,
      "time_usec": 213850033771
    },
    {
      "x": 9.839884757995605,
      "y": -0.4612165689468384,
      "z": 0.41575294733047485,
      "time_usec": 213850036020
    },
    {
      "x": 9.850054740905762,
      "y": -0.45164528489112854,
      "z": 0.3732803463935852,
      "time_usec": 213850038290
    },
    {
      "x": 9.859625816345215,
      "y": -0.389431893825531,
      "z": 0.33020952343940735,
      "time_usec": 213850040548
    },
    {
      "x": 9.841081619262695,
      "y": -0.3367897868156433,
      "z": 0.30149564146995544,
      "time_usec": 213850042807
    },
    {
      "x": 9.845867156982422,
      "y": -0.3080759048461914,
      "z": 0.30628129839897156,
      "time_usec": 213850045057
    },
    {
      "x": 9.850652694702148,
      "y": -0.28893333673477173,
      "z": 0.31106695532798767,
      "time_usec": 213850047320
    },
    {
      "x": 9.874580383300781,
      "y": -0.28893333673477173,
      "z": 0.3732803463935852,
      "time_usec": 213850049574
    },
    {
      "x": 9.88833999633789,
      "y": -0.31764721870422363,
      "z": 0.4307080805301666,
      "time_usec": 213850051823
    },
    {
      "x": 9.911669731140137,
      "y": -0.34636107087135315,
      "z": 0.49292147159576416,
      "time_usec": 213850054090
    },
    {
      "x": 9.94397258758545,
      "y": -0.40378883481025696,
      "z": 0.5455635786056519,
      "time_usec": 213850056346
    },
    {
      "x": 9.991230964660645,
      "y": -0.4618147611618042,
      "z": 0.5886343717575073,
      "time_usec": 213850058612
    },
    {
      "x": 9.995418548583984,
      "y": -0.5479564070701599,
      "z": 0.6269195079803467,
      "time_usec": 213850060867
    },
    {
      "x": 10.018150329589844,
      "y": -0.6149554252624512,
      "z": 0.6747759580612183,
      "time_usec": 213850063123
    },
    {
      "x": 10.018150329589844,
      "y": -0.6915257573127747,
      "z": 0.6891329288482666,
      "time_usec": 213850065376
    },
    {
      "x": 10.012765884399414,
      "y": -0.7824530005455017,
      "z": 0.7417750358581543,
      "time_usec": 213850067639
    },
    {
      "x": 10.01156997680664,
      "y": -0.8925228714942932,
      "z": 0.7752745151519775,
      "time_usec": 213850069896
    },
    {
      "x": 9.978070259094238,
      "y": -0.9547362327575684,
      "z": 0.8177471160888672,
      "time_usec": 213850072154
    },
    {
      "x": 9.963115692138672,
      "y": -1.0456634759902954,
      "z": 0.8368897438049316,
      "time_usec": 213850074406
    },
    {
      "x": 9.906285285949707,
      "y": -1.0929217338562012,
      "z": 0.8506484627723694,
      "time_usec": 213850076669
    },
    {
      "x": 9.915258407592773,
      "y": -1.155733346939087,
      "z": 0.8458628058433533,
      "time_usec": 213850078923
    },
    {
      "x": 9.910472869873047,
      "y": -1.2035897970199585,
      "z": 0.8315058946609497,
      "time_usec": 213850081185
    },
    {
      "x": 9.924830436706543,
      "y": -1.2083754539489746,
      "z": 0.8081758618354797,
      "time_usec": 213850083440
    },
    {
      "x": 9.920044898986816,
      "y": -1.2323036193847656,
      "z": 0.8177471160888672,
      "time_usec": 213850085697
    },
    {
      "x": 9.943374633789062,
      "y": -1.25144624710083,
      "z": 0.8368897438049316,
      "time_usec": 213850087963
    },
    {
      "x": 9.943374633789062,
      "y": -1.2562319040298462,
      "z": 0.8273184299468994,
      "time_usec": 213850090214
    },
    {
      "x": 9.962516784667969,
      "y": -1.2418749332427979,
      "z": 0.8129615187644958,
      "time_usec": 213850092472
    },
    {
      "x": 9.962516784667969,
      "y": -1.2418749332427979,
      "z": 0.8033902049064636,
      "time_usec": 213850094725
    },
    {
      "x": 9.972088813781738,
      "y": -1.2083754539489746,
      "z": 0.7794619798660278,
      "time_usec": 213850096986
    },
    {
      "x": 9.934999465942383,
      "y": -1.1509476900100708,
      "z": 0.7172485589981079,
      "time_usec": 213850099240
    },
    {
      "x": 9.912267684936523,
      "y": -1.0456634759902954,
      "z": 0.6358926296234131,
      "time_usec": 213850101504
    },
    {
      "x": 9.827920913696289,
      "y": -0.8344969153404236,
      "z": 0.6023930907249451,
      "time_usec": 213850103759
    },
    {
      "x": 9.79083251953125,
      "y": -0.7292127013206482,
      "z": 0.5353940725326538,
      "time_usec": 213850106012
    },
    {
      "x": 9.795618057250977,
      "y": -0.7579265832901001,
      "z": 0.41575294733047485,
      "time_usec": 213850108269
    },
    {
      "x": 9.800403594970703,
      "y": -0.8249256014823914,
      "z": 0.3535395562648773,
      "time_usec": 213850110533
    },
    {
      "x": 9.800403594970703,
      "y": -0.8638089895248413,
      "z": 0.33918261528015137,
      "time_usec": 213850112792
    },
    {
      "x": 9.800403594970703,
      "y": -0.882951557636261,
      "z": 0.3535395562648773,
      "time_usec": 213850115045
    },
    {
      "x": 9.814162254333496,
      "y": -0.8488538265228271,
      "z": 0.41575294733047485,
      "time_usec": 213850117306
    },
    {
      "x": 9.82373332977295,
      "y": -0.8057830333709717,
      "z": 0.4731806814670563,
      "time_usec": 213850119563
    },
    {
      "x": 9.795019149780273,
      "y": -0.753140926361084,
      "z": 0.544965386390686,
      "time_usec": 213850121823
    },
    {
      "x": 9.78126049041748,
      "y": -0.6951149702072144,
      "z": 0.5682953596115112,
      "time_usec": 213850124078
    },
    {
      "x": 9.762118339538574,
      "y": -0.6520441770553589,
      "z": 0.5874379873275757,
      "time_usec": 213850126331
    },
    {
      "x": 9.7669038772583,
      "y": -0.623330295085907,
      "z": 0.592223584651947,
      "time_usec": 213850128594
    },
    {
      "x": 9.762716293334961,
      "y": -0.589830756187439,
      "z": 0.5826523303985596,
      "time_usec": 213850130853
    },
    {
      "x": 9.77707290649414,
      "y": -0.5802595019340515,
      "z": 0.534795880317688,
      "time_usec": 213850133108
    },
    {
      "x": 9.767501831054688,
      "y": -0.5563312768936157,
      "z": 0.5635097622871399,
      "time_usec": 213850135354
    },
    {
      "x": 9.772886276245117,
      "y": -0.5467599630355835,
      "z": 0.5156532526016235,
      "time_usec": 213850137624
    },
    {
      "x": 9.777671813964844,
      "y": -0.5324030518531799,
      "z": 0.5108676552772522,
      "time_usec": 213850139883
    },
    {
      "x": 9.781859397888184,
      "y": -0.537188708782196,
      "z": 0.5204389095306396,
      "time_usec": 213850142142
    },
    {
      "x": 9.80100154876709,
      "y": -0.5324030518531799,
      "z": 0.5018945336341858,
      "time_usec": 213850144392
    },
    {
      "x": 9.839286804199219,
      "y": -0.5234299302101135,
      "z": 0.4827519655227661,
      "time_usec": 213850146657
    },
    {
      "x": 9.834501266479492,
      "y": -0.50907301902771,
      "z": 0.46360939741134644,
      "time_usec": 213850148919
    },
    {
      "x": 9.844072341918945,
      "y": -0.5186443328857422,
      "z": 0.46839502453804016,
      "time_usec": 213850151170
    },
    {
      "x": 9.863214492797852,
      "y": -0.5330012440681458,
      "z": 0.49232324957847595,
      "time_usec": 213850153421
    },
    {
      "x": 9.857831001281738,
      "y": -0.5665007829666138,
      "z": 0.49232324957847595,
      "time_usec": 213850155678
    },
    {
      "x": 9.857831001281738,
      "y": -0.5952146053314209,
      "z": 0.511465847492218,
      "time_usec": 213850157939
    },
    {
      "x": 9.862616539001465,
      "y": -0.6143572330474854,
      "z": 0.5210371017456055,
      "time_usec": 213850160202
    },
    {
      "x": 9.876375198364258,
      "y": -0.6287141442298889,
      "z": 0.5353940725326538,
      "time_usec": 213850162458
    },
    {
      "x": 9.866804122924805,
      "y": -0.6382854580879211,
      "z": 0.5306084156036377,
      "time_usec": 213850164709
    },
    {
      "x": 9.881160736083984,
      "y": -0.6287141442298889,
      "z": 0.5353940725326538,
      "time_usec": 213850166963
    },
    {
      "x": 9.885947227478027,
      "y": -0.6095715761184692,
      "z": 0.5641079545021057,
      "time_usec": 213850169234
    },
    {
      "x": 9.885947227478027,
      "y": -0.5952146053314209,
      "z": 0.5545366406440735,
      "time_usec": 213850171487
    },
    {
      "x": 9.900303840637207,
      "y": -0.6047859191894531,
      "z": 0.5353940725326538,
      "time_usec": 213850173733
    },
    {
      "x": 9.90987491607666,
      "y": -0.5856433510780334,
      "z": 0.5545366406440735,
      "time_usec": 213850175987
    },
    {
      "x": 9.900303840637207,
      "y": -0.5952146053314209,
      "z": 0.5593222975730896,
      "time_usec": 213850178250
    },
    {
      "x": 9.896116256713867,
      "y": -0.5521438121795654,
      "z": 0.5401797294616699,
      "time_usec": 213850180526
    },
    {
      "x": 9.872187614440918,
      "y": -0.5330012440681458,
      "z": 0.5497509837150574,
      "time_usec": 213850182779
    },
    {
      "x": 9.872187614440918,
      "y": -0.5282155871391296,
      "z": 0.5066801905632019,
      "time_usec": 213850185033
    },
    {
      "x": 9.858428955078125,
      "y": -0.50907301902771,
      "z": 0.5018945336341858,
      "time_usec": 213850187291
    },
    {
      "x": 9.863214492797852,
      "y": -0.48035913705825806,
      "z": 0.4875376224517822,
      "time_usec": 213850189549
    },
    {
      "x": 9.844072341918945,
      "y": -0.4995017349720001,
      "z": 0.4875376224517822,
      "time_usec": 213850191808
    },
    {
      "x": 9.863214492797852,
      "y": -0.48514479398727417,
      "z": 0.4875376224517822,
      "time_usec": 213850194064
    },
    {
      "x": 9.882357597351074,
      "y": -0.47557350993156433,
      "z": 0.49232324957847595,
      "time_usec": 213850196318
    },
    {
      "x": 9.896116256713867,
      "y": -0.494716078042984,
      "z": 0.5024927258491516,
      "time_usec": 213850198580
    },
    {
      "x": 9.886545181274414,
      "y": -0.5138586759567261,
      "z": 0.5066801905632019,
      "time_usec": 213850200838
    },
    {
      "x": 9.876974105834961,
      "y": -0.5234299302101135,
      "z": 0.511465847492218,
      "time_usec": 213850203094
    },
    {
      "x": 9.857831001281738,
      "y": -0.5473581552505493,
      "z": 0.511465847492218,
      "time_usec": 213850205341
    },
    {
      "x": 9.857831001281738,
      "y": -0.5521438121795654,
      "z": 0.5162515044212341,
      "time_usec": 213850207615
    },
    {
      "x": 9.843474388122559,
      "y": -0.5856433510780334,
      "z": 0.5162515044212341,
      "time_usec": 213850209868
    },
    {
      "x": 9.809974670410156,
      "y": -0.6239284873008728,
      "z": 0.5066801905632019,
      "time_usec": 213850212129
    },
    {
      "x": 9.79083251953125,
      "y": -0.6574280261993408,
      "z": 0.511465847492218,
      "time_usec": 213850214377
    },
    {
      "x": 9.772287368774414,
      "y": -0.656829833984375,
      "z": 0.5060819983482361,
      "time_usec": 213850216641
    },
    {
      "x": 9.748359680175781,
      "y": -0.6711867451667786,
      "z": 0.49651068449020386,
      "time_usec": 213850218898
    },
    {
      "x": 9.715457916259766,
      "y": -0.6759724020957947,
      "z": 0.46779683232307434,
      "time_usec": 213850221157
    },
    {
      "x": 9.705886840820312,
      "y": -0.6711867451667786,
      "z": 0.47258245944976807,
      "time_usec": 213850223407
    },
    {
      "x": 9.691530227661133,
      "y": -0.6664010882377625,
      "z": 0.44386860728263855,
      "time_usec": 213850225665
    },
    {
      "x": 9.681958198547363,
      "y": -0.656829833984375,
      "z": 0.4342973232269287,
      "time_usec": 213850227924
    },
    {
      "x": 9.67777156829834,
      "y": -0.6424728631973267,
      "z": 0.41515472531318665,
      "time_usec": 213850230188
    },
    {
      "x": 9.67777156829834,
      "y": -0.6137589812278748,
      "z": 0.4007977843284607,
      "time_usec": 213850232444
    },
    {
      "x": 9.64965534210205,
      "y": -0.6083751320838928,
      "z": 0.4007977843284607,
      "time_usec": 213850234699
    },
    {
      "x": 9.659226417541504,
      "y": -0.589830756187439,
      "z": 0.36729827523231506,
      "time_usec": 213850236963
    },
    {
      "x": 9.616754531860352,
      "y": -0.5748756527900696,
      "z": 0.33858439326286316,
      "time_usec": 213850239219
    },
    {
      "x": 9.588040351867676,
      "y": -0.5700899958610535,
      "z": 0.3188436031341553,
      "time_usec": 213850241476
    },
    {
      "x": 9.602396965026855,
      "y": -0.5653043389320374,
      "z": 0.2955136001110077,
      "time_usec": 213850243730
    },
    {
      "x": 9.569496154785156,
      "y": -0.5509474277496338,
      "z": 0.26141586899757385,
      "time_usec": 213850245983
    },
    {
      "x": 9.55513858795166,
      "y": -0.5653043389320374,
      "z": 0.251844584941864,
      "time_usec": 213850248239
    },
    {
      "x": 9.57906723022461,
      "y": -0.5413761138916016,
      "z": 0.23330020904541016,
      "time_usec": 213850250505
    },
    {
      "x": 9.583852767944336,
      "y": -0.5557330846786499,
      "z": 0.24287149310112,
      "time_usec": 213850252762
    },
    {
      "x": 9.588638305664062,
      "y": -0.5509474277496338,
      "z": 0.25244277715682983,
      "time_usec": 213850255018
    },
    {
      "x": 9.607781410217285,
      "y": -0.5748756527900696,
      "z": 0.25244277715682983,
      "time_usec": 213850257279
    },
    {
      "x": 9.626325607299805,
      "y": -0.5850451588630676,
      "z": 0.2715853750705719,
      "time_usec": 213850259536
    },
    {
      "x": 9.616754531860352,
      "y": -0.6137589812278748,
      "z": 0.28594231605529785,
      "time_usec": 213850261791
    },
    {
      "x": 9.625727653503418,
      "y": -0.6520441770553589,
      "z": 0.31465616822242737,
      "time_usec": 213850264036
    },
    {
      "x": 9.601799011230469,
      "y": -0.646660327911377,
      "z": 0.3290131092071533,
      "time_usec": 213850266303
    },
    {
      "x": 9.57787036895752,
      "y": -0.6897311210632324,
      "z": 0.33798620104789734,
      "time_usec": 213850268563
    },
    {
      "x": 9.56889820098877,
      "y": -0.6849454641342163,
      "z": 0.33798620104789734,
      "time_usec": 213850270814
    },
    {
      "x": 9.54496955871582,
      "y": -0.7136593461036682,
      "z": 0.3284149169921875,
      "time_usec": 213850273081
    },
    {
      "x": 9.54915714263916,
      "y": -0.7328019142150879,
      "z": 0.33798620104789734,
      "time_usec": 213850275335
    },
    {
