{
  "frames": [
    {
      "frame_id": 0,
      "sensor_timestamp": 213849691529742,
      "time_usec": 213849691529
    },
    {
      "frame_id": 1,
      "sensor_timestamp": 213849758022662,
      "time_usec": 213849758022
    },
    {
      "frame_id": 2,
      "sensor_timestamp": 213849791269000,
      "time_usec": 213849791269
    },
    {
      "frame_id": 3,
      "sensor_timestamp": 213849824515337,
      "time_usec": 213849824515
    },
    {
      "frame_id": 4,
      "sensor_timestamp": 213849857761920,
      "time_usec": 213849857761
    },
    {
      "frame_id": 5,
      "sensor_timestamp": 213849891008257,
      "time_usec": 213849891008
    },
    {
      "frame_id": 6,
      "sensor_timestamp": 213849924254595,
      "time_usec": 213849924254
    },
    {
      "frame_id": 7,
      "sensor_timestamp": 213849957500933,
      "time_usec": 213849957500
    },
    {
      "frame_id": 8,
      "sensor_timestamp": 213849990747515,
      "time_usec": 213849990747
    },
    {
      "frame_id": 9,
      "sensor_timestamp": 213850023993853,
      "time_usec": 213850023993
    },
    {
      "frame_id": 10,
      "sensor_timestamp": 213850057240191,
      "time_usec": 213850057240
    },
    {
      "frame_id": 11,
      "sensor_timestamp": 213850090486529,
      "time_usec": 213850090486
    },
    {
      "frame_id": 12,
      "sensor_timestamp": 213850123733111,
      "time_usec": 213850123733
    },
    {
      "frame_id": 13,
      "sensor_timestamp": 213850156979449,
      "time_usec": 213850156979
    },
    {
      "frame_id": 14,
      "sensor_timestamp": 213850190225787,
      "time_usec": 213850190225
    },
    {
      "frame_id": 15,
      "sensor_timestamp": 213850223472125,
      "time_usec": 213850223472
    },
    {
      "frame_id": 16,
      "sensor_timestamp": 213850256718707,
      "time_usec": 213850256718
    },
    {
      "frame_id": 17,
      "sensor_timestamp": 213850289965045,
      "time_usec": 213850289965
    },
    {
      "frame_id": 18,
      "sensor_timestamp": 213850323211382,
      "time_usec": 213850323211
    },
    {
      "frame_id": 19,
      "sensor_timestamp": 213850356457720,
      "time_usec": 213850356457
    },
    {
      "frame_id": 20,
      "sensor_timestamp": 213850389704302,
      "time_usec": 213850389704
    },
    {
      "frame_id": 21,
      "sensor_timestamp": 213850422950640,
      "time_usec": 213850422950
    },
    {
      "frame_id": 22,
      "sensor_timestamp": 213850456196978,
      "time_usec": 213850456196
    },
    {
      "frame_id": 23,
      "sensor_timestamp": 213850489443316,
      "time_usec": 213850489443
    },
    {
      "frame_id": 24,
      "sensor_timestamp": 213850522689898,
      "time_usec": 213850522689
    },
    {
      "frame_id": 25,
      "sensor_timestamp": 213850555936236,
      "time_usec": 213850555936
    },
    {
      "frame_id": 26,
      "sensor_timestamp": 213850589182574,
      "time_usec": 213850589182
    },
    {
      "frame_id": 27,
      "sensor_timestamp": 213850622428912,
      "time_usec": 213850622428
    },
    {
      "frame_id": 28,
      "sensor_timestamp": 213850655675494,
      "time_usec": 213850655675
    },
    {
      "frame_id": 29,
      "sensor_timestamp": 213850688921832,
      "time_usec": 213850688921
    },
    {
      "frame_id": 30,
      "sensor_timestamp": 213850722168170,
      "time_usec": 213850722168
    },
    {
      "frame_id": 31,
      "sensor_timestamp": 213850755414507,
      "time_usec": 213850755414
    },
    {
      "frame_id": 32,
      "sensor_timestamp": 213850788660845,
      "time_usec": 213850788660
    },
    {
      "frame_id": 33,
      "sensor_timestamp": 213850821907427,
      "time_usec": 213850821907
    },
    {
      "frame_id": 34,
      "sensor_timestamp": 213850855153765,
      "time_usec": 213850855153
    },
    {
      "frame_id": 35,
      "sensor_timestamp": 213850888400103,
      "time_usec": 213850888400
    },
    {
      "frame_id": 36,
      "sensor_timestamp": 213850921646441,
      "time_usec": 213850921646
    },
    {
      "frame_id": 37,
      "sensor_timestamp": 213850954893023,
      "time_usec": 213850954893
    },
    {
      "frame_id": 38,
      "sensor_timestamp": 213850988139361,
      "time_usec": 213850988139
    },
    {
      "frame_id": 39,
      "sensor_timestamp": 213851021385699,
      "time_usec": 213851021385
    },
    {
      "frame_id": 40,
      "sensor_timestamp": 213851054632037,
      "time_usec": 213851054632
    },
    {
      "frame_id": 41,
      "sensor_timestamp": 213851087878619,
      "time_usec": 213851087878
    },
    {
      "frame_id": 42,
      "sensor_timestamp": 213851121124957,
      "time_usec": 213851121124
    },
    {
      "frame_id": 43,
      "sensor_timestamp": 213851154371295,
      "time_usec": 213851154371
    },
    {
      "frame_id": 44,
      "sensor_timestamp": 213851187617632,
      "time_usec": 213851187617
    },
    {
      "frame_id": 45,
      "sensor_timestamp": 213851220864214,
      "time_usec": 213851220864
    },
    {
      "frame_id": 46,
      "sensor_timestamp": 213851254110552,
      "time_usec": 213851254110
    },
    {
      "frame_id": 47,
      "sensor_timestamp": 213851287356890,
      "time_usec": 213851287356
    },
    {
      "frame_id": 48,
      "sensor_timestamp": 213851320603228,
      "time_usec": 213851320603
    },
    {
      "frame_id": 49,
      "sensor_timestamp": 213851353849810,
      "time_usec": 213851353849
    },
    {
      "frame_id": 50,
      "sensor_timestamp": 213851387096148,
      "time_usec": 213851387096
    },
    {
      "frame_id": 51,
      "sensor_timestamp": 213851420342486,
      "time_usec": 213851420342
    },
    {
      "frame_id": 52,
      "sensor_timestamp": 213851453588824,
      "time_usec": 213851453588
    },
    {
      "frame_id": 53,
      "sensor_timestamp": 213851486835406,
      "time_usec": 213851486835
    },
    {
      "frame_id": 54,
      "sensor_timestamp": 213851520081744,
      "time_usec": 213851520081
    },
    {
      "frame_id": 55,
      "sensor_timestamp": 213851553328082,
      "time_usec": 213851553328
    },
    {
      "frame_id": 56,
      "sensor_timestamp": 213851586574420,
      "time_usec": 213851586574
    },
    {
      "frame_id": 57,
      "sensor_timestamp": 213851619821002,
      "time_usec": 213851619821
    },
    {
      "frame_id": 58,
      "sensor_timestamp": 213851653067339,
      "time_usec": 213851653067
    },
    {
      "frame_id": 59,
      "sensor_timestamp": 213851686313677,
      "time_usec": 213851686313
    },
    {
      "frame_id": 60,
      "sensor_timestamp": 213851719560015,
      "time_usec": 213851719560
    },
    {
      "frame_id": 61,
      "sensor_timestamp": 213851752806597,
      "time_usec": 213851752806
    },
    {
      "frame_id": 62,
      "sensor_timestamp": 213851786052935,
      "time_usec": 213851786052
    },
    {
      "frame_id": 63,
      "sensor_timestamp": 213851819299273,
      "time_usec": 213851819299
    },
    {
      "frame_id": 64,
      "sensor_timestamp": 213851852545611,
      "time_usec": 213851852545
    },
    {
      "frame_id": 65,
      "sensor_timestamp": 213851885791949,
      "time_usec": 213851885791
    },
    {
      "frame_id": 66,
      "sensor_timestamp": 213851919038531,
      "time_usec": 213851919038
    },
    {
      "frame_id": 67,
      "sensor_timestamp": 213851952284869,
      "time_usec": 213851952284
    },
    {
      "frame_id": 68,
      "sensor_timestamp": 213851985531207,
      "time_usec": 213851985531
    },
    {
      "frame_id": 69,
      "sensor_timestamp": 213852018777545,
      "time_usec": 213852018777
    },
    {
      "frame_id": 70,
      "sensor_timestamp": 213852052024127,
      "time_usec": 213852052024
    },
    {
      "frame_id": 71,
      "sensor_timestamp": 213852085270464,
      "time_usec": 213852085270
    },
    {
      "frame_id": 72,
      "sensor_timestamp": 213852118516802,
      "time_usec": 213852118516
    },
    {
      "frame_id": 73,
      "sensor_timestamp": 213852151763140,
      "time_usec": 213852151763
    },
    {
      "frame_id": 74,
      "sensor_timestamp": 213852185009722,
      "time_usec": 213852185009
    },
    {
      "frame_id": 75,
      "sensor_timestamp": 213852218256060,
      "time_usec": 213852218256
    },
    {
      "frame_id": 76,
      "sensor_timestamp": 213852251502398,
      "time_usec": 213852251502
    },
    {
      "frame_id": 77,
      "sensor_timestamp": 213852284748736,
      "time_usec": 213852284748
    },
    {
      "frame_id": 78,
      "sensor_timestamp": 213852317995318,
      "time_usec": 213852317995
    },
    {
      "frame_id": 79,
      "sensor_timestamp": 213852351241656,
      "time_usec": 213852351241
    },
    {
      "frame_id": 80,
      "sensor_timestamp": 213852384487994,
      "time_usec": 213852384487
    },
    {
      "frame_id": 81,
      "sensor_timestamp": 213852417734332,
      "time_usec": 213852417734
    },
    {
      "frame_id": 82,
      "sensor_timestamp": 213852450980914,
      "time_usec": 213852450980
    },
    {
      "frame_id": 83,
      "sensor_timestamp": 213852484227252,
      "time_usec": 213852484227
    },
    {
      "frame_id": 84,
      "sensor_timestamp": 213852517473589,
      "time_usec": 213852517473
    },
    {
      "frame_id": 85,
      "sensor_timestamp": 213852550719927,
      "time_usec": 213852550719
    },
    {
      "frame_id": 86,
      "sensor_timestamp": 213852583966509,
      "time_usec": 213852583966
    },
    {
      "frame_id": 87,
      "sensor_timestamp": 213852617212847,
      "time_usec": 213852617212
    },
    {
      "frame_id": 88,
      "sensor_timestamp": 213852650459185,
      "time_usec": 213852650459
    },
    {
      "frame_id": 89,
      "sensor_timestamp": 213852683705523,
      "time_usec": 213852683705
    },
    {
      "frame_id": 90,
      "sensor_timestamp": 213852716952105,
      "time_usec": 213852716952
    },
    {
      "frame_id": 91,
      "sensor_timestamp": 213852750198443,
      "time_usec": 213852750198
    },
    {
      "frame_id": 92,
      "sensor_timestamp": 213852783444781,
      "time_usec": 213852783444
    },
    {
      "frame_id": 93,
      "sensor_timestamp": 213852816691119,
      "time_usec": 213852816691
    },
    {
      "frame_id": 94,
      "sensor_timestamp": 213852849937701,
      "time_usec": 213852849937
    },
    {
      "frame_id": 95,
      "sensor_timestamp": 213852883184039,
      "time_usec": 213852883184
    },
    {
      "frame_id": 96,
      "sensor_timestamp": 213852916430377,
      "time_usec": 213852916430
    },
    {
      "frame_id": 97,
      "sensor_timestamp": 213852949676714,
      "time_usec": 213852949676
    },
    {
      "frame_id": 98,
      "sensor_timestamp": 213852982923296,
      "time_usec": 213852982923
    },
    {
      "frame_id": 99,
      "sensor_timestamp": 213853016169634,
      "time_usec": 213853016169
    },
    {
      "frame_id": 100,
      "sensor_timestamp": 213853049415972,
      "time_usec": 213853049415
    },
    {
      "frame_id": 101,
      "sensor_timestamp": 213853082662310,
      "time_usec": 213853082662
    },
    {
      "frame_id": 102,
      "sensor_timestamp": 213853115908648,
      "time_usec": 213853115908
    },
    {
      "frame_id": 103,
      "sensor_timestamp": 213853149155230,
      "time_usec": 213853149155
    },
    {
      "frame_id": 104,
      "sensor_timestamp": 213853182401568,
      "time_usec": 213853182401
    },
    {
      "frame_id": 105,
      "sensor_timestamp": 213853215647906,
      "time_usec": 213853215647
    },
    {
      "frame_id": 106,
      "sensor_timestamp": 213853248894244,
      "time_usec": 213853248894
    },
    {
      "frame_id": 107,
      "sensor_timestamp": 213853282140826,
      "time_usec": 213853282140
    },
    {
      "frame_id": 108,
      "sensor_timestamp": 213853315387164,
      "time_usec": 213853315387
    },
    {
      "frame_id": 109,
      "sensor_timestamp": 213853348633502,
      "time_usec": 213853348633
    },
    {
      "frame_id": 110,
      "sensor_timestamp": 213853381879839,
      "time_usec": 213853381879
    },
    {
      "frame_id": 111,
      "sensor_timestamp": 213853415126421,
      "time_usec": 213853415126
    },
    {
      "frame_id": 112,
      "sensor_timestamp": 213853448372759,
      "time_usec": 213853448372
    },
    {
      "frame_id": 113,
      "sensor_timestamp": 213853481619097,
      "time_usec": 213853481619
    },
    {
      "frame_id": 114,
      "sensor_timestamp": 213853514865435,
      "time_usec": 213853514865
    },
    {
      "frame_id": 115,
      "sensor_timestamp": 213853548112017,
      "time_usec": 213853548112
    },
    {
      "frame_id": 116,
      "sensor_timestamp": 213853581358355,
      "time_usec": 213853581358
    },
    {
      "frame_id": 117,
      "sensor_timestamp": 213853614604693,
      "time_usec": 213853614604
    },
    {
      "frame_id": 118,
      "sensor_timestamp": 213853647851031,
      "time_usec": 213853647851
    },
    {
      "frame_id": 119,
      "sensor_timestamp": 213853681097613,
      "time_usec": 213853681097
    },
    {
      "frame_id": 120,
      "sensor_timestamp": 213853714343951,
      "time_usec": 213853714343
    },
    {
      "frame_id": 121,
      "sensor_timestamp": 213853747590289,
      "time_usec": 213853747590
    },
    {
      "frame_id": 122,
      "sensor_timestamp": 213853780836627,
      "time_usec": 213853780836
    },
    {
      "frame_id": 123,
      "sensor_timestamp": 213853814083209,
      "time_usec": 213853814083
    },
    {
      "frame_id": 124,
      "sensor_timestamp": 213853847329546,
      "time_usec": 213853847329
    },
    {
      "frame_id": 125,
      "sensor_timestamp": 213853880575884,
      "time_usec": 213853880575
    },
    {
      "frame_id": 126,
      "sensor_timestamp": 213853913822222,
      "time_usec": 213853913822
    },
    {
      "frame_id": 127,
      "sensor_timestamp": 213853947068804,
      "time_usec": 213853947068
    },
    {
      "frame_id": 128,
      "sensor_timestamp": 213853980315142,
      "time_usec": 213853980315
    },
    {
      "frame_id": 129,
      "sensor_timestamp": 213854013561480,
      "time_usec": 213854013561
    },
    {
      "frame_id": 130,
      "sensor_timestamp": 213854046807818,
      "time_usec": 213854046807
    },
    {
      "frame_id": 131,
      "sensor_timestamp": 213854080054400,
      "time_usec": 213854080054
    },
    {
      "frame_id": 132,
      "sensor_timestamp": 213854113300738,
      "time_usec": 213854113300
    },
    {
      "frame_id": 133,
      "sensor_timestamp": 213854146547076,
      "time_usec": 213854146547
    },
    {
      "frame_id": 134,
      "sensor_timestamp": 213854179793414,
      "time_usec": 213854179793
    },
    {
      "frame_id": 135,
      "sensor_timestamp": 213854213039996,
      "time_usec": 213854213039
    },
    {
      "frame_id": 136,
      "sensor_timestamp": 213854246286334,
      "time_usec": 213854246286
    },
    {
      "frame_id": 137,
      "sensor_timestamp": 213854279532671,
      "time_usec": 213854279532
    },
    {
      "frame_id": 138,
      "sensor_timestamp": 213854312779009,
      "time_usec": 213854312779
    },
    {
      "frame_id": 139,
      "sensor_timestamp": 213854346025347,
      "time_usec": 213854346025
    },
    {
      "frame_id": 140,
      "sensor_timestamp": 213854379271929,
      "time_usec": 213854379271
    },
    {
      "frame_id": 141,
      "sensor_timestamp": 213854412518267,
      "time_usec": 213854412518
    },
    {
      "frame_id": 142,
      "sensor_timestamp": 213854445764605,
      "time_usec": 213854445764
    },
    {
      "frame_id": 143,
      "sensor_timestamp": 213854479010943,
      "time_usec": 213854479010
    },
    {
      "frame_id": 144,
      "sensor_timestamp": 213854512257525,
      "time_usec": 213854512257
    },
    {
      "frame_id": 145,
      "sensor_timestamp": 213854545503863,
      "time_usec": 213854545503
    },
    {
      "frame_id": 146,
      "sensor_timestamp": 213854578750201,
      "time_usec": 213854578750
    },
    {
      "frame_id": 147,
      "sensor_timestamp": 213854611996539,
      "time_usec": 213854611996
    },
    {
      "frame_id": 148,
      "sensor_timestamp": 213854645243121,
      "time_usec": 213854645243
    },
    {
      "frame_id": 149,
      "sensor_timestamp": 213854678489459,
      "time_usec": 213854678489
    },
    {
      "frame_id": 150,
      "sensor_timestamp": 213854711735796,
      "time_usec": 213854711735
    },
    {
      "frame_id": 151,
      "sensor_timestamp": 213854744982134,
      "time_usec": 213854744982
    },
    {
      "frame_id": 152,
      "sensor_timestamp": 213854778228716,
      "time_usec": 213854778228
    },
    {
      "frame_id": 153,
      "sensor_timestamp": 213854811475054,
      "time_usec": 213854811475
    },
    {
      "frame_id": 154,
      "sensor_timestamp": 213854844721392,
      "time_usec": 213854844721
    },
    {
      "frame_id": 155,
      "sensor_timestamp": 213854877967730,
      "time_usec": 213854877967
    },
    {
      "frame_id": 156,
      "sensor_timestamp": 213854911214312,
      "time_usec": 213854911214
    },
    {
      "frame_id": 157,
      "sensor_timestamp": 213854944460650,
      "time_usec": 213854944460
    },
    {
      "frame_id": 158,
      "sensor_timestamp": 213854977706988,
      "time_usec": 213854977706
    },
    {
      "frame_id": 159,
      "sensor_timestamp": 213855010953326,
      "time_usec": 213855010953
    },
    {
      "frame_id": 160,
      "sensor_timestamp": 213855044199908,
      "time_usec": 213855044199
    },
    {
      "frame_id": 161,
      "sensor_timestamp": 213855077446246,
      "time_usec": 213855077446
    },
    {
      "frame_id": 162,
      "sensor_timestamp": 213855110692584,
      "time_usec": 213855110692
    },
    {
      "frame_id": 163,
      "sensor_timestamp": 213855143938921,
      "time_usec": 213855143938
    },
    {
      "frame_id": 164,
      "sensor_timestamp": 213855177185504,
      "time_usec": 213855177185
    },
    {
      "frame_id": 165,
      "sensor_timestamp": 213855210431841,
      "time_usec": 213855210431
    },
    {
      "frame_id": 166,
      "sensor_timestamp": 213855243678179,
      "time_usec": 213855243678
    },
    {
      "frame_id": 167,
      "sensor_timestamp": 213855276924517,
      "time_usec": 213855276924
    },
    {
      "frame_id": 168,
      "sensor_timestamp": 213855310171099,
      "time_usec": 213855310171
    },
    {
      "frame_id": 169,
      "sensor_timestamp": 213855343417437,
      "time_usec": 213855343417
    },
    {
      "frame_id": 170,
      "sensor_timestamp": 213855376663775,
      "time_usec": 213855376663
    },
    {
      "frame_id": 171,
      "sensor_timestamp": 213855409910113,
      "time_usec": 213855409910
    },
    {
      "frame_id": 172,
      "sensor_timestamp": 213855443156695,
      "time_usec": 213855443156
    },
    {
      "frame_id": 173,
      "sensor_timestamp": 213855476403033,
      "time_usec": 213855476403
    },
    {
      "frame_id": 174,
      "sensor_timestamp": 213855509649371,
      "time_usec": 213855509649
    },
    {
      "frame_id": 175,
      "sensor_timestamp": 213855542895709,
      "time_usec": 213855542895
    },
    {
      "frame_id": 176,
      "sensor_timestamp": 213855576142046,
      "time_usec": 213855576142
    },
    {
      "frame_id": 177,
      "sensor_timestamp": 213855609388629,
      "time_usec": 213855609388
    },
    {
      "frame_id": 178,
      "sensor_timestamp": 213855642634966,
      "time_usec": 213855642634
    },
    {
      "frame_id": 179,
      "sensor_timestamp": 213855675881304,
      "time_usec": 213855675881
    },
    {
      "frame_id": 180,
      "sensor_timestamp": 213855709127642,
      "time_usec": 213855709127
    },
    {
      "frame_id": 181,
      "sensor_timestamp": 213855742374224,
      "time_usec": 213855742374
    },
    {
      "frame_id": 182,
      "sensor_timestamp": 213855775620562,
      "time_usec": 213855775620
    },
    {
      "frame_id": 183,
      "sensor_timestamp": 213855808866900,
      "time_usec": 213855808866
    },
    {
      "frame_id": 184,
      "sensor_timestamp": 213855842113238,
      "time_usec": 213855842113
    },
    {
      "frame_id": 185,
      "sensor_timestamp": 213855875359820,
      "time_usec": 213855875359
    },
    {
      "frame_id": 186,
      "sensor_timestamp": 213855908606158,
      "time_usec": 213855908606
    },
    {
      "frame_id": 187,
      "sensor_timestamp": 213855941852496,
      "time_usec": 213855941852
    },
    {
      "frame_id": 188,
      "sensor_timestamp": 213855975098834,
      "time_usec": 213855975098
    },
    {
      "frame_id": 189,
      "sensor_timestamp": 213856008345416,
      "time_usec": 213856008345
    },
    {
      "frame_id": 190,
      "sensor_timestamp": 213856041591754,
      "time_usec": 213856041591
    },
    {
      "frame_id": 191,
      "sensor_timestamp": 213856074838091,
      "time_usec": 213856074838
    },
    {
      "frame_id": 192,
      "sensor_timestamp": 213856108084429,
      "time_usec": 213856108084
    },
    {
      "frame_id": 193,
      "sensor_timestamp": 213856141331011,
      "time_usec": 213856141331
    },
    {
      "frame_id": 194,
      "sensor_timestamp": 213856174577349,
      "time_usec": 213856174577
    },
    {
      "frame_id": 195,
      "sensor_timestamp": 213856207823687,
      "time_usec": 213856207823
    },
    {
      "frame_id": 196,
      "sensor_timestamp": 213856241070025,
      "time_usec": 213856241070
    },
    {
      "frame_id": 197,
      "sensor_timestamp": 213856274316607,
      "time_usec": 213856274316
    },
    {
      "frame_id": 198,
      "sensor_timestamp": 213856307562945,
      "time_usec": 213856307562
    },
    {
      "frame_id": 199,
      "sensor_timestamp": 213856340809283,
      "time_usec": 213856340809
    },
    {
      "frame_id": 200,
      "sensor_timestamp": 213856374055621,
      "time_usec": 213856374055
    },
    {
      "frame_id": 201,
      "sensor_timestamp": 213856407302203,
      "time_usec": 213856407302
    },
    {
      "frame_id": 202,
      "sensor_timestamp": 213856440548541,
      "time_usec": 213856440548
    },
    {
      "frame_id": 203,
      "sensor_timestamp": 213856473794879,
      "time_usec": 213856473794
    },
    {
      "frame_id": 204,
      "sensor_timestamp": 213856507041216,
      "time_usec": 213856507041
    },
    {
      "frame_id": 205,
      "sensor_timestamp": 213856540287798,
      "time_usec": 213856540287
    },
    {
      "frame_id": 206,
      "sensor_timestamp": 213856573534136,
      "time_usec": 213856573534
    },
    {
      "frame_id": 207,
      "sensor_timestamp": 213856606780474,
      "time_usec": 213856606780
    },
    {
      "frame_id": 208,
      "sensor_timestamp": 213856640026812,
      "time_usec": 213856640026
    },
    {
      "frame_id": 209,
      "sensor_timestamp": 213856673273394,
      "time_usec": 213856673273
    },
    {
      "frame_id": 210,
      "sensor_timestamp": 213856706519732,
      "time_usec": 213856706519
    },
    {
      "frame_id": 211,
      "sensor_timestamp": 213856739766070,
      "time_usec": 213856739766
    },
    {
      "frame_id": 212,
      "sensor_timestamp": 213856773012408,
      "time_usec": 213856773012
    },
    {
      "frame_id": 213,
      "sensor_timestamp": 213856806258746,
      "time_usec": 213856806258
    },
    {
      "frame_id": 214,
      "sensor_timestamp": 213856839505328,
      "time_usec": 213856839505
    },
    {
      "frame_id": 215,
      "sensor_timestamp": 213856872751666,
      "time_usec": 213856872751
    },
    {
      "frame_id": 216,
      "sensor_timestamp": 213856905998004,
      "time_usec": 213856905998
    },
    {
      "frame_id": 217,
      "sensor_timestamp": 213856939244341,
      "time_usec": 213856939244
    },
    {
      "frame_id": 218,
      "sensor_timestamp": 213856972490923,
      "time_usec": 213856972490
    },
    {
      "frame_id": 219,
      "sensor_timestamp": 213857005737261,
      "time_usec": 213857005737
    },
    {
      "frame_id": 220,
      "sensor_timestamp": 213857038983599,
      "time_usec": 213857038983
    },
    {
      "frame_id": 221,
      "sensor_timestamp": 213857072229937,
      "time_usec": 213857072229
    },
    {
      "frame_id": 222,
      "sensor_timestamp": 213857105476519,
      "time_usec": 213857105476
    },
    {
      "frame_id": 223,
      "sensor_timestamp": 213857138722857,
      "time_usec": 213857138722
    },
    {
      "frame_id": 224,
      "sensor_timestamp": 213857171969195,
      "time_usec": 213857171969
    },
    {
      "frame_id": 225,
      "sensor_timestamp": 213857205215533,
      "time_usec": 213857205215
    },
    {
      "frame_id": 226,
      "sensor_timestamp": 213857238462115,
      "time_usec": 213857238462
    },
    {
      "frame_id": 227,
      "sensor_timestamp": 213857271708453,
      "time_usec": 213857271708
    },
    {
      "frame_id": 228,
      "sensor_timestamp": 213857304954791,
      "time_usec": 213857304954
    },
    {
      "frame_id": 229,
      "sensor_timestamp": 213857338201129,
      "time_usec": 213857338201
    },
    {
      "frame_id": 230,
      "sensor_timestamp": 213857371447711,
      "time_usec": 213857371447
    },
    {
      "frame_id": 231,
      "sensor_timestamp": 213857404694048,
      "time_usec": 213857404694
    },
    {
      "frame_id": 232,
      "sensor_timestamp": 213857437940386,
      "time_usec": 213857437940
    },
    {
      "frame_id": 233,
      "sensor_timestamp": 213857471186724,
      "time_usec": 213857471186
    },
    {
      "frame_id": 234,
      "sensor_timestamp": 213857504433306,
      "time_usec": 213857504433
    },
    {
      "frame_id": 235,
      "sensor_timestamp": 213857537679644,
      "time_usec": 213857537679
    },
    {
      "frame_id": 236,
      "sensor_timestamp": 213857570925982,
      "time_usec": 213857570925
    },
    {
      "frame_id": 237,
      "sensor_timestamp": 213857604172320,
      "time_usec": 213857604172
    },
    {
      "frame_id": 238,
      "sensor_timestamp": 213857637418902,
      "time_usec": 213857637418
    },
    {
      "frame_id": 239,
      "sensor_timestamp": 213857670665240,
      "time_usec": 213857670665
    },
    {
      "frame_id": 240,
      "sensor_timestamp": 213857703911578,
      "time_usec": 213857703911
    },
    {
      "frame_id": 241,
      "sensor_timestamp": 213857737157916,
      "time_usec": 213857737157
    },
    {
      "frame_id": 242,
      "sensor_timestamp": 213857770404498,
      "time_usec": 213857770404
    },
    {
      "frame_id": 243,
      "sensor_timestamp": 213857803650836,
      "time_usec": 213857803650
    },
    {
      "frame_id": 244,
      "sensor_timestamp": 213857836897173,
      "time_usec": 213857836897
    },
    {
      "frame_id": 245,
      "sensor_timestamp": 213857870143511,
      "time_usec": 213857870143
    },
    {
      "frame_id": 246,
      "sensor_timestamp": 213857903390093,
      "time_usec": 213857903390
    },
    {
      "frame_id": 247,
      "sensor_timestamp": 213857936636431,
      "time_usec": 213857936636
    },
    {
      "frame_id": 248,
      "sensor_timestamp": 213857969882769,
      "time_usec": 213857969882
    },
    {
      "frame_id": 249,
      "sensor_timestamp": 213858003129107,
      "time_usec": 213858003129
    },
    {
      "frame_id": 250,
      "sensor_timestamp": 213858036375445,
      "time_usec": 213858036375
    },
    {
      "frame_id": 251,
      "sensor_timestamp": 213858069622027,
      "time_usec": 213858069622
    },
    {
      "frame_id": 252,
      "sensor_timestamp": 213858102868365,
      "time_usec": 213858102868
    },
    {
      "frame_id": 253,
      "sensor_timestamp": 213858136114703,
      "time_usec": 213858136114
    },
    {
      "frame_id": 254,
      "sensor_timestamp": 213858169361041,
      "time_usec": 213858169361
    },
    {
      "frame_id": 255,
      "sensor_timestamp": 213858202607623,
      "time_usec": 213858202607
    },
    {
      "frame_id": 256,
      "sensor_timestamp": 213858235853961,
      "time_usec": 213858235853
    },
    {
      "frame_id": 257,
      "sensor_timestamp": 213858269100298,
      "time_usec": 213858269100
    },
    {
      "frame_id": 258,
      "sensor_timestamp": 213858302346636,
      "time_usec": 213858302346
    },
    {
      "frame_id": 259,
      "sensor_timestamp": 213858335593218,
      "time_usec": 213858335593
    },
    {
      "frame_id": 260,
      "sensor_timestamp": 213858368839556,
      "time_usec": 213858368839
    },
    {
      "frame_id": 261,
      "sensor_timestamp": 213858402085894,
      "time_usec": 213858402085
    },
    {
      "frame_id": 262,
      "sensor_timestamp": 213858435332232,
      "time_usec": 213858435332
    },
    {
      "frame_id": 263,
      "sensor_timestamp": 213858468578814,
      "time_usec": 213858468578
    },
    {
      "frame_id": 264,
      "sensor_timestamp": 213858501825152,
      "time_usec": 213858501825
    },
    {
      "frame_id": 265,
      "sensor_timestamp": 213858535071490,
      "time_usec": 213858535071
    },
    {
      "frame_id": 266,
      "sensor_timestamp": 213858568317828,
      "time_usec": 213858568317
    },
    {
      "frame_id": 267,
      "sensor_timestamp": 213858601564410,
      "time_usec": 213858601564
    },
    {
      "frame_id": 268,
      "sensor_timestamp": 213858634810748,
      "time_usec": 213858634810
    },
    {
      "frame_id": 269,
      "sensor_timestamp": 213858668057086,
      "time_usec": 213858668057
    },
    {
      "frame_id": 270,
      "sensor_timestamp": 213858701303423,
      "time_usec": 213858701303
    },
    {
      "frame_id": 271,
      "sensor_timestamp": 213858734550005,
      "time_usec": 213858734550
    },
    {
      "frame_id": 272,
      "sensor_timestamp": 213858767796343,
      "time_usec": 213858767796
    },
    {
      "frame_id": 273,
      "sensor_timestamp": 213858801042681,
      "time_usec": 213858801042
    },
    {
      "frame_id": 274,
      "sensor_timestamp": 213858834289019,
      "time_usec": 213858834289
    },
    {
      "frame_id": 275,
      "sensor_timestamp": 213858867535601,
      "time_usec": 213858867535
    },
    {
      "frame_id": 276,
      "sensor_timestamp": 213858900781939,
      "time_usec": 213858900781
    },
    {
      "frame_id": 277,
      "sensor_timestamp": 213858934028277,
      "time_usec": 213858934028
    },
    {
      "frame_id": 278,
      "sensor_timestamp": 213858967274615,
      "time_usec": 213858967274
    },
    {
      "frame_id": 279,
      "sensor_timestamp": 213859000521197,
      "time_usec": 213859000521
    },
    {
      "frame_id": 280,
      "sensor_timestamp": 213859033767535,
      "time_usec": 213859033767
    },
    {
      "frame_id": 281,
      "sensor_timestamp": 213859067013873,
      "time_usec": 213859067013
    },
    {
      "frame_id": 282,
      "sensor_timestamp": 213859100260211,
      "time_usec": 213859100260
    },
    {
      "frame_id": 283,
      "sensor_timestamp": 213859133506548,
      "time_usec": 213859133506
    },
    {
      "frame_id": 284,
      "sensor_timestamp": 213859166753130,
      "time_usec": 213859166753
    },
    {
      "frame_id": 285,
      "sensor_timestamp": 213859199999468,
      "time_usec": 213859199999
    },
    {
      "frame_id": 286,
      "sensor_timestamp": 213859233245806,
      "time_usec": 213859233245
    },
    {
      "frame_id": 287,
      "sensor_timestamp": 213859266492144,
      "time_usec": 213859266492
    },
    {
      "frame_id": 288,
      "sensor_timestamp": 213859299738726,
      "time_usec": 213859299738
    },
    {
      "frame_id": 289,
      "sensor_timestamp": 213859332985064,
      "time_usec": 213859332985
    },
    {
      "frame_id": 290,
      "sensor_timestamp": 213859366231402,
      "time_usec": 213859366231
    },
    {
      "frame_id": 291,
      "sensor_timestamp": 213859399477740,
      "time_usec": 213859399477
    },
    {
      "frame_id": 292,
      "sensor_timestamp": 213859432724322,
      "time_usec": 213859432724
    },
    {
      "frame_id": 293,
      "sensor_timestamp": 213859465970660,
      "time_usec": 213859465970
    },
    {
      "frame_id": 294,
      "sensor_timestamp": 213859499216998,
      "time_usec": 213859499216
    },
    {
      "frame_id": 295,
      "sensor_timestamp": 213859532463336,
      "time_usec": 213859532463
    },
    {
      "frame_id": 296,
      "sensor_timestamp": 213859565709918,
      "time_usec": 213859565709
    },
    {
      "frame_id": 297,
      "sensor_timestamp": 213859598956255,
      "time_usec": 213859598956
    },
    {
      "frame_id": 298,
      "sensor_timestamp": 213859632202593,
      "time_usec": 213859632202
    },
    {
      "frame_id": 299,
      "sensor_timestamp": 213859665448931,
      "time_usec": 213859665448
    },
    {
      "frame_id": 300,
      "sensor_timestamp": 213859698695513,
      "time_usec": 213859698695
    },
    {
      "frame_id": 301,
      "sensor_timestamp": 213859731941851,
      "time_usec": 213859731941
    },
    {
      "frame_id": 302,
      "sensor_timestamp": 213859765188189,
      "time_usec": 213859765188
    },
    {
      "frame_id": 303,
      "sensor_timestamp": 213859798434527,
      "time_usec": 213859798434
    },
    {
      "frame_id": 304,
      "sensor_timestamp": 213859831681109,
      "time_usec": 213859831681
    },
    {
      "frame_id": 305,
      "sensor_timestamp": 213859864927447,
      "time_usec": 213859864927
    },
    {
      "frame_id": 306,
      "sensor_timestamp": 213859898173785,
      "time_usec": 213859898173
    },
    {
      "frame_id": 307,
      "sensor_timestamp": 213859931420123,
      "time_usec": 213859931420
    },
    {
      "frame_id": 308,
      "sensor_timestamp": 213859964666705,
      "time_usec": 213859964666
    },
    {
      "frame_id": 309,
      "sensor_timestamp": 213859997913043,
      "time_usec": 213859997913
    },
    {
      "frame_id": 310,
      "sensor_timestamp": 213860031159380,
      "time_usec": 213860031159
    },
    {
      "frame_id": 311,
      "sensor_timestamp": 213860064405718,
      "time_usec": 213860064405
    },
    {
      "frame_id": 312,
      "sensor_timestamp": 213860097652300,
      "time_usec": 213860097652
    },
    {
      "frame_id": 313,
      "sensor_timestamp": 213860130898638,
      "time_usec": 213860130898
    },
    {
      "frame_id": 314,
      "sensor_timestamp": 213860164144976,
      "time_usec": 213860164144
    },
    {
      "frame_id": 315,
      "sensor_timestamp": 213860197391314,
      "time_usec": 213860197391
    },
    {
      "frame_id": 316,
      "sensor_timestamp": 213860230637896,
      "time_usec": 213860230637
    },
    {
      "frame_id": 317,
      "sensor_timestamp": 213860263884234,
      "time_usec": 213860263884
    },
    {
      "frame_id": 318,
      "sensor_timestamp": 213860297130572,
      "time_usec": 213860297130
    },
    {
      "frame_id": 319,
      "sensor_timestamp": 213860330376910,
      "time_usec": 213860330376
    },
    {
      "frame_id": 320,
      "sensor_timestamp": 213860363623248,
      "time_usec": 213860363623
    },
    {
      "frame_id": 321,
      "sensor_timestamp": 213860396869830,
      "time_usec": 213860396869
    },
    {
      "frame_id": 322,
      "sensor_timestamp": 213860430116168,
      "time_usec": 213860430116
    },
    {
      "frame_id": 323,
      "sensor_timestamp": 213860463362505,
      "time_usec": 213860463362
    },
    {
      "frame_id": 324,
      "sensor_timestamp": 213860496608843,
      "time_usec": 213860496608
    },
    {
      "frame_id": 325,
      "sensor_timestamp": 213860529855425,
      "time_usec": 213860529855
    },
    {
      "frame_id": 326,
      "sensor_timestamp": 213860563101763,
      "time_usec": 213860563101
    },
    {
      "frame_id": 327,
      "sensor_timestamp": 213860596348101,
      "time_usec": 213860596348
    },
    {
      "frame_id": 328,
      "sensor_timestamp": 213860629594439,
      "time_usec": 213860629594
    },
    {
      "frame_id": 329,
      "sensor_timestamp": 213860662841021,
      "time_usec": 213860662841
    },
    {
      "frame_id": 330,
      "sensor_timestamp": 213860696087359,
      "time_usec": 213860696087
    },
    {
      "frame_id": 331,
      "sensor_timestamp": 213860729333697,
      "time_usec": 213860729333
    },
    {
      "frame_id": 332,
      "sensor_timestamp": 213860762580035,
      "time_usec": 213860762580
    },
    {
      "frame_id": 333,
      "sensor_timestamp": 213860795826617,
      "time_usec": 213860795826
    },
    {
      "frame_id": 334,
      "sensor_timestamp": 213860829072955,
      "time_usec": 213860829072
    },
    {
      "frame_id": 335,
      "sensor_timestamp": 213860862319293,
      "time_usec": 213860862319
    },
    {
      "frame_id": 336,
      "sensor_timestamp": 213860895565630,
      "time_usec": 213860895565
    },
    {
      "frame_id": 337,
      "sensor_timestamp": 213860928812212,
      "time_usec": 213860928812
    },
    {
      "frame_id": 338,
      "sensor_timestamp": 213860962058550,
      "time_usec": 213860962058
    },
    {
      "frame_id": 339,
      "sensor_timestamp": 213860995304888,
      "time_usec": 213860995304
    },
    {
      "frame_id": 340,
      "sensor_timestamp": 213861028551226,
      "time_usec": 213861028551
    },
    {
      "frame_id": 341,
      "sensor_timestamp": 213861061797808,
      "time_usec": 213861061797
    },
    {
      "frame_id": 342,
      "sensor_timestamp": 213861095044146,
      "time_usec": 213861095044
    },
    {
      "frame_id": 343,
      "sensor_timestamp": 213861128290484,
      "time_usec": 213861128290
    },
    {
      "frame_id": 344,
      "sensor_timestamp": 213861161536822,
      "time_usec": 213861161536
    },
    {
      "frame_id": 345,
      "sensor_timestamp": 213861194783404,
      "time_usec": 213861194783
    },
    {
      "frame_id": 346,
      "sensor_timestamp": 213861228029742,
      "time_usec": 213861228029
    },
    {
      "frame_id": 347,
      "sensor_timestamp": 213861261276080,
      "time_usec": 213861261276
    },
    {
      "frame_id": 348,
      "sensor_timestamp": 213861294522418,
      "time_usec": 213861294522
    },
    {
      "frame_id": 349,
      "sensor_timestamp": 213861327769000,
      "time_usec": 213861327769
    },
    {
      "frame_id": 350,
      "sensor_timestamp": 213861361015337,
      "time_usec": 213861361015
    },
    {
      "frame_id": 351,
      "sensor_timestamp": 213861394261675,
      "time_usec": 213861394261
    },
    {
      "frame_id": 352,
      "sensor_timestamp": 213861427508013,
      "time_usec": 213861427508
    },
    {
      "frame_id": 353,
      "sensor_timestamp": 213861460754595,
      "time_usec": 213861460754
    },
    {
      "frame_id": 354,
      "sensor_timestamp": 213861494000933,
      "time_usec": 213861494000
    },
    {
      "frame_id": 355,
      "sensor_timestamp": 213861527247271,
      "time_usec": 213861527247
    },
    {
      "frame_id": 356,
      "sensor_timestamp": 213861560493609,
      "time_usec": 213861560493
    },
    {
      "frame_id": 357,
      "sensor_timestamp": 213861593739947,
      "time_usec": 213861593739
    },
    {
      "frame_id": 358,
      "sensor_timestamp": 213861626986529,
      "time_usec": 213861626986
    },
    {
      "frame_id": 359,
      "sensor_timestamp": 213861660232867,
      "time_usec": 213861660232
    },
    {
      "frame_id": 360,
      "sensor_timestamp": 213861693479205,
      "time_usec": 213861693479
    },
    {
      "frame_id": 361,
      "sensor_timestamp": 213861726725543,
      "time_usec": 213861726725
    },
    {
      "frame_id": 362,
      "sensor_timestamp": 213861759972125,
      "time_usec": 213861759972
    },
    {
      "frame_id": 363,
      "sensor_timestamp": 213861793218462,
      "time_usec": 213861793218
    },
    {
      "frame_id": 364,
      "sensor_timestamp": 213861826464800,
      "time_usec": 213861826464
    },
    {
      "frame_id": 365,
      "sensor_timestamp": 213861859711138,
      "time_usec": 213861859711
    },
    {
      "frame_id": 366,
      "sensor_timestamp": 213861892957720,
      "time_usec": 213861892957
    },
    {
      "frame_id": 367,
      "sensor_timestamp": 213861926204058,
      "time_usec": 213861926204
    },
    {
      "frame_id": 368,
      "sensor_timestamp": 213861959450396,
      "time_usec": 213861959450
    },
    {
      "frame_id": 369,
      "sensor_timestamp": 213861992696734,
      "time_usec": 213861992696
    },
    {
      "frame_id": 370,
      "sensor_timestamp": 213862025943316,
      "time_usec": 213862025943
    },
    {
      "frame_id": 371,
      "sensor_timestamp": 213862059189654,
      "time_usec": 213862059189
    },
    {
      "frame_id": 372,
      "sensor_timestamp": 213862092435992,
      "time_usec": 213862092435
    },
    {
      "frame_id": 373,
      "sensor_timestamp": 213862125682330,
      "time_usec": 213862125682
    },
    {
      "frame_id": 374,
      "sensor_timestamp": 213862158928912,
      "time_usec": 213862158928
    },
    {
      "frame_id": 375,
      "sensor_timestamp": 213862192175250,
      "time_usec": 213862192175
    },
    {
      "frame_id": 376,
      "sensor_timestamp": 213862225421587,
      "time_usec": 213862225421
    },
    {
      "frame_id": 377,
      "sensor_timestamp": 213862258667925,
      "time_usec": 213862258667
    },
    {
      "frame_id": 378,
      "sensor_timestamp": 213862291914507,
      "time_usec": 213862291914
    },
    {
      "frame_id": 379,
      "sensor_timestamp": 213862325160845,
      "time_usec": 213862325160
    },
    {
      "frame_id": 380,
      "sensor_timestamp": 213862358407183,
      "time_usec": 213862358407
    },
    {
      "frame_id": 381,
      "sensor_timestamp": 213862391653521,
      "time_usec": 213862391653
    },
    {
      "frame_id": 382,
      "sensor_timestamp": 213862424900103,
      "time_usec": 213862424900
    },
    {
      "frame_id": 383,
      "sensor_timestamp": 213862458146441,
      "time_usec": 213862458146
    },
    {
      "frame_id": 384,
      "sensor_timestamp": 213862491392779,
      "time_usec": 213862491392
    },
    {
      "frame_id": 385,
      "sensor_timestamp": 213862524639117,
      "time_usec": 213862524639
    },
    {
      "frame_id": 386,
      "sensor_timestamp": 213862557885699,
      "time_usec": 213862557885
    },
    {
      "frame_id": 387,
      "sensor_timestamp": 213862591132037,
      "time_usec": 213862591132
    },
    {
      "frame_id": 388,
      "sensor_timestamp": 213862624378375,
      "time_usec": 213862624378
    },
    {
      "frame_id": 389,
      "sensor_timestamp": 213862657624712,
      "time_usec": 213862657624
    },
    {
      "frame_id": 390,
      "sensor_timestamp": 213862690871295,
      "time_usec": 213862690871
    },
    {
      "frame_id": 391,
      "sensor_timestamp": 213862724117632,
      "time_usec": 213862724117
    },
    {
      "frame_id": 392,
      "sensor_timestamp": 213862757363970,
      "time_usec": 213862757363
    },
    {
      "frame_id": 393,
      "sensor_timestamp": 213862790610308,
      "time_usec": 213862790610
    },
    {
      "frame_id": 394,
      "sensor_timestamp": 213862823856646,
      "time_usec": 213862823856
    },
    {
      "frame_id": 395,
      "sensor_timestamp": 213862857103228,
      "time_usec": 213862857103
    },
    {
      "frame_id": 396,
      "sensor_timestamp": 213862890349566,
      "time_usec": 213862890349
    },
    {
      "frame_id": 397,
      "sensor_timestamp": 213862923595904,
      "time_usec": 213862923595
    },
    {
      "frame_id": 398,
      "sensor_timestamp": 213862956842242,
      "time_usec": 213862956842
    },
    {
      "frame_id": 399,
      "sensor_timestamp": 213862990088824,
      "time_usec": 213862990088
    },
    {
      "frame_id": 400,
      "sensor_timestamp": 213863023335162,
      "time_usec": 213863023335
    },
    {
      "frame_id": 401,
      "sensor_timestamp": 213863056581500,
      "time_usec": 213863056581
    },
    {
      "frame_id": 402,
      "sensor_timestamp": 213863089827837,
      "time_usec": 213863089827
    },
    {
      "frame_id": 403,
      "sensor_timestamp": 213863123074420,
      "time_usec": 213863123074
    },
    {
      "frame_id": 404,
      "sensor_timestamp": 213863156320757,
      "time_usec": 213863156320
    },
    {
      "frame_id": 405,
      "sensor_timestamp": 213863189567095,
      "time_usec": 213863189567
    },
    {
      "frame_id": 406,
      "sensor_timestamp": 213863222813433,
      "time_usec": 213863222813
    },
    {
      "frame_id": 407,
      "sensor_timestamp": 213863256060015,
      "time_usec": 213863256060
    },
    {
      "frame_id": 408,
      "sensor_timestamp": 213863289306353,
      "time_usec": 213863289306
    },
    {
      "frame_id": 409,
      "sensor_timestamp": 213863322552691,
      "time_usec": 213863322552
    },
    {
      "frame_id": 410,
      "sensor_timestamp": 213863355799029,
      "time_usec": 213863355799
    },
    {
      "frame_id": 411,
      "sensor_timestamp": 213863389045611,
      "time_usec": 213863389045
    },
    {
      "frame_id": 412,
      "sensor_timestamp": 213863422291949,
      "time_usec": 213863422291
    },
    {
      "frame_id": 413,
      "sensor_timestamp": 213863455538287,
      "time_usec": 213863455538
    },
    {
      "frame_id": 414,
      "sensor_timestamp": 213863488784625,
      "time_usec": 213863488784
    },
    {
      "frame_id": 415,
      "sensor_timestamp": 213863522031207,
      "time_usec": 213863522031
    },
    {
      "frame_id": 416,
      "sensor_timestamp": 213863555277545,
      "time_usec": 213863555277
    },
    {
      "frame_id": 417,
      "sensor_timestamp": 213863588523882,
      "time_usec": 213863588523
    },
    {
      "frame_id": 418,
      "sensor_timestamp": 213863621770220,
      "time_usec": 213863621770
    },
    {
      "frame_id": 419,
      "sensor_timestamp": 213863655016802,
      "time_usec": 213863655016
    },
    {
      "frame_id": 420,
      "sensor_timestamp": 213863688263140,
      "time_usec": 213863688263
    },
    {
      "frame_id": 421,
      "sensor_timestamp": 213863721509478,
      "time_usec": 213863721509
    },
    {
      "frame_id": 422,
      "sensor_timestamp": 213863754755816,
      "time_usec": 213863754755
    },
    {
      "frame_id": 423,
      "sensor_timestamp": 213863788002398,
      "time_usec": 213863788002
    },
    {
      "frame_id": 424,
      "sensor_timestamp": 213863821248736,
      "time_usec": 213863821248
    },
    {
      "frame_id": 425,
      "sensor_timestamp": 213863854495074,
      "time_usec": 213863854495
    },
    {
      "frame_id": 426,
      "sensor_timestamp": 213863887741412,
      "time_usec": 213863887741
    },
    {
      "frame_id": 427,
      "sensor_timestamp": 213863920987994,
      "time_usec": 213863920987
    },
    {
      "frame_id": 428,
      "sensor_timestamp": 213863954234332,
      "time_usec": 213863954234
    },
    {
      "frame_id": 429,
      "sensor_timestamp": 213863987480670,
      "time_usec": 213863987480
    },
    {
      "frame_id": 430,
      "sensor_timestamp": 213864020727007,
      "time_usec": 213864020727
    },
    {
      "frame_id": 431,
      "sensor_timestamp": 213864053973345,
      "time_usec": 213864053973
    },
    {
      "frame_id": 432,
      "sensor_timestamp": 213864087219927,
      "time_usec": 213864087219
    },
    {
      "frame_id": 433,
      "sensor_timestamp": 213864120466265,
      "time_usec": 213864120466
    },
    {
      "frame_id": 434,
      "sensor_timestamp": 213864153712603,
      "time_usec": 213864153712
    },
    {
      "frame_id": 435,
      "sensor_timestamp": 213864186958941,
      "time_usec": 213864186958
    },
    {
      "frame_id": 436,
      "sensor_timestamp": 213864220205523,
      "time_usec": 213864220205
    },
    {
      "frame_id": 437,
      "sensor_timestamp": 213864253451861,
      "time_usec": 213864253451
    },
    {
      "frame_id": 438,
      "sensor_timestamp": 213864286698199,
      "time_usec": 213864286698
    },
    {
      "frame_id": 439,
      "sensor_timestamp": 213864319944537,
      "time_usec": 213864319944
    },
    {
      "frame_id": 440,
      "sensor_timestamp": 213864353191119,
      "time_usec": 213864353191
    },
    {
      "frame_id": 441,
      "sensor_timestamp": 213864386437457,
      "time_usec": 213864386437
    },
    {
      "frame_id": 442,
      "sensor_timestamp": 213864419683795,
      "time_usec": 213864419683
    },
    {
      "frame_id": 443,
      "sensor_timestamp": 213864452930132,
      "time_usec": 213864452930
    },
    {
      "frame_id": 444,
      "sensor_timestamp": 213864486176714,
      "time_usec": 213864486176
    },
    {
      "frame_id": 445,
      "sensor_timestamp": 213864519423052,
      "time_usec": 213864519423
    },
    {
      "frame_id": 446,
      "sensor_timestamp": 213864552669390,
      "time_usec": 213864552669
    },
    {
      "frame_id": 447,
      "sensor_timestamp": 213864585915728,
      "time_usec": 213864585915
    },
    {
      "frame_id": 448,
      "sensor_timestamp": 213864619162310,
      "time_usec": 213864619162
    },
    {
      "frame_id": 449,
      "sensor_timestamp": 213864652408648,
      "time_usec": 213864652408
    },
    {
      "frame_id": 450,
      "sensor_timestamp": 213864685654986,
      "time_usec": 213864685654
    },
    {
      "frame_id": 451,
      "sensor_timestamp": 213864718901324,
      "time_usec": 213864718901
    },
    {
      "frame_id": 452,
      "sensor_timestamp": 213864752147906,
      "time_usec": 213864752147
    },
    {
      "frame_id": 453,
      "sensor_timestamp": 213864785394244,
      "time_usec": 213864785394
    },
    {
      "frame_id": 454,
      "sensor_timestamp": 213864818640582,
      "time_usec": 213864818640
    },
    {
      "frame_id": 455,
      "sensor_timestamp": 213864851886920,
      "time_usec": 213864851886
    },
    {
      "frame_id": 456,
      "sensor_timestamp": 213864885133502,
      "time_usec": 213864885133
    },
    {
      "frame_id": 457,
      "sensor_timestamp": 213864918379839,
      "time_usec": 213864918379
    },
    {
      "frame_id": 458,
      "sensor_timestamp": 213864951626177,
      "time_usec": 213864951626
    },
    {
      "frame_id": 459,
      "sensor_timestamp": 213864984872515,
      "time_usec": 213864984872
    },
    {
      "frame_id": 460,
      "sensor_timestamp": 213865018119097,
      "time_usec": 213865018119
    },
    {
      "frame_id": 461,
      "sensor_timestamp": 213865051365435,
      "time_usec": 213865051365
    },
    {
      "frame_id": 462,
      "sensor_timestamp": 213865084611773,
      "time_usec": 213865084611
    },
    {
      "frame_id": 463,
      "sensor_timestamp": 213865117858111,
      "time_usec": 213865117858
    },
    {
      "frame_id": 464,
      "sensor_timestamp": 213865151104693,
      "time_usec": 213865151104
    },
    {
      "frame_id": 465,
      "sensor_timestamp": 213865184351031,
      "time_usec": 213865184351
    },
    {
      "frame_id": 466,
      "sensor_timestamp": 213865217597369,
      "time_usec": 213865217597
    },
    {
      "frame_id": 467,
      "sensor_timestamp": 213865250843707,
      "time_usec": 213865250843
    },
    {
      "frame_id": 468,
      "sensor_timestamp": 213865284090045,
      "time_usec": 213865284090
    },
    {
      "frame_id": 469,
      "sensor_timestamp": 213865317336627,
      "time_usec": 213865317336
    },
    {
      "frame_id": 470,
      "sensor_timestamp": 213865350582964,
      "time_usec": 213865350582
    },
    {
      "frame_id": 471,
      "sensor_timestamp": 213865383829302,
      "time_usec": 213865383829
    },
    {
      "frame_id": 472,
      "sensor_timestamp": 213865417075640,
      "time_usec": 213865417075
    },
    {
      "frame_id": 473,
      "sensor_timestamp": 213865450322222,
      "time_usec": 213865450322
    },
    {
      "frame_id": 474,
      "sensor_timestamp": 213865483568560,
      "time_usec": 213865483568
    },
    {
      "frame_id": 475,
      "sensor_timestamp": 213865516814898,
      "time_usec": 213865516814
    },
    {
      "frame_id": 476,
      "sensor_timestamp": 213865550061236,
      "time_usec": 213865550061
    },
    {
      "frame_id": 477,
      "sensor_timestamp": 213865583307818,
      "time_usec": 213865583307
    },
    {
      "frame_id": 478,
      "sensor_timestamp": 213865616554156,
      "time_usec": 213865616554
    },
    {
      "frame_id": 479,
      "sensor_timestamp": 213865649800494,
      "time_usec": 213865649800
    },
    {
      "frame_id": 480,
      "sensor_timestamp": 213865683046832,
      "time_usec": 213865683046
    },
    {
      "frame_id": 481,
      "sensor_timestamp": 213865716293414,
      "time_usec": 213865716293
    },
    {
      "frame_id": 482,
      "sensor_timestamp": 213865749539752,
      "time_usec": 213865749539
    },
    {
      "frame_id": 483,
      "sensor_timestamp": 213865782786089,
      "time_usec": 213865782786
    },
    {
      "frame_id": 484,
      "sensor_timestamp": 213865816032427,
      "time_usec": 213865816032
    },
    {
      "frame_id": 485,
      "sensor_timestamp": 213865849279009,
      "time_usec": 213865849279
    },
    {
      "frame_id": 486,
      "sensor_timestamp": 213865882525347,
      "time_usec": 213865882525
    },
    {
      "frame_id": 487,
      "sensor_timestamp": 213865915771685,
      "time_usec": 213865915771
    },
    {
      "frame_id": 488,
      "sensor_timestamp": 213865949018023,
      "time_usec": 213865949018
    },
    {
      "frame_id": 489,
      "sensor_timestamp": 213865982264605,
      "time_usec": 213865982264
    },
    {
      "frame_id": 490,
      "sensor_timestamp": 213866015510943,
      "time_usec": 213866015510
    },
    {
      "frame_id": 491,
      "sensor_timestamp": 213866048757281,
      "time_usec": 213866048757
    },
    {
      "frame_id": 492,
      "sensor_timestamp": 213866082003619,
      "time_usec": 213866082003
    },
    {
      "frame_id": 493,
      "sensor_timestamp": 213866115250201,
      "time_usec": 213866115250
    },
    {
      "frame_id": 494,
      "sensor_timestamp": 213866148496539,
      "time_usec": 213866148496
    },
    {
      "frame_id": 495,
      "sensor_timestamp": 213866181742877,
      "time_usec": 213866181742
    },
    {
      "frame_id": 496,
      "sensor_timestamp": 213866214989214,
      "time_usec": 213866214989
    },
    {
      "frame_id": 497,
      "sensor_timestamp": 213866248235796,
      "time_usec": 213866248235
    },
    {
      "frame_id": 498,
      "sensor_timestamp": 213866281482134,
      "time_usec": 213866281482
    },
    {
      "frame_id": 499,
      "sensor_timestamp": 213866314728472,
      "time_usec": 213866314728
    },
    {
      "frame_id": 500,
      "sensor_timestamp": 213866347974810,
      "time_usec": 213866347974
    },
    {
      "frame_id": 501,
      "sensor_timestamp": 213866381221148,
      "time_usec": 213866381221
    },
    {
      "frame_id": 502,
      "sensor_timestamp": 213866414467730,
      "time_usec": 213866414467
    },
    {
      "frame_id": 503,
      "sensor_timestamp": 213866447714068,
      "time_usec": 213866447714
    },
    {
      "frame_id": 504,
      "sensor_timestamp": 213866480960406,
      "time_usec": 213866480960
    },
    {
      "frame_id": 505,
      "sensor_timestamp": 213866514206744,
      "time_usec": 213866514206
    },
    {
      "frame_id": 506,
      "sensor_timestamp": 213866547453326,
      "time_usec": 213866547453
    },
    {
      "frame_id": 507,
      "sensor_timestamp": 213866580699664,
      "time_usec": 213866580699
    },
    {
      "frame_id": 508,
      "sensor_timestamp": 213866613946002,
      "time_usec": 213866613946
    },
    {
      "frame_id": 509,
      "sensor_timestamp": 213866647192339,
      "time_usec": 213866647192
    },
    {
      "frame_id": 510,
      "sensor_timestamp": 213866680438921,
      "time_usec": 213866680438
    },
    {
      "frame_id": 511,
      "sensor_timestamp": 213866713685259,
      "time_usec": 213866713685
    },
    {
      "frame_id": 512,
      "sensor_timestamp": 213866746931597,
      "time_usec": 213866746931
    },
    {
      "frame_id": 513,
      "sensor_timestamp": 213866780177935,
      "time_usec": 213866780177
    },
    {
      "frame_id": 514,
      "sensor_timestamp": 213866813424517,
      "time_usec": 213866813424
    },
    {
      "frame_id": 515,
      "sensor_timestamp": 213866846670855,
      "time_usec": 213866846670
    },
    {
      "frame_id": 516,
      "sensor_timestamp": 213866879917193,
      "time_usec": 213866879917
    },
    {
      "frame_id": 517,
      "sensor_timestamp": 213866913163531,
      "time_usec": 213866913163
    },
    {
      "frame_id": 518,
      "sensor_timestamp": 213866946410113,
      "time_usec": 213866946410
    },
    {
      "frame_id": 519,
      "sensor_timestamp": 213866979656451,
      "time_usec": 213866979656
    },
    {
      "frame_id": 520,
      "sensor_timestamp": 213867012902789,
      "time_usec": 213867012902
    },
    {
      "frame_id": 521,
      "sensor_timestamp": 213867046149127,
      "time_usec": 213867046149
    },
    {
      "frame_id": 522,
      "sensor_timestamp": 213867079395709,
      "time_usec": 213867079395
    },
    {
      "frame_id": 523,
      "sensor_timestamp": 213867112642046,
      "time_usec": 213867112642
    },
    {
      "frame_id": 524,
      "sensor_timestamp": 213867145888384,
      "time_usec": 213867145888
    },
    {
      "frame_id": 525,
      "sensor_timestamp": 213867179134722,
      "time_usec": 213867179134
    },
    {
      "frame_id": 526,
      "sensor_timestamp": 213867212381304,
      "time_usec": 213867212381
    },
    {
      "frame_id": 527,
      "sensor_timestamp": 213867245627642,
      "time_usec": 213867245627
    },
    {
      "frame_id": 528,
      "sensor_timestamp": 213867278873980,
      "time_usec": 213867278873
    },
    {
      "frame_id": 529,
      "sensor_timestamp": 213867312120318,
      "time_usec": 213867312120
    },
    {
      "frame_id": 530,
      "sensor_timestamp": 213867345366900,
      "time_usec": 213867345366
    },
    {
      "frame_id": 531,
      "sensor_timestamp": 213867378613238,
      "time_usec": 213867378613
    },
    {
      "frame_id": 532,
      "sensor_timestamp": 213867411859576,
      "time_usec": 213867411859
    },
    {
      "frame_id": 533,
      "sensor_timestamp": 213867445105914,
      "time_usec": 213867445105
    },
    {
      "frame_id": 534,
      "sensor_timestamp": 213867478352496,
      "time_usec": 213867478352
    },
    {
      "frame_id": 535,
      "sensor_timestamp": 213867511598834,
      "time_usec": 213867511598
    },
    {
      "frame_id": 536,
      "sensor_timestamp": 213867544845171,
      "time_usec": 213867544845
    },
    {
      "frame_id": 537,
      "sensor_timestamp": 213867578091509,
      "time_usec": 213867578091
    },
    {
      "frame_id": 538,
      "sensor_timestamp": 213867611337847,
      "time_usec": 213867611337
    },
    {
      "frame_id": 539,
      "sensor_timestamp": 213867644584429,
      "time_usec": 213867644584
    },
    {
      "frame_id": 540,
      "sensor_timestamp": 213867677830767,
      "time_usec": 213867677830
    },
    {
      "frame_id": 541,
