{
  "rotations": [
    {
      "x": 0.027488935738801956,
      "y": -0.033597588539123535,
      "z": 0.012828170321881771,
      "time_usec": 213849297795
    },
    {
      "x": 0.03497203439474106,
      "y": -0.033597588539123535,
      "z": 0.012828170321881771,
      "time_usec": 213849300054
    },
    {
      "x": 0.04245513305068016,
      "y": -0.03130684420466423,
      "z": 0.006719517521560192,
      "time_usec": 213849302309
    },
    {
      "x": 0.04489859566092491,
      "y": -0.03145955875515938,
      "z": 0.001832595793530345,
      "time_usec": 213849304567
    },
    {
      "x": 0.04612032696604729,
      "y": -0.032681290060281754,
      "z": 6.108652451075613E-4,
      "time_usec": 213849306824
    },
    {
      "x": 0.04612032696604729,
      "y": -0.03390302136540413,
      "z": -0.00427605677396059,
      "time_usec": 213849309082
    },
    {
      "x": 0.04612032696604729,
      "y": -0.03390302136540413,
      "z": -0.009162978269159794,
      "time_usec": 213849311340
    },
    {
      "x": 0.04245513305068016,
      "y": -0.03985895588994026,
      "z": -0.006719517521560192,
      "time_usec": 213849313596
    },
    {
      "x": 0.03741549700498581,
      "y": -0.04108068719506264,
      "z": -0.00427605677396059,
      "time_usec": 213849315848
    },
    {
      "x": 0.03375030308961868,
      "y": -0.03985895588994026,
      "z": -0.00931569468230009,
      "time_usec": 213849318113
    },
    {
      "x": 0.02886338345706463,
      "y": -0.04214970022439957,
      "z": -0.00931569468230009,
      "time_usec": 213849320368
    },
    {
      "x": 0.025045474991202354,
      "y": -0.04214970022439957,
      "z": -0.012980886735022068,
      "time_usec": 213849322622
    },
    {
      "x": 0.018936822190880775,
      "y": -0.03726277872920036,
      "z": -0.012980886735022068,
      "time_usec": 213849324885
    },
    {
      "x": 0.014049900695681572,
      "y": -0.03237585723400116,
      "z": -0.010537425056099892,
      "time_usec": 213849327143
    },
    {
      "x": 0.012828170321881771,
      "y": -0.031154127791523933,
      "z": -0.014202617108821869,
      "time_usec": 213849329400
    },
    {
      "x": 0.01038470957428217,
      "y": -0.02626720629632473,
      "z": -0.012980886735022068,
      "time_usec": 213849331647
    },
    {
      "x": 0.01160643994808197,
      "y": -0.023976460099220276,
      "z": -0.01542434748262167,
      "time_usec": 213849333916
    },
    {
      "x": 0.012980886735022068,
      "y": -0.019089538604021072,
      "z": -0.010537425056099892,
      "time_usec": 213849336175
    },
    {
      "x": 0.012980886735022068,
      "y": -0.01191187184303999,
      "z": -0.01664607785642147,
      "time_usec": 213849338434
    },
    {
      "x": 0.010537425056099892,
      "y": -0.007024950347840786,
      "z": -0.01664607785642147,
      "time_usec": 213849340689
    },
    {
      "x": 0.013133603148162365,
      "y": -0.003512475173920393,
      "z": -0.017867809161543846,
      "time_usec": 213849342946
    },
    {
      "x": 0.01191187184303999,
      "y": 0.0025961773935705423,
      "z": -0.019089538604021072,
      "time_usec": 213849345205
    },
    {
      "x": 0.013133603148162365,
      "y": 0.00855211354792118,
      "z": -0.020311269909143448,
      "time_usec": 213849347462
    },
    {
      "x": 0.01572977937757969,
      "y": 0.010842857882380486,
      "z": -0.020311269909143448,
      "time_usec": 213849349719
    },
    {
      "x": 0.016951510682702065,
      "y": 0.010842857882380486,
      "z": -0.017867809161543846,
      "time_usec": 213849351977
    },
    {
      "x": 0.020616702735424042,
      "y": 0.009621127508580685,
      "z": -0.019089538604021072,
      "time_usec": 213849354232
    },
    {
      "x": 0.01817324012517929,
      "y": 0.010842857882380486,
      "z": -0.019089538604021072,
      "time_usec": 213849356476
    },
    {
      "x": 0.01817324012517929,
      "y": 0.007177666760981083,
      "z": -0.021532999351620674,
      "time_usec": 213849358739
    },
    {
      "x": 0.01817324012517929,
      "y": 0.008399397134780884,
      "z": -0.021532999351620674,
      "time_usec": 213849361003
    },
    {
      "x": 0.015577063895761967,
      "y": 0.004886921960860491,
      "z": -0.023976460099220276,
      "time_usec": 213849363254
    },
    {
      "x": 0.016951510682702065,
      "y": 0.006108652334660292,
      "z": -0.023976460099220276,
      "time_usec": 213849365515
    },
    {
      "x": 0.016951510682702065,
      "y": 0.009621127508580685,
      "z": -0.020311269909143448,
      "time_usec": 213849367777
    },
    {
      "x": 0.01817324012517929,
      "y": 0.007177666760981083,
      "z": -0.023976460099220276,
      "time_usec": 213849370031
    },
    {
      "x": 0.016798794269561768,
      "y": 0.004886921960860491,
      "z": -0.021532999351620674,
      "time_usec": 213849372298
    },
    {
      "x": 0.016798794269561768,
      "y": 0.00366519158706069,
      "z": -0.023976460099220276,
      "time_usec": 213849374552
    },
    {
      "x": 0.01572977937757969,
      "y": 0.007177666760981083,
      "z": -0.02519819140434265,
      "time_usec": 213849376809
    },
    {
      "x": 0.01817324012517929,
      "y": 0.007177666760981083,
      "z": -0.021532999351620674,
      "time_usec": 213849379055
    },
    {
      "x": 0.016798794269561768,
      "y": 0.004886921960860491,
      "z": -0.021532999351620674,
      "time_usec": 213849381324
    },
    {
      "x": 0.01817324012517929,
      "y": 0.008399397134780884,
      "z": -0.01664607785642147,
      "time_usec": 213849383577
    },
    {
      "x": 0.021838432177901268,
      "y": 0.006108652334660292,
      "z": -0.012980886735022068,
      "time_usec": 213849385841
    },
    {
      "x": 0.025503624230623245,
      "y": 0.004734205547720194,
      "z": -0.012828170321881771,
      "time_usec": 213849388098
    },
    {
      "x": 0.027947084978222847,
      "y": 0.0024434609804302454,
      "z": -0.01160643994808197,
      "time_usec": 213849390358
    },
    {
      "x": 0.031612277030944824,
      "y": 0.003512475173920393,
      "z": -0.006719517521560192,
      "time_usec": 213849392613
    },
    {
      "x": 0.0377209298312664,
      "y": 0.0022907445672899485,
      "z": -0.005497787147760391,
      "time_usec": 213849394866
    },
    {
      "x": 0.0403171069920063,
      "y": 0.0022907445672899485,
      "z": -0.001832595793530345,
      "time_usec": 213849397129
    },
    {
      "x": 0.042760565876960754,
      "y": -0.0013744467869400978,
      "z": -0.001832595793530345,
      "time_usec": 213849399386
    },
    {
      "x": 0.04642575979232788,
      "y": -1.5271631127689034E-4,
      "z": 0.0019853119738399982,
      "time_usec": 213849401645
    },
    {
      "x": 0.05253441259264946,
      "y": -0.001527163083665073,
      "z": 0.0032070425804704428,
      "time_usec": 213849403900
    },
    {
      "x": 0.05497787147760391,
      "y": 9.162978967651725E-4,
      "z": 0.006872233934700489,
      "time_usec": 213849406155
    },
    {
      "x": 0.056352317333221436,
      "y": 0.005803219974040985,
      "z": 0.00809396430850029,
      "time_usec": 213849408423
    },
    {
      "x": 0.058795779943466187,
      "y": 0.010537425056099892,
      "z": 0.010690141469240189,
      "time_usec": 213849410673
    },
    {
      "x": 0.062460970133543015,
      "y": 0.006872233934700489,
      "z": 0.01191187184303999,
      "time_usec": 213849412927
    },
    {
      "x": 0.06490442901849747,
      "y": 0.005650503560900688,
      "z": 0.013133603148162365,
      "time_usec": 213849415183
    },
    {
      "x": 0.06490442901849747,
      "y": 0.005650503560900688,
      "z": 0.016798794269561768,
      "time_usec": 213849417448
    },
    {
      "x": 0.0685696229338646,
      "y": 0.0019853119738399982,
      "z": 0.013133603148162365,
      "time_usec": 213849419703
    },
    {
      "x": 0.0685696229338646,
      "y": 0.004428773187100887,
      "z": 0.020463986322283745,
      "time_usec": 213849421950
    },
    {
      "x": 0.0685696229338646,
      "y": 0.004428773187100887,
      "z": 0.024129176512360573,
      "time_usec": 213849424206
    },
    {
      "x": 0.06979135423898697,
      "y": 0.0032070425804704428,
      "z": 0.020463986322283745,
      "time_usec": 213849426473
    },
    {
      "x": 0.07116580009460449,
      "y": 0.005650503560900688,
      "z": 0.02168571576476097,
      "time_usec": 213849428738
    },
    {
      "x": 0.07483099400997162,
      "y": 0.004428773187100887,
      "z": 0.020463986322283745,
      "time_usec": 213849430993
    },
    {
      "x": 0.07360926270484924,
      "y": 0.004428773187100887,
      "z": 0.022907447069883347,
      "time_usec": 213849433240
    },
    {
      "x": 0.0734565481543541,
      "y": 7.635815418325365E-4,
      "z": 0.02535090781748295,
      "time_usec": 213849435503
    },
    {
      "x": 0.07467827945947647,
      "y": 7.635815418325365E-4,
      "z": 0.022907447069883347,
      "time_usec": 213849437766
    },
    {
      "x": 0.07727445662021637,
      "y": 0.005497787147760391,
      "z": 0.021838432177901268,
      "time_usec": 213849440026
    },
    {
      "x": 0.07849618047475815,
      "y": 0.005497787147760391,
      "z": 0.019394971430301666,
      "time_usec": 213849442281
    },
    {
      "x": 0.07727445662021637,
      "y": 0.006719517521560192,
      "z": 0.016798794269561768,
      "time_usec": 213849444534
    },
    {
      "x": 0.076052725315094,
      "y": 0.005497787147760391,
      "z": 0.016798794269561768,
      "time_usec": 213849446796
    },
    {
      "x": 0.07360926270484924,
      "y": 0.006719517521560192,
      "z": 0.016798794269561768,
      "time_usec": 213849449054
    },
    {
      "x": 0.07360926270484924,
      "y": 0.009162978269159794,
      "z": 0.018020525574684143,
      "time_usec": 213849451311
    },
    {
      "x": 0.06994406878948212,
      "y": 0.007941247895359993,
      "z": 0.013133603148162365,
      "time_usec": 213849453560
    },
    {
      "x": 0.06994406878948212,
      "y": 0.009162978269159794,
      "z": 0.015577063895761967,
      "time_usec": 213849455811
    },
    {
      "x": 0.07238753139972687,
      "y": 0.01160643994808197,
      "z": 0.014355333521962166,
      "time_usec": 213849458068
    },
    {
      "x": 0.07238753139972687,
      "y": 0.007941247895359993,
      "z": 0.01191187184303999,
      "time_usec": 213849460327
    },
    {
      "x": 0.07116580009460449,
      "y": 0.005497787147760391,
      "z": 0.009468411095440388,
      "time_usec": 213849462587
    },
    {
      "x": 0.0685696229338646,
      "y": 0.0032070425804704428,
      "z": 0.014355333521962166,
      "time_usec": 213849464848
    },
    {
      "x": 0.06872233748435974,
      "y": 0.005650503560900688,
      "z": 0.01191187184303999,
      "time_usec": 213849467118
    },
    {
      "x": 0.06994406878948212,
      "y": 0.005650503560900688,
      "z": 0.014355333521962166,
      "time_usec": 213849469375
    },
    {
      "x": 0.06994406878948212,
      "y": 0.005650503560900688,
      "z": 0.009468411095440388,
      "time_usec": 213849471630
    },
    {
      "x": 0.0685696229338646,
      "y": 0.0032070425804704428,
      "z": 0.01191187184303999,
      "time_usec": 213849473873
    },
    {
      "x": 0.07116580009460449,
      "y": 0.0032070425804704428,
      "z": 0.013133603148162365,
      "time_usec": 213849476140
    },
    {
      "x": 0.06872233748435974,
      "y": 0.005650503560900688,
      "z": 0.014355333521962166,
      "time_usec": 213849478403
    },
    {
      "x": 0.06734789162874222,
      "y": 0.004428773187100887,
      "z": 0.015577063895761967,
      "time_usec": 213849480665
    },
    {
      "x": 0.06872233748435974,
      "y": 0.01160643994808197,
      "z": 0.013133603148162365,
      "time_usec": 213849482921
    },
    {
      "x": 0.06872233748435974,
      "y": 0.014049900695681572,
      "z": 0.01191187184303999,
      "time_usec": 213849485170
    },
    {
      "x": 0.06383541971445084,
      "y": 0.016493361443281174,
      "z": 0.015577063895761967,
      "time_usec": 213849487433
    },
    {
      "x": 0.06383541971445084,
      "y": 0.018936822190880775,
      "z": 0.016798794269561768,
      "time_usec": 213849489690
    },
    {
      "x": 0.06505715101957321,
      "y": 0.018936822190880775,
      "z": 0.015577063895761967,
      "time_usec": 213849491942
    },
    {
      "x": 0.06261368840932846,
      "y": 0.01771509274840355,
      "z": 0.016798794269561768,
      "time_usec": 213849494190
    },
    {
      "x": 0.06505715101957321,
      "y": 0.018936822190880775,
      "z": 0.015577063895761967,
      "time_usec": 213849496451
    },
    {
      "x": 0.06261368840932846,
      "y": 0.02015855349600315,
      "z": 0.015577063895761967,
      "time_usec": 213849498720
    },
    {
      "x": 0.06383541971445084,
      "y": 0.022449297830462456,
      "z": 0.013133603148162365,
      "time_usec": 213849500967
    },
    {
      "x": 0.06261368840932846,
      "y": 0.02015855349600315,
      "z": 0.013133603148162365,
      "time_usec": 213849503224
    },
    {
      "x": 0.061391957104206085,
      "y": 0.01771509274840355,
      "z": 0.010690141469240189,
      "time_usec": 213849505478
    },
    {
      "x": 0.061391957104206085,
      "y": 0.016493361443281174,
      "z": 0.014355333521962166,
      "time_usec": 213849507742
    },
    {
      "x": 0.06123924255371094,
      "y": 0.012980886735022068,
      "z": 0.016798794269561768,
      "time_usec": 213849510012
    },
    {
      "x": 0.06123924255371094,
      "y": 0.00809396430850029,
      "z": 0.015577063895761967,
      "time_usec": 213849512268
    },
    {
      "x": 0.062460970133543015,
      "y": 0.005803219974040985,
      "z": 0.018020525574684143,
      "time_usec": 213849514522
    },
    {
      "x": 0.06001751124858856,
      "y": 0.002138028386980295,
      "z": 0.015577063895761967,
      "time_usec": 213849516783
    },
    {
      "x": 0.06123924255371094,
      "y": 9.162978967651725E-4,
      "z": 0.016798794269561768,
      "time_usec": 213849519041
    },
    {
      "x": 0.06108652427792549,
      "y": -0.003817907767370343,
      "z": 0.015577063895761967,
      "time_usec": 213849521299
    },
    {
      "x": 0.059864792972803116,
      "y": -0.003817907767370343,
      "z": 0.015577063895761967,
      "time_usec": 213849523540
    },
    {
      "x": 0.05864306539297104,
      "y": -0.008704829961061478,
      "z": 0.012980886735022068,
      "time_usec": 213849525807
    },
    {
      "x": 0.05864306539297104,
      "y": -0.01114829070866108,
      "z": 0.012980886735022068,
      "time_usec": 213849528066
    },
    {
      "x": 0.06108652427792549,
      "y": -0.01114829070866108,
      "z": 0.00809396430850029,
      "time_usec": 213849530318
    },
    {
      "x": 0.06108652427792549,
      "y": -0.008704829961061478,
      "z": 0.00931569468230009,
      "time_usec": 213849532583
    },
    {
      "x": 0.05864306539297104,
      "y": -0.013591751456260681,
      "z": 0.00931569468230009,
      "time_usec": 213849534831
    },
    {
      "x": 0.06108652427792549,
      "y": -0.013591751456260681,
      "z": 0.005650503560900688,
      "time_usec": 213849537100
    },
    {
      "x": 0.05864306539297104,
      "y": -0.01237002108246088,
      "z": 0.005650503560900688,
      "time_usec": 213849539342
    },
    {
      "x": 0.05864306539297104,
      "y": -0.01237002108246088,
      "z": 0.00809396430850029,
      "time_usec": 213849541603
    },
    {
      "x": 0.05742133408784866,
      "y": -0.015882495790719986,
      "z": 0.004428773187100887,
      "time_usec": 213849543860
    },
    {
      "x": 0.052381694316864014,
      "y": -0.015882495790719986,
      "z": 0.004428773187100887,
      "time_usec": 213849546126
    },
    {
      "x": 0.05497787147760391,
      "y": -0.015882495790719986,
      "z": 0.005650503560900688,
      "time_usec": 213849548379
    },
    {
      "x": 0.05360342562198639,
      "y": -0.01710422709584236,
      "z": 0.0019853119738399982,
      "time_usec": 213849550646
    },
    {
      "x": 0.048716504126787186,
      "y": -0.015882495790719986,
      "z": -0.001679879380390048,
      "time_usec": 213849552890
    },
    {
      "x": 0.04749477282166481,
      "y": -0.013439035043120384,
      "z": -4.5814894838258624E-4,
      "time_usec": 213849555148
    },
    {
      "x": 0.04749477282166481,
      "y": -0.010995574295520782,
      "z": 7.635815418325365E-4,
      "time_usec": 213849557406
    },
    {
      "x": 0.04138612002134323,
      "y": -0.010995574295520782,
      "z": 6.108652451075613E-4,
      "time_usec": 213849559676
    },
    {
      "x": 0.03894266113638878,
      "y": -0.010842857882380486,
      "z": 6.108652451075613E-4,
      "time_usec": 213849561922
    },
    {
      "x": 0.035124752670526505,
      "y": -0.012064588256180286,
      "z": 0.001832595793530345,
      "time_usec": 213849564181
    },
    {
      "x": 0.03145955875515938,
      "y": -0.012064588256180286,
      "z": 6.108652451075613E-4,
      "time_usec": 213849566444
    },
    {
      "x": 0.026572637259960175,
      "y": -0.015577063895761967,
      "z": 6.108652451075613E-4,
      "time_usec": 213849568698
    },
    {
      "x": 0.019089538604021072,
      "y": -0.01542434748262167,
      "z": -0.0032070425804704428,
      "time_usec": 213849570967
    },
    {
      "x": 0.011759156361222267,
      "y": -0.012980886735022068,
      "z": -0.005650503560900688,
      "time_usec": 213849573217
    },
    {
      "x": 0.007941247895359993,
      "y": -0.014202617108821869,
      "z": -0.006872233934700489,
      "time_usec": 213849575479
    },
    {
      "x": 0.001832595793530345,
      "y": -0.01160643994808197,
      "z": -0.005650503560900688,
      "time_usec": 213849577741
    },
    {
      "x": -0.00427605677396059,
      "y": -0.01160643994808197,
      "z": -0.005803219974040985,
      "time_usec": 213849579993
    },
    {
      "x": -0.011759156361222267,
      "y": -0.007941247895359993,
      "z": -0.003359758760780096,
      "time_usec": 213849582238
    },
    {
      "x": -0.017867809161543846,
      "y": -0.005345070734620094,
      "z": -0.002138028386980295,
      "time_usec": 213849584497
    },
    {
      "x": -0.024129176512360573,
      "y": -0.004123340360820293,
      "z": -0.004581489134579897,
      "time_usec": 213849586768
    },
    {
      "x": -0.029016099870204926,
      "y": 7.635815418325365E-4,
      "z": -0.002138028386980295,
      "time_usec": 213849589029
    },
    {
      "x": -0.032681290060281754,
      "y": 7.635815418325365E-4,
      "z": 3.054326225537807E-4,
      "time_usec": 213849591286
    },
    {
      "x": -0.04260785132646561,
      "y": 0.003359758760780096,
      "z": -0.0010690141934901476,
      "time_usec": 213849593539
    },
    {
      "x": -0.04993823543190956,
      "y": 0.005803219974040985,
      "z": -0.0010690141934901476,
      "time_usec": 213849595793
    },
    {
      "x": -0.05619960278272629,
      "y": 0.007177666760981083,
      "z": 0.0013744467869400978,
      "time_usec": 213849598056
    },
    {
      "x": -0.06230825558304787,
      "y": 0.009621127508580685,
      "z": 0.005039638374000788,
      "time_usec": 213849600313
    },
    {
      "x": -0.06841690838336945,
      "y": 0.013286318629980087,
      "z": 0.003817907767370343,
      "time_usec": 213849602571
    },
    {
      "x": -0.07590000331401825,
      "y": 0.01710422709584236,
      "z": 0.004886921960860491,
      "time_usec": 213849604823
    },
    {
      "x": -0.08078692853450775,
      "y": 0.01710422709584236,
      "z": 0.004886921960860491,
      "time_usec": 213849607087
    },
    {
      "x": -0.0832303911447525,
      "y": 0.015882495790719986,
      "z": 0.00366519158706069,
      "time_usec": 213849609344
    },
    {
      "x": -0.08704829961061478,
      "y": 0.018478672951459885,
      "z": 0.004886921960860491,
      "time_usec": 213849611603
    },
    {
      "x": -0.09437867999076843,
      "y": 0.022143865004181862,
      "z": 0.00366519158706069,
      "time_usec": 213849613859
    },
    {
      "x": -0.09682214260101318,
      "y": 0.01970040425658226,
      "z": 0.0022907445672899485,
      "time_usec": 213849616111
    },
    {
      "x": -0.10308351367712021,
      "y": 0.021074850112199783,
      "z": 0.003512475173920393,
      "time_usec": 213849618374
    },
    {
      "x": -0.10415252298116684,
      "y": 0.024587325751781464,
      "z": 0.003512475173920393,
      "time_usec": 213849620632
    },
    {
      "x": -0.10552696883678436,
      "y": 0.02474004216492176,
      "z": 0.004734205547720194,
      "time_usec": 213849622891
    },
    {
      "x": -0.10919216275215149,
      "y": 0.023518312722444534,
      "z": 0.007177666760981083,
      "time_usec": 213849625147
    },
    {
      "x": -0.11285735666751862,
      "y": 0.025961773470044136,
      "z": 0.007177666760981083,
      "time_usec": 213849627404
    },
    {
      "x": -0.11530081182718277,
      "y": 0.028405234217643738,
      "z": 0.005955935921519995,
      "time_usec": 213849629662
    },
    {
      "x": -0.11911872029304504,
      "y": 0.02733621932566166,
      "z": 0.008399397134780884,
      "time_usec": 213849631918
    },
    {
      "x": -0.12018773704767227,
      "y": 0.03329215571284294,
      "z": 0.005955935921519995,
      "time_usec": 213849634171
    },
    {
      "x": -0.1215621829032898,
      "y": 0.029626963660120964,
      "z": 0.005955935921519995,
      "time_usec": 213849636426
    },
    {
      "x": -0.1215621829032898,
      "y": 0.03084869496524334,
      "z": 0.007177666760981083,
      "time_usec": 213849638692
    },
    {
      "x": -0.12400564551353455,
      "y": 0.028557950630784035,
      "z": 0.005955935921519995,
      "time_usec": 213849640945
    },
    {
      "x": -0.12522737681865692,
      "y": 0.02977968007326126,
      "z": 0.005955935921519995,
      "time_usec": 213849643198
    },
    {
      "x": -0.12018773704767227,
      "y": 0.03084869496524334,
      "z": 0.004734205547720194,
      "time_usec": 213849645453
    },
    {
      "x": -0.12278391420841217,
      "y": 0.028557950630784035,
      "z": 0.003512475173920393,
      "time_usec": 213849647724
    },
    {
      "x": -0.12400564551353455,
      "y": 0.03084869496524334,
      "z": 0.004734205547720194,
      "time_usec": 213849649983
    },
    {
      "x": -0.12278391420841217,
      "y": 0.032070424407720566,
      "z": 0.007177666760981083,
      "time_usec": 213849652238
    },
    {
      "x": -0.12400564551353455,
      "y": 0.03329215571284294,
      "z": 0.007177666760981083,
      "time_usec": 213849654491
    },
    {
      "x": -0.1215621829032898,
      "y": 0.03084869496524334,
      "z": 0.005955935921519995,
      "time_usec": 213849656753
    },
    {
      "x": -0.12278391420841217,
      "y": 0.02977968007326126,
      "z": 0.004734205547720194,
      "time_usec": 213849659012
    },
    {
      "x": -0.1215621829032898,
      "y": 0.026114489883184433,
      "z": 0.0022907445672899485,
      "time_usec": 213849661271
    },
    {
      "x": -0.1189660057425499,
      "y": 0.027183502912521362,
      "z": -0.0013744467869400978,
      "time_usec": 213849663523
    },
    {
      "x": -0.11652254313230515,
      "y": 0.02474004216492176,
      "z": -1.5271631127689034E-4,
      "time_usec": 213849665779
    },
    {
      "x": -0.11667526513338089,
      "y": 0.020005837082862854,
      "z": -1.5271631127689034E-4,
      "time_usec": 213849668041
    },
    {
      "x": -0.10919216275215149,
      "y": 0.019853120669722557,
      "z": -0.0013744467869400978,
      "time_usec": 213849670300
    },
    {
      "x": -0.10919216275215149,
      "y": 0.01863138936460018,
      "z": -0.003817907767370343,
      "time_usec": 213849672557
    },
    {
      "x": -0.10064005106687546,
      "y": 0.014966198243200779,
      "z": -0.003817907767370343,
      "time_usec": 213849674809
    },
    {
      "x": -0.10186178237199783,
      "y": 0.013744467869400978,
      "z": -0.006261368747800589,
      "time_usec": 213849677073
    },
    {
      "x": -0.09682214260101318,
      "y": 0.013591751456260681,
      "z": -0.008704829961061478,
      "time_usec": 213849679331
    },
    {
      "x": -0.09193521738052368,
      "y": 0.008704829961061478,
      "z": -0.009926560334861279,
      "time_usec": 213849681589
    },
    {
      "x": -0.08949175477027893,
      "y": 0.005039638374000788,
      "z": -0.01114829070866108,
      "time_usec": 213849683844
    },
    {
      "x": -0.08460483700037003,
      "y": 1.5271631127689034E-4,
      "z": -0.01237002108246088,
      "time_usec": 213849686094
    },
    {
      "x": -0.078343465924263,
      "y": -0.003512475173920393,
      "z": -0.01725694350898266,
      "time_usec": 213849688347
    },
    {
      "x": -0.07467827945947647,
      "y": -0.007177666760981083,
      "z": -0.01970040425658226,
      "time_usec": 213849690618
    },
    {
      "x": -0.06979135423898697,
      "y": -0.009621127508580685,
      "z": -0.022143865004181862,
      "time_usec": 213849692875
    },
    {
      "x": -0.06490442901849747,
      "y": -0.01572977937757969,
      "z": -0.021991148591041565,
      "time_usec": 213849695131
    },
    {
      "x": -0.06001751124858856,
      "y": -0.01572977937757969,
      "z": -0.021991148591041565,
      "time_usec": 213849697392
    },
    {
      "x": -0.05497787147760391,
      "y": -0.018325956538319588,
      "z": -0.02076941914856434,
      "time_usec": 213849699648
    },
    {
      "x": -0.04764748737215996,
      "y": -0.02076941914856434,
      "z": -0.02321287989616394,
      "time_usec": 213849701907
    },
    {
      "x": -0.045204028487205505,
      "y": -0.024434609338641167,
      "z": -0.02076941914856434,
      "time_usec": 213849704157
    },
    {
      "x": -0.042760565876960754,
      "y": -0.02687807008624077,
      "z": -0.021991148591041565,
      "time_usec": 213849706418
    },
    {
      "x": -0.04153883829712868,
      "y": -0.02687807008624077,
      "z": -0.021991148591041565,
      "time_usec": 213849708682
    },
    {
      "x": -0.03527746722102165,
      "y": -0.024587325751781464,
      "z": -0.023060163483023643,
      "time_usec": 213849710932
    },
    {
      "x": -0.03405573591589928,
      "y": -0.024587325751781464,
      "z": -0.02428189292550087,
      "time_usec": 213849713190
    },
    {
      "x": -0.0328340083360672,
      "y": -0.022143865004181862,
      "z": -0.02428189292550087,
      "time_usec": 213849715446
    },
    {
      "x": -0.03039054572582245,
      "y": -0.023365596309304237,
      "z": -0.02428189292550087,
      "time_usec": 213849717710
    },
    {
      "x": -0.02779436856508255,
      "y": -0.021074850112199783,
      "z": -0.02428189292550087,
      "time_usec": 213849719969
    },
    {
      "x": -0.029016099870204926,
      "y": -0.01863138936460018,
      "z": -0.02428189292550087,
      "time_usec": 213849722231
    },
    {
      "x": -0.022907447069883347,
      "y": -0.016340645030140877,
      "z": -0.025503624230623245,
      "time_usec": 213849724473
    },
    {
      "x": -0.019089538604021072,
      "y": -0.01878410577774048,
      "z": -0.025503624230623245,
      "time_usec": 213849726727
    },
    {
      "x": -0.017867809161543846,
      "y": -0.013897184282541275,
      "z": -0.020616702735424042,
      "time_usec": 213849728995
    },
    {
      "x": -0.01664607785642147,
      "y": -0.007941247895359993,
      "z": -0.02168571576476097,
      "time_usec": 213849731256
    },
    {
      "x": -0.01542434748262167,
      "y": -0.01160643994808197,
      "z": -0.02168571576476097,
      "time_usec": 213849733513
    },
    {
      "x": -0.011759156361222267,
      "y": -0.01160643994808197,
      "z": -0.020463986322283745,
      "time_usec": 213849735757
    },
    {
      "x": -0.009162978269159794,
      "y": -0.012828170321881771,
      "z": -0.02168571576476097,
      "time_usec": 213849738028
    },
    {
      "x": -0.006872233934700489,
      "y": -0.01771509274840355,
      "z": -0.02168571576476097,
      "time_usec": 213849740285
    },
    {
      "x": -0.005497787147760391,
      "y": -0.016493361443281174,
      "z": -0.020463986322283745,
      "time_usec": 213849742545
    },
    {
      "x": -0.006872233934700489,
      "y": -0.015271631069481373,
      "z": -0.018020525574684143,
      "time_usec": 213849744795
    },
    {
      "x": -0.005497787147760391,
      "y": -0.014049900695681572,
      "z": -0.01924225501716137,
      "time_usec": 213849747058
    },
    {
      "x": -0.006719517521560192,
      "y": -0.01160643994808197,
      "z": -0.016798794269561768,
      "time_usec": 213849749316
    },
    {
      "x": -0.00427605677396059,
      "y": -0.012828170321881771,
      "z": -0.016798794269561768,
      "time_usec": 213849751572
    },
    {
      "x": -0.00427605677396059,
      "y": -0.012828170321881771,
      "z": -0.015577063895761967,
      "time_usec": 213849753815
    },
    {
      "x": -6.108652451075613E-4,
      "y": -0.015271631069481373,
      "z": -0.01191187184303999,
      "time_usec": 213849756076
    },
    {
      "x": -0.00427605677396059,
      "y": -0.01038470957428217,
      "z": -0.009468411095440388,
      "time_usec": 213849758346
    },
    {
      "x": -0.005650503560900688,
      "y": -0.012828170321881771,
      "z": -0.008246680721640587,
      "time_usec": 213849760607
    },
    {
      "x": -0.00427605677396059,
      "y": -0.012828170321881771,
      "z": -0.008246680721640587,
      "time_usec": 213849762863
    },
    {
      "x": -0.0032070425804704428,
      "y": -0.014049900695681572,
      "z": -0.005803219974040985,
      "time_usec": 213849765114
    },
    {
      "x": -0.0032070425804704428,
      "y": -0.017562376335263252,
      "z": -0.003359758760780096,
      "time_usec": 213849767377
    },
    {
      "x": -0.0032070425804704428,
      "y": -0.020005837082862854,
      "z": -0.004581489134579897,
      "time_usec": 213849769632
    },
    {
      "x": -7.635815418325365E-4,
      "y": -0.022449297830462456,
      "z": -0.004581489134579897,
      "time_usec": 213849771879
    },
    {
      "x": 0.004123340360820293,
      "y": -0.02367102913558483,
      "z": -0.0032070425804704428,
      "time_usec": 213849774143
    },
    {
      "x": 0.001679879380390048,
      "y": -0.024892758578062057,
      "z": -7.635815418325365E-4,
      "time_usec": 213849776401
    },
    {
      "x": 0.0029016099870204926,
      "y": -0.02367102913558483,
      "z": 4.5814894838258624E-4,
      "time_usec": 213849778664
    },
    {
      "x": 0.004123340360820293,
      "y": -0.02367102913558483,
      "z": 0.0029016099870204926,
      "time_usec": 213849780920
    },
    {
      "x": 0.006719517521560192,
      "y": -0.01771509274840355,
      "z": 0.005345070734620094,
      "time_usec": 213849783183
    },
    {
      "x": 0.0029016099870204926,
      "y": -0.017562376335263252,
      "z": 0.0065668015740811825,
      "time_usec": 213849785433
    },
    {
      "x": 0.004123340360820293,
      "y": -0.016340645030140877,
      "z": 0.010231993161141872,
      "time_usec": 213849787696
    },
    {
      "x": 0.009162978269159794,
      "y": -0.014049900695681572,
      "z": 0.011453723534941673,
      "time_usec": 213849789948
    },
    {
      "x": 0.00427605677396059,
      "y": -0.006719517521560192,
      "z": 0.016340645030140877,
      "time_usec": 213849792210
    },
    {
      "x": 0.00427605677396059,
      "y": -0.003054326167330146,
      "z": 0.018936822190880775,
      "time_usec": 213849794462
    },
    {
      "x": 6.108652451075613E-4,
      "y": 0.001679879380390048,
      "z": 0.016340645030140877,
      "time_usec": 213849796726
    },
    {
      "x": 0.0032070425804704428,
      "y": 0.011301007121801376,
      "z": 0.021380282938480377,
      "time_usec": 213849798982
    },
    {
      "x": 0.0019853119738399982,
      "y": 0.01618792861700058,
      "z": 0.025045474991202354,
      "time_usec": 213849801239
    },
    {
      "x": 0.004428773187100887,
      "y": 0.01970040425658226,
      "z": 0.025045474991202354,
      "time_usec": 213849803497
    },
    {
      "x": 7.635815418325365E-4,
      "y": 0.02229658141732216,
      "z": 0.02626720629632473,
      "time_usec": 213849805752
    },
    {
      "x": 7.635815418325365E-4,
      "y": 0.02580905705690384,
      "z": 0.029932396486401558,
      "time_usec": 213849808011
    },
    {
      "x": 0.0032070425804704428,
      "y": 0.030695978552103043,
      "z": 0.031154127791523933,
      "time_usec": 213849810258
    },
    {
      "x": 0.004581489134579897,
      "y": 0.03420845419168472,
      "z": 0.031154127791523933,
      "time_usec": 213849812528
    },
    {
      "x": 0.008246680721640587,
      "y": 0.036651913076639175,
      "z": 0.03130684420466423,
      "time_usec": 213849814781
    },
    {
      "x": 0.01191187184303999,
      "y": 0.03894266113638878,
      "z": 0.030085112899541855,
      "time_usec": 213849817047
    },
    {
      "x": 0.013286318629980087,
      "y": 0.03894266113638878,
      "z": 0.03130684420466423,
      "time_usec": 213849819301
    },
    {
      "x": 0.01572977937757969,
      "y": 0.03894266113638878,
      "z": 0.03375030308961868,
      "time_usec": 213849821561
    },
    {
      "x": 0.01817324012517929,
      "y": 0.0377209298312664,
      "z": 0.02886338345706463,
      "time_usec": 213849823816
    },
    {
      "x": 0.01817324012517929,
      "y": 0.03649919852614403,
      "z": 0.026419922709465027,
      "time_usec": 213849826069
    },
    {
      "x": 0.019394971430301666,
      "y": 0.03405573591589928,
      "z": 0.021532999351620674,
      "time_usec": 213849828332
    },
    {
      "x": 0.021838432177901268,
      "y": 0.025503624230623245,
      "z": 0.020311269909143448,
      "time_usec": 213849830589
    },
    {
      "x": 0.020616702735424042,
      "y": 0.021838432177901268,
      "z": 0.016493361443281174,
      "time_usec": 213849832847
    },
    {
      "x": 0.02428189292550087,
      "y": 0.019394971430301666,
      "z": 0.014049900695681572,
      "time_usec": 213849835100
    },
    {
      "x": 0.023060163483023643,
      "y": 0.01466076634824276,
      "z": 0.009162978269159794,
      "time_usec": 213849837362
    },
    {
      "x": 0.025503624230623245,
      "y": 0.010995574295520782,
      "z": 0.006719517521560192,
      "time_usec": 213849839620
    },
    {
      "x": 0.02672535367310047,
      "y": 0.004886921960860491,
      "z": 0.00427605677396059,
      "time_usec": 213849841879
    },
    {
      "x": 0.026572637259960175,
      "y": 0.0012217304902151227,
      "z": 6.108652451075613E-4,
      "time_usec": 213849844129
    },
    {
      "x": 0.02535090781748295,
      "y": 0.0,
      "z": -0.001832595793530345,
      "time_usec": 213849846388
    },
    {
      "x": 0.024129176512360573,
      "y": -0.004734205547720194,
      "z": -0.006719517521560192,
      "time_usec": 213849848651
    },
    {
      "x": 0.024129176512360573,
      "y": -0.008399397134780884,
      "z": -0.00931569468230009,
      "time_usec": 213849850912
    },
    {
      "x": 0.022907447069883347,
      "y": -0.009621127508580685,
      "z": -0.014202617108821869,
      "time_usec": 213849853166
    },
    {
      "x": 0.024129176512360573,
      "y": -0.01572977937757969,
      "z": -0.01664607785642147,
      "time_usec": 213849855418
    },
    {
      "x": 0.022907447069883347,
      "y": -0.015577063895761967,
      "z": -0.017867809161543846,
      "time_usec": 213849857679
    },
    {
      "x": 0.022907447069883347,
      "y": -0.01572977937757969,
      "z": -0.020311269909143448,
      "time_usec": 213849859934
    },
    {
      "x": 0.021532999351620674,
      "y": -0.02168571576476097,
      "z": -0.02275473065674305,
      "time_usec": 213849862197
    },
    {
      "x": 0.02168571576476097,
      "y": -0.01924225501716137,
      "z": -0.021532999351620674,
      "time_usec": 213849864449
    },
    {
      "x": 0.020311269909143448,
      "y": -0.01924225501716137,
      "z": -0.020311269909143448,
      "time_usec": 213849866712
    },
    {
      "x": 0.020463986322283745,
      "y": -0.010842857882380486,
      "z": -0.021532999351620674,
      "time_usec": 213849868966
    },
    {
      "x": 0.016798794269561768,
      "y": -0.008399397134780884,
      "z": -0.02275473065674305,
      "time_usec": 213849871216
    },
    {
      "x": 0.016798794269561768,
      "y": -0.004734205547720194,
      "z": -0.019089538604021072,
      "time_usec": 213849873481
    },
    {
      "x": 0.020463986322283745,
      "y": -0.005955935921519995,
      "z": -0.019089538604021072,
      "time_usec": 213849875728
    },
    {
      "x": 0.01924225501716137,
      "y": -0.0012217304902151227,
      "z": -0.021532999351620674,
      "time_usec": 213849877990
    },
    {
      "x": 0.016798794269561768,
      "y": 0.0012217304902151227,
      "z": -0.017867809161543846,
      "time_usec": 213849880254
    },
    {
      "x": 0.014355333521962166,
      "y": 0.0024434609804302454,
      "z": -0.019089538604021072,
      "time_usec": 213849882516
    },
    {
      "x": 0.014355333521962166,
      "y": 0.0024434609804302454,
      "z": -0.019089538604021072,
      "time_usec": 213849884770
    },
    {
      "x": 0.014355333521962166,
      "y": 0.0013744467869400978,
      "z": -0.014202617108821869,
      "time_usec": 213849887031
    },
    {
      "x": 0.010690141469240189,
      "y": -0.0010690141934901476,
      "z": -0.01664607785642147,
      "time_usec": 213849889287
    },
    {
      "x": 0.00931569468230009,
      "y": -0.0010690141934901476,
      "z": -0.014202617108821869,
      "time_usec": 213849891546
    },
    {
      "x": 0.009468411095440388,
      "y": 0.0013744467869400978,
      "z": -0.014202617108821869,
      "time_usec": 213849893802
    },
    {
      "x": 0.006872233934700489,
      "y": -9.162978967651725E-4,
      "z": -0.01542434748262167,
      "time_usec": 213849896054
    },
    {
      "x": 0.00931569468230009,
      "y": -0.0010690141934901476,
      "z": -0.012980886735022068,
      "time_usec": 213849898310
    },
    {
      "x": 0.00931569468230009,
      "y": -0.003359758760780096,
      "z": -0.014202617108821869,
      "time_usec": 213849900576
    },
    {
      "x": 0.010537425056099892,
      "y": -0.004581489134579897,
      "z": -0.01542434748262167,
      "time_usec": 213849902833
    },
    {
      "x": 0.013133603148162365,
      "y": -0.003512475173920393,
      "z": -0.014202617108821869,
      "time_usec": 213849905088
    },
    {
      "x": 0.012980886735022068,
      "y": -0.010690141469240189,
      "z": -0.01664607785642147,
      "time_usec": 213849907348
    },
    {
      "x": 0.015577063895761967,
      "y": -0.004734205547720194,
      "z": -0.017867809161543846,
      "time_usec": 213849909606
    },
    {
      "x": 0.01924225501716137,
      "y": -0.005955935921519995,
      "z": -0.014202617108821869,
      "time_usec": 213849911864
    },
    {
      "x": 0.02168571576476097,
      "y": -0.009621127508580685,
      "z": -0.01664607785642147,
      "time_usec": 213849914114
    },
    {
      "x": 0.020463986322283745,
      "y": -0.008399397134780884,
      "z": -0.014202617108821869,
      "time_usec": 213849916366
    },
    {
      "x": 0.020463986322283745,
      "y": -0.007177666760981083,
      "z": -0.01664607785642147,
      "time_usec": 213849918636
    },
    {
      "x": 0.022907447069883347,
      "y": -0.006108652334660292,
      "z": -0.020311269909143448,
      "time_usec": 213849920895
    },
    {
      "x": 0.025503624230623245,
      "y": -0.004886921960860491,
      "z": -0.02275473065674305,
      "time_usec": 213849923154
    },
    {
      "x": 0.029168816283345222,
      "y": -1.5271631127689034E-4,
      "z": -0.02519819140434265,
      "time_usec": 213849925403
    },
    {
      "x": 0.030543262138962746,
      "y": 0.004581489134579897,
      "z": -0.026419922709465027,
      "time_usec": 213849927661
    },
    {
      "x": 0.03298672288656235,
      "y": 0.012980886735022068,
      "z": -0.02626720629632473,
      "time_usec": 213849929920
    },
    {
      "x": 0.03420845419168472,
      "y": 0.012980886735022068,
      "z": -0.027488935738801956,
      "time_usec": 213849932182
    },
    {
      "x": 0.03298672288656235,
      "y": 0.011759156361222267,
      "z": -0.027488935738801956,
      "time_usec": 213849934430
    },
    {
      "x": 0.036651913076639175,
      "y": 0.010537425056099892,
      "z": -0.022602014243602753,
      "time_usec": 213849936697
    },
    {
      "x": 0.039095375686883926,
      "y": 0.00809396430850029,
      "z": -0.02382374368607998,
      "time_usec": 213849938951
    },
    {
      "x": 0.039095375686883926,
      "y": 0.010537425056099892,
      "z": -0.02015855349600315,
      "time_usec": 213849941215
    },
    {
      "x": 0.039095375686883926,
      "y": 0.00931569468230009,
      "z": -0.022602014243602753,
      "time_usec": 213849943469
    },
    {
      "x": 0.04535674303770065,
      "y": 0.00931569468230009,
      "z": -0.02015855349600315,
      "time_usec": 213849945723
    },
    {
      "x": 0.04657847434282303,
      "y": 0.010537425056099892,
      "z": -0.018936822190880775,
      "time_usec": 213849947985
    },
    {
      "x": 0.047800205647945404,
      "y": 0.00931569468230009,
      "z": -0.01771509274840355,
      "time_usec": 213849950240
    },
    {
      "x": 0.047800205647945404,
      "y": 0.011759156361222267,
      "z": -0.01771509274840355,
      "time_usec": 213849952501
    },
    {
      "x": 0.05146539583802223,
      "y": 0.012828170321881771,
      "z": -0.015118914656341076,
      "time_usec": 213849954753
    },
    {
      "x": 0.050243668258190155,
      "y": 0.012828170321881771,
      "z": -0.012675453908741474,
      "time_usec": 213849957017
    },
    {
      "x": 0.047800205647945404,
      "y": 0.011759156361222267,
      "z": -0.011453723534941673,
      "time_usec": 213849959273
    },
    {
      "x": 0.050243668258190155,
      "y": 0.00809396430850029,
      "z": -0.010231993161141872,
      "time_usec": 213849961531
    },
    {
      "x": 0.04657847434282303,
      "y": 0.010537425056099892,
      "z": -0.009010262787342072,
      "time_usec": 213849963782
    },
    {
      "x": 0.04902193695306778,
      "y": 0.00809396430850029,
      "z": -0.007788531947880983,
      "time_usec": 213849966040
    },
    {
      "x": 0.047800205647945404,
      "y": 0.00809396430850029,
      "z": -0.010231993161141872,
      "time_usec": 213849968298
    },
    {
      "x": 0.04902193695306778,
      "y": 0.00931569468230009,
      "z": -0.009010262787342072,
      "time_usec": 213849970562
    },
    {
      "x": 0.04902193695306778,
      "y": 0.00931569468230009,
      "z": -0.011453723534941673,
      "time_usec": 213849972819
    },
    {
      "x": 0.047800205647945404,
      "y": 0.00931569468230009,
      "z": -0.011453723534941673,
      "time_usec": 213849975073
    },
    {
      "x": 0.050243668258190155,
      "y": 0.006872233934700489,
      "z": -0.011453723534941673,
      "time_usec": 213849977334
    },
    {
      "x": 0.05268712714314461,
      "y": 0.005650503560900688,
      "z": -0.012675453908741474,
      "time_usec": 213849979592
    },
    {
      "x": 0.05390885844826698,
      "y": 0.0032070425804704428,
      "z": -0.015118914656341076,
      "time_usec": 213849981850
    },
    {
      "x": 0.05390885844826698,
      "y": 7.635815418325365E-4,
      "z": -0.015118914656341076,
      "time_usec": 213849984102
    },
    {
      "x": 0.06001751124858856,
      "y": -0.001679879380390048,
      "z": -0.017562376335263252,
      "time_usec": 213849986361
    },
    {
      "x": 0.06123924255371094,
      "y": -0.001679879380390048,
      "z": -0.020005837082862854,
      "time_usec": 213849988622
    },
    {
      "x": 0.06383541971445084,
      "y": -0.001679879380390048,
      "z": -0.01878410577774048,
      "time_usec": 213849990881
    },
    {
      "x": 0.06505715101957321,
      "y": -0.004123340360820293,
      "z": -0.01878410577774048,
      "time_usec": 213849993138
    },
    {
      "x": 0.06994406878948212,
      "y": -0.006719517521560192,
      "z": -0.020005837082862854,
      "time_usec": 213849995391
    },
    {
      "x": 0.07360926270484924,
      "y": -0.005497787147760391,
      "z": -0.02122756652534008,
      "time_usec": 213849997654
    },
    {
      "x": 0.07620543986558914,
      "y": -0.0032070425804704428,
      "z": -0.022449297830462456,
      "time_usec": 213849999914
    },
    {
      "x": 0.07483099400997162,
      "y": -0.003054326167330146,
      "z": -0.02122756652534008,
      "time_usec": 213850002168
    },
    {
      "x": 0.07864890247583389,
      "y": 4.5814894838258624E-4,
      "z": -0.022449297830462456,
      "time_usec": 213850004418
    },
    {
      "x": 0.07987063378095627,
      "y": 4.5814894838258624E-4,
      "z": -0.022449297830462456,
      "time_usec": 213850006667
    },
    {
      "x": 0.08597928285598755,
      "y": -9.162978967651725E-4,
      "z": -0.021074850112199783,
      "time_usec": 213850008929
    },
    {
      "x": 0.08735372871160507,
      "y": 3.054326225537807E-4,
      "z": -0.021074850112199783,
      "time_usec": 213850011199
    },
    {
      "x": 0.08857546001672745,
      "y": 3.054326225537807E-4,
      "z": -0.021074850112199783,
      "time_usec": 213850013458
    },
    {
      "x": 0.09468411654233932,
      "y": -0.002138028386980295,
      "z": -0.02229658141732216,
      "time_usec": 213850015711
    },
    {
      "x": 0.09468411654233932,
      "y": -0.002138028386980295,
      "z": -0.02229658141732216,
      "time_usec": 213850017973
    },
    {
      "x": 0.09712757170200348,
      "y": -0.007024950347840786,
      "z": -0.019853120669722557,
      "time_usec": 213850020237
    },
    {
      "x": 0.09712757170200348,
      "y": -0.008246680721640587,
      "z": -0.019853120669722557,
      "time_usec": 213850022487
    },
    {
      "x": 0.09957103431224823,
      "y": -0.01191187184303999,
      "z": -0.02229658141732216,
      "time_usec": 213850024739
    },
    {
      "x": 0.10201449692249298,
      "y": -0.010690141469240189,
      "z": -0.021074850112199783,
      "time_usec": 213850026998
    },
    {
      "x": 0.10690141469240189,
      "y": -0.014355333521962166,
      "z": -0.02229658141732216,
      "time_usec": 213850029254
    },
    {
      "x": 0.10949759185314178,
      "y": -0.014355333521962166,
      "z": -0.021074850112199783,
      "time_usec": 213850031518
    },
    {
      "x": 0.11804971098899841,
      "y": -0.016951510682702065,
      "z": -0.024587325751781464,
      "time_usec": 213850033771
    },
    {
      "x": 0.11927144229412079,
      "y": -0.024129176512360573,
      "z": -0.023365596309304237,
      "time_usec": 213850036020
    },
    {
      "x": 0.11927144229412079,
      "y": -0.02779436856508255,
      "z": -0.02474004216492176,
      "time_usec": 213850038290
    },
    {
      "x": 0.12293662875890732,
      "y": -0.03390302136540413,
      "z": -0.029626963660120964,
      "time_usec": 213850040548
    },
    {
      "x": 0.1264491081237793,
      "y": -0.047189339995384216,
      "z": -0.03451388701796532,
      "time_usec": 213850042807
    },
    {
      "x": 0.13255776464939117,
      "y": -0.06658431142568588,
      "z": -0.04306599870324135,
      "time_usec": 213850045057
    },
    {
      "x": 0.13255776464939117,
      "y": -0.07864890247583389,
      "z": -0.04917465150356293,
      "time_usec": 213850047320
    },
    {
      "x": 0.1336267739534378,
      "y": -0.09315694868564606,
      "z": -0.05543602257966995,
      "time_usec": 213850049574
    },
    {
      "x": 0.1336267739534378,
      "y": -0.10522153973579407,
      "z": -0.05910121276974678,
      "time_usec": 213850051823
    },
    {
      "x": 0.13973543047904968,
      "y": -0.11133018881082535,
      "z": -0.06520986557006836,
      "time_usec": 213850054090
    },
    {
      "x": 0.14217889308929443,
      "y": -0.1137736514210701,
      "z": -0.06643159687519073,
      "time_usec": 213850056346
    },
    {
      "x": 0.14217889308929443,
      "y": -0.11743884533643723,
      "z": -0.06765332818031311,
      "time_usec": 213850058612
    },
    {
      "x": 0.14217889308929443,
      "y": -0.11010845750570297,
      "z": -0.07009678333997726,
      "time_usec": 213850060867
    },
    {
      "x": 0.14966198801994324,
      "y": -0.10659598559141159,
      "z": -0.06505715101957321,
      "time_usec": 213850063123
    },
    {
      "x": 0.15592335164546967,
      "y": -0.10308351367712021,
      "z": -0.061391957104206085,
      "time_usec": 213850065376
    },
    {
      "x": 0.1595885455608368,
      "y": -0.08979719132184982,
      "z": -0.05650503560900688,
      "time_usec": 213850067639
    },
    {
      "x": 0.16462817788124084,
      "y": -0.07788532227277756,
      "z": -0.05146539583802223,
      "time_usec": 213850069896
    },
    {
      "x": 0.16722436249256134,
      "y": -0.06215553730726242,
      "z": -0.04535674303770065,
      "time_usec": 213850072154
    },
    {
      "x": 0.17608191072940826,
      "y": -0.04306599870324135,
      "z": -0.039095375686883926,
      "time_usec": 213850074406
    },
    {
      "x": 0.18096883594989777,
      "y": -0.031001411378383636,
      "z": -0.03039054572582245,
      "time_usec": 213850076669
    },
    {
      "x": 0.18860463798046112,
      "y": -0.01542434748262167,
      "z": -0.020616702735424042,
      "time_usec": 213850078923
    },
    {
      "x": 0.19853121042251587,
      "y": -0.0010690141934901476,
      "z": -0.010690141469240189,
      "time_usec": 213850081185
    },
    {
      "x": 0.20845776796340942,
      "y": 0.00855211354792118,
      "z": -0.004428773187100887,
      "time_usec": 213850083440
    },
    {
      "x": 0.21960605680942535,
      "y": 0.016798794269561768,
      "z": 0.006719517521560192,
      "time_usec": 213850085697
    },
    {
      "x": 0.23197607696056366,
      "y": 0.02871066704392433,
      "z": 0.011759156361222267,
      "time_usec": 213850087963
    },
    {
      "x": 0.2444988191127777,
      "y": 0.038179077208042145,
      "z": 0.01664607785642147,
      "time_usec": 213850090214
    },
    {
      "x": 0.25564709305763245,
      "y": 0.051312681287527084,
      "z": 0.02535090781748295,
      "time_usec": 213850092472
    },
    {
      "x": 0.2704605758190155,
      "y": 0.05726861581206322,
      "z": 0.029168816283345222,
      "time_usec": 213850094725
    },
    {
      "x": 0.2828305959701538,
      "y": 0.06185010448098183,
      "z": 0.03420845419168472,
      "time_usec": 213850096986
    },
    {
      "x": 0.2941316068172455,
      "y": 0.06780604273080826,
      "z": 0.03787364438176155,
      "time_usec": 213850099240
    },
    {
      "x": 0.3026837408542633,
      "y": 0.06887505948543549,
      "z": 0.0429132841527462,
      "time_usec": 213850101504
    },
    {
      "x": 0.31123584508895874,
      "y": 0.06520986557006836,
      "z": 0.04535674303770065,
      "time_usec": 213850103759
    },
    {
      "x": 0.3223841190338135,
      "y": 0.060322944074869156,
      "z": 0.0429132841527462,
      "time_usec": 213850106012
    },
    {
      "x": 0.327271044254303,
      "y": 0.04932736977934837,
      "z": 0.04657847434282303,
      "time_usec": 213850108269
    },
    {
      "x": 0.33337971568107605,
      "y": 0.036041051149368286,
      "z": 0.04657847434282303,
      "time_usec": 213850110533
    },
    {
      "x": 0.3381139039993286,
      "y": 0.02168571576476097,
      "z": 0.052839845418930054,
      "time_usec": 213850112792
    },
    {
      "x": 0.34177911281585693,
      "y": 0.008399397134780884,
      "z": 0.052839845418930054,
      "time_usec": 213850115045
    },
    {
      "x": 0.34406983852386475,
      "y": -0.004886921960860491,
      "z": 0.055283304303884506,
      "time_usec": 213850117306
    },
    {
      "x": 0.3465133011341095,
      "y": -0.010995574295520782,
      "z": 0.05650503560900688,
      "time_usec": 213850119563
    },
    {
      "x": 0.34773504734039307,
      "y": -0.016951510682702065,
      "z": 0.05650503560900688,
      "time_usec": 213850121823
    },
    {
      "x": 0.34758231043815613,
      "y": -0.02535090781748295,
      "z": 0.056352317333221436,
      "time_usec": 213850124078
    },
    {
      "x": 0.3500257730484009,
      "y": -0.029016099870204926,
      "z": 0.05146539583802223,
      "time_usec": 213850126331
    },
    {
      "x": 0.3550654351711273,
      "y": -0.029168816283345222,
      "z": 0.052839845418930054,
      "time_usec": 213850128594
    },
    {
      "x": 0.35750889778137207,
      "y": -0.031612277030944824,
      "z": 0.04917465150356293,
      "time_usec": 213850130853
    },
    {
      "x": 0.35384368896484375,
      "y": -0.029168816283345222,
      "z": 0.04902193695306778,
      "time_usec": 213850133108
    },
    {
      "x": 0.3501785099506378,
      "y": -0.02428189292550087,
      "z": 0.04657847434282303,
      "time_usec": 213850135354
    },
    {
      "x": 0.34773504734039307,
      "y": -0.023060163483023643,
      "z": 0.047800205647945404,
      "time_usec": 213850137624
    },
    {
      "x": 0.34513887763023376,
      "y": -0.02535090781748295,
      "z": 0.04657847434282303,
      "time_usec": 213850139883
    },
    {
      "x": 0.342695415019989,
      "y": -0.02779436856508255,
      "z": 0.04657847434282303,
      "time_usec": 213850142142
    },
    {
      "x": 0.3390302062034607,
      "y": -0.019394971430301666,
      "z": 0.04535674303770065,
      "time_usec": 213850144392
    },
    {
      "x": 0.33658674359321594,
      "y": -0.022907447069883347,
      "z": 0.044135015457868576,
      "time_usec": 213850146657
    },
    {
      "x": 0.33658674359321594,
      "y": -0.02168571576476097,
      "z": 0.04657847434282303,
      "time_usec": 213850148919
    },
    {
      "x": 0.33047810196876526,
      "y": -0.01924225501716137,
      "z": 0.044135015457868576,
      "time_usec": 213850151170
    },
    {
      "x": 0.32910364866256714,
      "y": -0.01924225501716137,
      "z": 0.04535674303770065,
      "time_usec": 213850153421
    },
    {
      "x": 0.32910364866256714,
      "y": -0.021532999351620674,
      "z": 0.04657847434282303,
      "time_usec": 213850155678
    },
    {
      "x": 0.3315471112728119,
      "y": -0.02168571576476097,
      "z": 0.044135015457868576,
      "time_usec": 213850157939
    },
    {
      "x": 0.3292563557624817,
      "y": -0.016798794269561768,
      "z": 0.04535674303770065,
      "time_usec": 213850160202
    },
    {
      "x": 0.33169981837272644,
      "y": -0.018020525574684143,
      "z": 0.0429132841527462,
      "time_usec": 213850162458
    },
    {
      "x": 0.33658674359321594,
      "y": -0.01924225501716137,
      "z": 0.0429132841527462,
      "time_usec": 213850164709
    },
    {
      "x": 0.3390302062034607,
      "y": -0.020616702735424042,
      "z": 0.04046982154250145,
      "time_usec": 213850166963
    },
    {
      "x": 0.34406983852386475,
      "y": -0.019547687843441963,
      "z": 0.033139441162347794,
      "time_usec": 213850169234
    },
    {
      "x": 0.351400226354599,
      "y": -0.02076941914856434,
      "z": 0.033139441162347794,
      "time_usec": 213850171487
    },
    {
      "x": 0.35521814227104187,
      "y": -0.025656340643763542,
      "z": 0.027030786499381065,
      "time_usec": 213850173733
    },
    {
      "x": 0.35643985867500305,
      "y": -0.02932153269648552,
      "z": 0.023365596309304237,
      "time_usec": 213850175987
    },
    {
      "x": 0.36010506749153137,
      "y": -0.029474247246980667,
      "z": 0.01725694350898266,
      "time_usec": 213850178250
    },
    {
      "x": 0.3674354553222656,
      "y": -0.03680463135242462,
      "z": 0.01725694350898266,
      "time_usec": 213850180526
    },
    {
      "x": 0.3686571717262268,
      "y": -0.0403171069920063,
      "z": 0.014813481830060482,
      "time_usec": 213850182779
    },
    {
      "x": 0.37110063433647156,
      "y": -0.04764748737215996,
      "z": 0.0074830991216003895,
      "time_usec": 213850185033
    },
    {
      "x": 0.37110063433647156,
      "y": -0.05375614017248154,
      "z": 0.0025961773935705423,
      "time_usec": 213850187291
    },
    {
      "x": 0.37110063433647156,
      "y": -0.05864306539297104,
      "z": -0.0024434609804302454,
      "time_usec": 213850189549
    },
    {
      "x": 0.370947927236557,
      "y": -0.06704246252775192,
      "z": -0.006108652334660292,
      "time_usec": 213850191808
    },
    {
      "x": 0.36850446462631226,
      "y": -0.07299839705228806,
      "z": -0.012217304669320583,
      "time_usec": 213850194064
    },
    {
      "x": 0.3672827184200287,
      "y": -0.07788532227277756,
      "z": -0.018325956538319588,
      "time_usec": 213850196318
    },
    {
      "x": 0.3634648323059082,
      "y": -0.08384125679731369,
      "z": -0.024587325751781464,
      "time_usec": 213850198580
    },
    {
      "x": 0.36224308609962463,
      "y": -0.0887281745672226,
      "z": -0.02825251780450344,
      "time_usec": 213850200838
    },
    {
      "x": 0.36102136969566345,
      "y": -0.0887281745672226,
      "z": -0.033139441162347794,
      "time_usec": 213850203094
    },
    {
      "x": 0.3549126982688904,
      "y": -0.08994990587234497,
      "z": -0.038179077208042145,
      "time_usec": 213850205341
    },
    {
      "x": 0.35124751925468445,
      "y": -0.08628471940755844,
      "z": -0.044287730008363724,
      "time_usec": 213850207615
    },
    {
      "x": 0.3488040566444397,
      "y": -0.08506298810243607,
      "z": -0.04917465150356293,
      "time_usec": 213850209868
    },
    {
      "x": 0.34636059403419495,
      "y": -0.08017606288194656,
      "z": -0.05161811411380768,
      "time_usec": 213850212129
    },
    {
      "x": 0.34636059403419495,
      "y": -0.07422012835741043,
      "z": -0.05161811411380768,
      "time_usec": 213850214377
    },
    {
      "x": 0.34025195240974426,
      "y": -0.07299839705228806,
      "z": -0.05650503560900688,
      "time_usec": 213850216641
    },
    {
      "x": 0.3378084897994995,
      "y": -0.07177666574716568,
      "z": -0.05910121276974678,
      "time_usec": 213850218898
    },
    {
      "x": 0.3341432809829712,
      "y": -0.06811147183179855,
      "z": -0.05910121276974678,
      "time_usec": 213850221157
    },
    {
      "x": 0.33047810196876526,
      "y": -0.06444628536701202,
      "z": -0.060322944074869156,
      "time_usec": 213850223407
    },
    {
      "x": 0.33047810196876526,
      "y": -0.06444628536701202,
      "z": -0.05910121276974678,
      "time_usec": 213850225665
    },
    {
      "x": 0.33169981837272644,
      "y": -0.0656680166721344,
      "z": -0.06154467165470123,
      "time_usec": 213850227924
    },
    {
      "x": 0.3341432809829712,
      "y": -0.06459899991750717,
      "z": -0.06520986557006836,
      "time_usec": 213850230188
    },
    {
      "x": 0.33169981837272644,
      "y": -0.0633772686123848,
      "z": -0.06765332818031311,
      "time_usec": 213850232444
    },
    {
      "x": 0.33047810196876526,
      "y": -0.060933809727430344,
      "z": -0.06643159687519073,
      "time_usec": 213850234699
    },
    {
      "x": 0.3292563557624817,
      "y": -0.06215553730726242,
      "z": -0.06765332818031311,
