{
  "accelerations": [
    {
      "x": -9.784252166748047,
      "y": -0.07537391036748886,
      "z": 0.09930214285850525,
      "time_usec": 4202918094
    },
    {
      "x": -9.78843879699707,
      "y": -0.06580262631177902,
      "z": 0.07537391036748886,
      "time_usec": 4202920355
    },
    {
      "x": -9.793225288391113,
      "y": -0.04187439754605293,
      "z": 0.06580262631177902,
      "time_usec": 4202922605
    },
    {
      "x": -9.802796363830566,
      "y": -0.0323031060397625,
      "z": 0.061016976833343506,
      "time_usec": 4202924852
    },
    {
      "x": -9.807581901550293,
      "y": -0.02751746028661728,
      "z": 0.07058826833963394,
      "time_usec": 4202927119
    },
    {
      "x": -9.821938514709473,
      "y": -0.04187439754605293,
      "z": 0.05144568532705307,
      "time_usec": 4202929367
    },
    {
      "x": -9.841081619262695,
      "y": -0.06580262631177902,
      "z": 0.06041877344250679,
      "time_usec": 4202931641
    },
    {
      "x": -9.855438232421875,
      "y": -0.06041877344250679,
      "z": 0.07956135272979736,
      "time_usec": 4202933895
    },
    {
      "x": -9.855438232421875,
      "y": -0.05563312768936157,
      "z": 0.09391828626394272,
      "time_usec": 4202936156
    },
    {
      "x": -9.855438232421875,
      "y": -0.07956135272979736,
      "z": 0.11306086927652359,
      "time_usec": 4202938411
    },
    {
      "x": -9.860223770141602,
      "y": -0.07477571070194244,
      "z": 0.16091732680797577,
      "time_usec": 4202940666
    },
    {
      "x": -9.860821723937988,
      "y": -0.08434699475765228,
      "z": 0.18963119387626648,
      "time_usec": 4202942923
    },
    {
      "x": -9.884750366210938,
      "y": -0.08434699475765228,
      "z": 0.24167509377002716,
      "time_usec": 4202945181
    },
    {
      "x": -9.899106979370117,
      "y": -0.08374879509210587,
      "z": 0.2991028428077698,
      "time_usec": 4202947435
    },
    {
      "x": -9.927821159362793,
      "y": -0.07417750358581543,
      "z": 0.31824541091918945,
      "time_usec": 4202949683
    },
    {
      "x": -9.942177772521973,
      "y": -0.10289137065410614,
      "z": 0.3613162338733673,
      "time_usec": 4202951953
    },
    {
      "x": -9.966106414794922,
      "y": -0.10707881301641464,
      "z": 0.4181457459926605,
      "time_usec": 4202954211
    },
    {
      "x": -9.980463027954102,
      "y": -0.12143574655056,
      "z": 0.42293140292167664,
      "time_usec": 4202956472
    },
    {
      "x": -9.970891952514648,
      "y": -0.12203395366668701,
      "z": 0.4085744619369507,
      "time_usec": 4202958722
    },
    {
      "x": -9.980463027954102,
      "y": -0.12622138857841492,
      "z": 0.39900317788124084,
      "time_usec": 4202960969
    },
    {
      "x": -9.990034103393555,
      "y": -0.13100704550743103,
      "z": 0.3798605799674988,
      "time_usec": 4202963239
    },
    {
      "x": -9.994820594787598,
      "y": -0.1453639715909958,
      "z": 0.3415754437446594,
      "time_usec": 4202965499
    },
    {
      "x": -9.990034103393555,
      "y": -0.15553347766399384,
      "z": 0.3320041298866272,
      "time_usec": 4202967763
    },
    {
      "x": -9.975677490234375,
      "y": -0.15074782073497772,
      "z": 0.3128615617752075,
      "time_usec": 4202970007
    },
    {
      "x": -9.966106414794922,
      "y": -0.1698904037475586,
      "z": 0.29431718587875366,
      "time_usec": 4202972269
    },
    {
      "x": -9.93260669708252,
      "y": -0.15074782073497772,
      "z": 0.28953152894973755,
      "time_usec": 4202974525
    },
    {
      "x": -9.903892517089844,
      "y": -0.15613168478012085,
      "z": 0.26081767678260803,
      "time_usec": 4202976780
    },
    {
      "x": -9.866206169128418,
      "y": -0.16091732680797577,
      "z": 0.251844584941864,
      "time_usec": 4202979037
    },
    {
      "x": -9.847063064575195,
      "y": -0.14656038582324982,
      "z": 0.24227328598499298,
      "time_usec": 4202981298
    },
    {
      "x": -9.832706451416016,
      "y": -0.15613168478012085,
      "z": 0.2231307178735733,
      "time_usec": 4202983557
    },
    {
      "x": -9.823135375976562,
      "y": -0.15613168478012085,
      "z": 0.2231307178735733,
      "time_usec": 4202985813
    },
    {
      "x": -9.837491989135742,
      "y": -0.18963119387626648,
      "z": 0.20398813486099243,
      "time_usec": 4202988063
    },
    {
      "x": -9.842277526855469,
      "y": -0.18484555184841156,
      "z": 0.18963119387626648,
      "time_usec": 4202990324
    },
    {
      "x": -9.823135375976562,
      "y": -0.20458634197711945,
      "z": 0.13698910176753998,
      "time_usec": 4202992586
    },
    {
      "x": -9.823135375976562,
      "y": -0.23330020904541016,
      "z": 0.11306086927652359,
      "time_usec": 4202994844
    },
    {
      "x": -9.823135375976562,
      "y": -0.2189432680606842,
      "z": 0.10348957777023315,
      "time_usec": 4202997099
    },
    {
      "x": -9.832108497619629,
      "y": -0.24287149310112,
      "z": 0.07477571070194244,
      "time_usec": 4202999352
    },
    {
      "x": -9.841679573059082,
      "y": -0.2476571500301361,
      "z": 0.07477571070194244,
      "time_usec": 4203001614
    },
    {
      "x": -9.827322959899902,
      "y": -0.2476571500301361,
      "z": 0.08015955984592438,
      "time_usec": 4203003872
    },
    {
      "x": -9.81356430053711,
      "y": -0.25244277715682983,
      "z": 0.07537391036748886,
      "time_usec": 4203006129
    },
    {
      "x": -9.818349838256836,
      "y": -0.2476571500301361,
      "z": 0.09451649338006973,
      "time_usec": 4203008381
    },
    {
      "x": -9.799206733703613,
      "y": -0.22851456701755524,
      "z": 0.11844471842050552,
      "time_usec": 4203010645
    },
    {
      "x": -9.794421195983887,
      "y": -0.22372891008853912,
      "z": 0.12323036789894104,
      "time_usec": 4203012901
    },
    {
      "x": -9.784850120544434,
      "y": -0.18065811693668365,
      "z": 0.12801600992679596,
      "time_usec": 4203015160
    },
    {
      "x": -9.78963565826416,
      "y": -0.18544375896453857,
      "z": 0.137587308883667,
      "time_usec": 4203017415
    },
    {
      "x": -9.77527904510498,
      "y": -0.20937198400497437,
      "z": 0.11844471842050552,
      "time_usec": 4203019665
    },
    {
      "x": -9.760921478271484,
      "y": -0.20458634197711945,
      "z": 0.1136590763926506,
      "time_usec": 4203021918
    },
    {
      "x": -9.751350402832031,
      "y": -0.1950150430202484,
      "z": 0.1136590763926506,
      "time_usec": 4203024188
    },
    {
      "x": -9.751350402832031,
      "y": -0.19561325013637543,
      "z": 0.08973085135221481,
      "time_usec": 4203026445
    },
    {
      "x": -9.723235130310059,
      "y": -0.21954147517681122,
      "z": 0.07537391036748886,
      "time_usec": 4203028701
    },
    {
      "x": -9.717850685119629,
      "y": -0.20997019112110138,
      "z": 0.06640082597732544,
      "time_usec": 4203030960
    },
    {
      "x": -9.704092025756836,
      "y": -0.21954147517681122,
      "z": 0.052043892443180084,
      "time_usec": 4203033217
    },
    {
      "x": -9.68494987487793,
      "y": -0.2147558331489563,
      "z": 0.052043892443180084,
      "time_usec": 4203035476
    },
    {
      "x": -9.670592308044434,
      "y": -0.22432711720466614,
      "z": 0.052043892443180084,
      "time_usec": 4203037731
    },
    {
      "x": -9.632905960083008,
      "y": -0.22492532432079315,
      "z": 0.0568295381963253,
      "time_usec": 4203039985
    },
    {
      "x": -9.618548393249512,
      "y": -0.2392822653055191,
      "z": 0.0568295381963253,
      "time_usec": 4203042246
    },
    {
      "x": -9.613762855529785,
      "y": -0.2392822653055191,
      "z": 0.0526420995593071,
      "time_usec": 4203044503
    },
    {
      "x": -9.604191780090332,
      "y": -0.24406790733337402,
      "z": 0.062213387340307236,
      "time_usec": 4203046759
    },
    {
      "x": -9.613762855529785,
      "y": -0.2679961323738098,
      "z": 0.05742774158716202,
      "time_usec": 4203049014
    },
    {
      "x": -9.590433120727539,
      "y": -0.2679961323738098,
      "z": 0.062213387340307236,
      "time_usec": 4203051276
    },
    {
      "x": -9.5802640914917,
      "y": -0.2632105052471161,
      "z": 0.03349951654672623,
      "time_usec": 4203053533
    },
    {
      "x": -9.580862045288086,
      "y": -0.2925225794315338,
      "z": 0.02392822690308094,
      "time_usec": 4203055788
    },
    {
      "x": -9.56650447845459,
      "y": -0.3164508044719696,
      "z": 0.03349951654672623,
      "time_usec": 4203058045
    },
    {
      "x": -9.571290969848633,
      "y": -0.2925225794315338,
      "z": 0.04307080805301666,
      "time_usec": 4203060301
    },
    {
      "x": -9.580862045288086,
      "y": -0.2967100143432617,
      "z": 0.04785645380616188,
      "time_usec": 4203062551
    },
    {
      "x": -9.589835166931152,
      "y": -0.2584248483181,
      "z": 0.05742774158716202,
      "time_usec": 4203064820
    },
    {
      "x": -9.580862045288086,
      "y": -0.28235307335853577,
      "z": 0.06699903309345245,
      "time_usec": 4203067070
    },
    {
      "x": -9.604789733886719,
      "y": -0.2632105052471161,
      "z": 0.1094716340303421,
      "time_usec": 4203069332
    },
    {
      "x": -9.609575271606445,
      "y": -0.25363919138908386,
      "z": 0.1094716340303421,
      "time_usec": 4203071591
    },
    {
      "x": -9.585647583007812,
      "y": -0.24406790733337402,
      "z": 0.1381855010986328,
      "time_usec": 4203073851
    },
    {
      "x": -9.619147300720215,
      "y": -0.2392822653055191,
      "z": 0.14297115802764893,
      "time_usec": 4203076106
    },
    {
      "x": -9.614361763000488,
      "y": -0.22492532432079315,
      "z": 0.18125630915164948,
      "time_usec": 4203078359
    },
    {
      "x": -9.608977317810059,
      "y": -0.2153540402650833,
      "z": 0.1333998590707779,
      "time_usec": 4203080622
    },
    {
      "x": -9.614959716796875,
      "y": -0.25782662630081177,
      "z": 0.2721835672855377,
      "time_usec": 4203082880
    },
    {
      "x": -9.642477035522461,
      "y": -0.24825534224510193,
      "z": 0.15254244208335876,
      "time_usec": 4203085137
    },
    {
      "x": -9.614959716796875,
      "y": -0.267397940158844,
      "z": 0.27696922421455383,
      "time_usec": 4203087392
    },
    {
      "x": -9.647860527038574,
      "y": -0.2626122832298279,
      "z": 0.22432711720466614,
      "time_usec": 4203089642
    },
    {
      "x": -9.657432556152344,
      "y": -0.2721835672855377,
      "z": 0.20039889216423035,
      "time_usec": 4203091895
    },
    {
      "x": -9.653244972229004,
      "y": -0.28175488114356995,
      "z": 0.3433700501918793,
      "time_usec": 4203094165
    },
    {
      "x": -9.675976753234863,
      "y": -0.27696922421455383,
      "z": 0.18125630915164948,
      "time_usec": 4203096423
    },
    {
      "x": -9.66221809387207,
      "y": -0.2721835672855377,
      "z": 0.28115665912628174,
      "time_usec": 4203098678
    },
    {
      "x": -9.681360244750977,
      "y": -0.267397940158844,
      "z": 0.25244277715682983,
      "time_usec": 4203100936
    },
    {
      "x": -9.68076229095459,
      "y": -0.243469700217247,
      "z": 0.2189432680606842,
      "time_usec": 4203103195
    },
    {
      "x": -9.671789169311523,
      "y": -0.20518454909324646,
      "z": 0.25244277715682983,
      "time_usec": 4203105453
    },
    {
      "x": -9.685547828674316,
      "y": -0.21954147517681122,
      "z": 0.2189432680606842,
      "time_usec": 4203107708
    },
    {
      "x": -9.68076229095459,
      "y": -0.19561325013637543,
      "z": 0.2189432680606842,
      "time_usec": 4203109962
    },
    {
      "x": -9.661619186401367,
      "y": -0.17647066712379456,
      "z": 0.21954147517681122,
      "time_usec": 4203112222
    },
    {
      "x": -9.68076229095459,
      "y": -0.17647066712379456,
      "z": 0.1950150430202484,
      "time_usec": 4203114467
    },
    {
      "x": -9.675976753234863,
      "y": -0.17647066712379456,
      "z": 0.20458634197711945,
      "time_usec": 4203116726
    },
    {
      "x": -9.68076229095459,
      "y": -0.1621137410402298,
      "z": 0.2189432680606842,
      "time_usec": 4203118992
    },
    {
      "x": -9.68076229095459,
      "y": -0.1621137410402298,
      "z": 0.22851456701755524,
      "time_usec": 4203121257
    },
    {
      "x": -9.68076229095459,
      "y": -0.16689938306808472,
      "z": 0.25244277715682983,
      "time_usec": 4203123515
    },
    {
      "x": -9.699904441833496,
      "y": -0.18544375896453857,
      "z": 0.2955136001110077,
      "time_usec": 4203125761
    },
    {
      "x": -9.67657470703125,
      "y": -0.20518454909324646,
      "z": 0.3242274820804596,
      "time_usec": 4203128011
    },
    {
      "x": -9.705288887023926,
      "y": -0.1950150430202484,
      "z": 0.33379876613616943,
      "time_usec": 4203130278
    },
    {
      "x": -9.695717811584473,
      "y": -0.20458634197711945,
      "z": 0.33858439326286316,
      "time_usec": 4203132542
    },
    {
      "x": -9.705288887023926,
      "y": -0.19980068504810333,
      "z": 0.3194418251514435,
      "time_usec": 4203134806
    },
    {
      "x": -9.7005033493042,
      "y": -0.20937198400497437,
      "z": 0.3242274820804596,
      "time_usec": 4203137051
    },
    {
      "x": -9.7005033493042,
      "y": -0.20458634197711945,
      "z": 0.30508488416671753,
      "time_usec": 4203139307
    },
    {
      "x": -9.714262008666992,
      "y": -0.1902294009923935,
      "z": 0.2715853750705719,
      "time_usec": 4203141569
    },
    {
      "x": -9.704689979553223,
      "y": -0.20039889216423035,
      "z": 0.22851456701755524,
      "time_usec": 4203143825
    },
    {
      "x": -9.704689979553223,
      "y": -0.17647066712379456,
      "z": 0.22851456701755524,
      "time_usec": 4203146072
    },
    {
      "x": -9.690333366394043,
      "y": -0.1621137410402298,
      "z": 0.20458634197711945,
      "time_usec": 4203148336
    },
    {
      "x": -9.699904441833496,
      "y": -0.17168502509593964,
      "z": 0.2189432680606842,
      "time_usec": 4203150599
    },
    {
      "x": -9.699904441833496,
      "y": -0.1621137410402298,
      "z": 0.22372891008853912,
      "time_usec": 4203152859
    },
    {
      "x": -9.713663101196289,
      "y": -0.14715859293937683,
      "z": 0.22851456701755524,
      "time_usec": 4203155116
    },
    {
      "x": -9.723235130310059,
      "y": -0.12801600992679596,
      "z": 0.23330020904541016,
      "time_usec": 4203157369
    },
    {
      "x": -9.751948356628418,
      "y": -0.11844471842050552,
      "z": 0.23808585107326508,
      "time_usec": 4203159620
    },
    {
      "x": -9.751948356628418,
      "y": -0.09930214285850525,
      "z": 0.24287149310112,
      "time_usec": 4203161872
    },
    {
      "x": -9.765707015991211,
      "y": -0.06580262631177902,
      "z": 0.2566302418708801,
      "time_usec": 4203164143
    },
    {
      "x": -9.751350402832031,
      "y": -0.07058826833963394,
      "z": 0.26201409101486206,
      "time_usec": 4203166400
    },
    {
      "x": -9.756135940551758,
      "y": -0.05623133108019829,
      "z": 0.2715853750705719,
      "time_usec": 4203168656
    },
    {
      "x": -9.765707015991211,
      "y": -0.04187439754605293,
      "z": 0.2757728099822998,
      "time_usec": 4203170917
    },
    {
      "x": -9.80817985534668,
      "y": -0.03170489892363548,
      "z": 0.2709871530532837,
      "time_usec": 4203173173
    },
    {
      "x": -9.784252166748047,
      "y": -0.017946170642971992,
      "z": 0.22791635990142822,
      "time_usec": 4203175431
    },
    {
      "x": -9.755537986755371,
      "y": 0.005982056725770235,
      "z": 0.19980068504810333,
      "time_usec": 4203177683
    },
    {
      "x": -9.750752449035645,
      "y": 0.005982056725770235,
      "z": 0.18065811693668365,
      "time_usec": 4203179931
    },
    {
      "x": -9.678967475891113,
      "y": 0.010169495828449726,
      "z": 0.1333998590707779,
      "time_usec": 4203182201
    },
    {
      "x": -9.736394882202148,
      "y": -0.003589233849197626,
      "z": 0.10887342691421509,
      "time_usec": 4203184460
    },
    {
      "x": -9.741181373596191,
      "y": -0.017946170642971992,
      "z": 0.09930214285850525,
      "time_usec": 4203186718
    },
    {
      "x": -9.750154495239258,
      "y": -0.02751746028661728,
      "z": 0.07537391036748886,
      "time_usec": 4203188969
    },
    {
      "x": -9.702896118164062,
      "y": -0.04247260093688965,
      "z": 0.09032905846834183,
      "time_usec": 4203191232
    },
    {
      "x": -9.698110580444336,
      "y": -0.03768695518374443,
      "z": 0.10468599200248718,
      "time_usec": 4203193488
    },
    {
      "x": -9.66520881652832,
      "y": -0.06640082597732544,
      "z": 0.1094716340303421,
      "time_usec": 4203195746
    },
    {
      "x": -9.65085220336914,
      "y": -0.06161518394947052,
      "z": 0.09990034252405167,
      "time_usec": 4203197996
    },
    {
      "x": -9.613164901733398,
      "y": -0.07178468257188797,
      "z": 0.11904292553663254,
      "time_usec": 4203200257
    },
    {
      "x": -9.603593826293945,
      "y": -0.07657032459974289,
      "z": 0.1381855010986328,
      "time_usec": 4203202514
    },
    {
      "x": -9.617950439453125,
      "y": -0.07657032459974289,
      "z": 0.1381855010986328,
      "time_usec": 4203204760
    },
    {
      "x": -9.608977317810059,
      "y": -0.09092725813388824,
      "z": 0.17168502509593964,
      "time_usec": 4203207017
    },
    {
      "x": -9.622735977172852,
      "y": -0.06640082597732544,
      "z": 0.20039889216423035,
      "time_usec": 4203209275
    },
    {
      "x": -9.632308006286621,
      "y": -0.06161518394947052,
      "z": 0.21954147517681122,
      "time_usec": 4203211534
    },
    {
      "x": -9.551549911499023,
      "y": -0.0,
      "z": 0.24825534224510193,
      "time_usec": 4203213791
    },
    {
      "x": -9.68494987487793,
      "y": -0.07118647545576096,
      "z": 0.2476571500301361,
      "time_usec": 4203216049
    },
    {
      "x": -9.856036186218262,
      "y": -0.12263216078281403,
      "z": 0.2709871530532837,
      "time_usec": 4203218306
    },
    {
      "x": -9.708279609680176,
      "y": -0.02751746028661728,
      "z": 0.25244277715682983,
      "time_usec": 4203220563
    },
    {
      "x": -9.70349407196045,
      "y": -0.013160524889826775,
      "z": 0.25244277715682983,
      "time_usec": 4203222820
    },
    {
      "x": -9.784252166748047,
      "y": -0.04187439754605293,
      "z": 0.2470589429140091,
      "time_usec": 4203225078
    },
    {
      "x": -9.756135940551758,
      "y": -0.017946170642971992,
      "z": 0.2476571500301361,
      "time_usec": 4203227337
    },
    {
      "x": -9.68913745880127,
      "y": 0.02512463741004467,
      "z": 0.23808585107326508,
      "time_usec": 4203229593
    },
    {
      "x": -9.717850685119629,
      "y": 0.010767702013254166,
      "z": 0.23330020904541016,
      "time_usec": 4203231850
    },
    {
      "x": -9.741181373596191,
      "y": 0.005982056725770235,
      "z": 0.19980068504810333,
      "time_usec": 4203234107
    },
    {
      "x": -9.726823806762695,
      "y": 0.010767702013254166,
      "z": 0.20458634197711945,
      "time_usec": 4203236365
    },
    {
      "x": -9.717850685119629,
      "y": 0.0011964113218709826,
      "z": 0.1950150430202484,
      "time_usec": 4203238622
    },
    {
      "x": -9.745966911315918,
      "y": -0.017946170642971992,
      "z": 0.1950150430202484,
      "time_usec": 4203240879
    },
    {
      "x": -9.779465675354004,
      "y": -0.0323031060397625,
      "z": 0.1663011759519577,
      "time_usec": 4203243138
    },
    {
      "x": -9.789037704467773,
      "y": -0.02751746028661728,
      "z": 0.15672987699508667,
      "time_usec": 4203245395
    },
    {
      "x": -9.784252166748047,
      "y": -0.04187439754605293,
      "z": 0.16151553392410278,
      "time_usec": 4203247653
    },
    {
      "x": -9.79801082611084,
      "y": -0.02751746028661728,
      "z": 0.15194423496723175,
      "time_usec": 4203249919
    },
    {
      "x": -9.7938232421875,
      "y": -0.05144568532705307,
      "z": 0.16151553392410278,
      "time_usec": 4203252182
    },
    {
      "x": -9.803394317626953,
      "y": -0.04666004329919815,
      "z": 0.1704886108636856,
      "time_usec": 4203254438
    },
    {
      "x": -9.803394317626953,
      "y": -0.037088751792907715,
      "z": 0.18484555184841156,
      "time_usec": 4203256691
    },
    {
      "x": -9.812965393066406,
      "y": -0.026919255033135414,
      "z": 0.1944168359041214,
      "time_usec": 4203258943
    },
    {
      "x": -9.817750930786133,
      "y": -0.026919255033135414,
      "z": 0.18963119387626648,
      "time_usec": 4203261196
    },
    {
      "x": -9.832108497619629,
      "y": -0.06041877344250679,
      "z": 0.2231307178735733,
      "time_usec": 4203263464
    },
    {
      "x": -9.832108497619629,
      "y": -0.04127619042992592,
      "z": 0.23748764395713806,
      "time_usec": 4203265710
    },
    {
      "x": -9.860821723937988,
      "y": -0.046061836183071136,
      "z": 0.2709871530532837,
      "time_usec": 4203267976
    },
    {
      "x": -9.851250648498535,
      "y": -0.05563312768936157,
      "z": 0.29012975096702576,
      "time_usec": 4203270224
    },
    {
      "x": -9.842277526855469,
      "y": -0.06999006122350693,
      "z": 0.2949153780937195,
      "time_usec": 4203272482
    },
    {
      "x": -9.861420631408691,
      "y": -0.09870393574237823,
      "z": 0.31824541091918945,
      "time_usec": 4203274741
    },
    {
      "x": -9.865608215332031,
      "y": -0.07956135272979736,
      "z": 0.31824541091918945,
      "time_usec": 4203277011
    },
    {
      "x": -9.889535903930664,
      "y": -0.07896314561367035,
      "z": 0.3326023519039154,
      "time_usec": 4203279265
    },
    {
      "x": -9.894919395446777,
      "y": -0.12681959569454193,
      "z": 0.3517449200153351,
      "time_usec": 4203281527
    },
    {
      "x": -9.89970588684082,
      "y": -0.15074782073497772,
      "z": 0.36610186100006104,
      "time_usec": 4203283773
    },
    {
      "x": -9.9140625,
      "y": -0.13639089465141296,
      "z": 0.3756731450557709,
      "time_usec": 4203286024
    },
    {
      "x": -9.92841911315918,
      "y": -0.13639089465141296,
      "z": 0.37088751792907715,
      "time_usec": 4203288280
    },
    {
      "x": -9.951749801635742,
      "y": -0.1459621787071228,
      "z": 0.389431893825531,
      "time_usec": 4203290542
    },
    {
      "x": -9.961320877075195,
      "y": -0.14117653667926788,
      "z": 0.3846462368965149,
      "time_usec": 4203292813
    },
    {
      "x": -9.966106414794922,
      "y": -0.1459621787071228,
      "z": 0.3846462368965149,
      "time_usec": 4203295062
    },
    {
      "x": -9.966106414794922,
      "y": -0.11724831163883209,
      "z": 0.37028929591178894,
      "time_usec": 4203297316
    },
    {
      "x": -9.9469633102417,
      "y": -0.12203395366668701,
      "z": 0.3655036687850952,
      "time_usec": 4203299576
    },
    {
      "x": -9.937392234802246,
      "y": -0.11246266216039658,
      "z": 0.36610186100006104,
      "time_usec": 4203301829
    },
    {
      "x": -9.875777244567871,
      "y": -0.12263216078281403,
      "z": 0.34217363595962524,
      "time_usec": 4203304098
    },
    {
      "x": -9.875777244567871,
      "y": -0.12263216078281403,
      "z": 0.3278166949748993,
      "time_usec": 4203306342
    },
    {
      "x": -9.866206169128418,
      "y": -0.12263216078281403,
      "z": 0.2991028428077698,
      "time_usec": 4203308609
    },
    {
      "x": -9.856635093688965,
      "y": -0.13698910176753998,
      "z": 0.2757728099822998,
      "time_usec": 4203310865
    },
    {
      "x": -9.870393753051758,
      "y": -0.1417747437953949,
      "z": 0.26141586899757385,
      "time_usec": 4203313130
    },
    {
      "x": -9.851848602294922,
      "y": -0.16091732680797577,
      "z": 0.2470589429140091,
      "time_usec": 4203315386
    },
    {
      "x": -9.832706451416016,
      "y": -0.1417747437953949,
      "z": 0.22791635990142822,
      "time_usec": 4203317641
    },
    {
      "x": -9.837491989135742,
      "y": -0.13220344483852386,
      "z": 0.23748764395713806,
      "time_usec": 4203319886
    },
    {
      "x": -9.823135375976562,
      "y": -0.13698910176753998,
      "z": 0.24227328598499298,
      "time_usec": 4203322156
    },
    {
      "x": -9.80399227142334,
      "y": -0.14715859293937683,
      "z": 0.22791635990142822,
      "time_usec": 4203324413
    },
    {
      "x": -9.77109146118164,
      "y": -0.137587308883667,
      "z": 0.24227328598499298,
      "time_usec": 4203326673
    },
    {
      "x": -9.761520385742188,
      "y": -0.137587308883667,
      "z": 0.2476571500301361,
      "time_usec": 4203328922
    },
    {
      "x": -9.765707015991211,
      "y": -0.13280165195465088,
      "z": 0.23330020904541016,
      "time_usec": 4203331175
    },
    {
      "x": -9.732806205749512,
      "y": -0.10408778488636017,
      "z": 0.23808585107326508,
      "time_usec": 4203333440
    },
    {
      "x": -9.756733894348145,
      "y": -0.1136590763926506,
      "z": 0.2476571500301361,
      "time_usec": 4203335689
    },
    {
      "x": -9.765707015991211,
      "y": -0.08015955984592438,
      "z": 0.25244277715682983,
      "time_usec": 4203337956
    },
    {
      "x": -9.751350402832031,
      "y": -0.061016976833343506,
      "z": 0.24287149310112,
      "time_usec": 4203340215
    },
    {
      "x": -9.741779327392578,
      "y": -0.04666004329919815,
      "z": 0.23808585107326508,
      "time_usec": 4203342475
    },
    {
      "x": -9.77527904510498,
      "y": -0.05623133108019829,
      "z": 0.2566302418708801,
      "time_usec": 4203344731
    },
    {
      "x": -9.722636222839355,
      "y": -0.05144568532705307,
      "z": 0.23808585107326508,
      "time_usec": 4203346986
    },
    {
      "x": -9.827322959899902,
      "y": -0.04127619042992592,
      "z": 0.19920247793197632,
      "time_usec": 4203349239
    },
    {
      "x": -9.756135940551758,
      "y": -0.04666004329919815,
      "z": 0.20458634197711945,
      "time_usec": 4203351502
    },
    {
      "x": -9.722636222839355,
      "y": -0.04187439754605293,
      "z": 0.18544375896453857,
      "time_usec": 4203353760
    },
    {
      "x": -9.7938232421875,
      "y": -0.06580262631177902,
      "z": 0.18065811693668365,
      "time_usec": 4203356016
    },
    {
      "x": -9.760323524475098,
      "y": -0.061016976833343506,
      "z": 0.15672987699508667,
      "time_usec": 4203358269
    },
    {
      "x": -9.741181373596191,
      "y": -0.05144568532705307,
      "z": 0.12801600992679596,
      "time_usec": 4203360530
    },
    {
      "x": -9.750752449035645,
      "y": -0.08015955984592438,
      "z": 0.09451649338006973,
      "time_usec": 4203362786
    },
    {
      "x": -9.741181373596191,
      "y": -0.05623133108019829,
      "z": 0.10408778488636017,
      "time_usec": 4203365052
    },
    {
      "x": -9.717252731323242,
      "y": -0.0568295381963253,
      "z": 0.07597211748361588,
      "time_usec": 4203367302
    },
    {
      "x": -9.717252731323242,
      "y": -0.07597211748361588,
      "z": 0.06161518394947052,
      "time_usec": 4203369557
    },
    {
      "x": -9.717252731323242,
      "y": -0.07597211748361588,
      "z": 0.0568295381963253,
      "time_usec": 4203371815
    },
    {
      "x": -9.707681655883789,
      "y": -0.08075776696205139,
      "z": 0.03290131315588951,
      "time_usec": 4203374064
    },
    {
      "x": -9.698110580444336,
      "y": -0.0568295381963253,
      "z": 0.023330021649599075,
      "time_usec": 4203376332
    },
    {
      "x": -9.702896118164062,
      "y": -0.0568295381963253,
      "z": 0.008973085321485996,
      "time_usec": 4203378585
    },
    {
      "x": -9.688538551330566,
      "y": -0.052043892443180084,
      "z": 0.01375873014330864,
      "time_usec": 4203380853
    },
    {
      "x": -9.698110580444336,
      "y": -0.0568295381963253,
      "z": 0.028115665540099144,
      "time_usec": 4203383101
    },
    {
      "x": -9.707681655883789,
      "y": -0.03290131315588951,
      "z": 0.028115665540099144,
      "time_usec": 4203385351
    },
    {
      "x": -9.707681655883789,
      "y": -0.028115665540099144,
      "z": 0.047258246690034866,
      "time_usec": 4203387617
    },
    {
      "x": -9.688538551330566,
      "y": -0.018544375896453857,
      "z": 0.0568295381963253,
      "time_usec": 4203389873
    },
    {
      "x": -9.702896118164062,
      "y": -0.023330021649599075,
      "z": 0.023330021649599075,
      "time_usec": 4203392137
    },
    {
      "x": -9.688538551330566,
      "y": -0.03768695518374443,
      "z": 0.03290131315588951,
      "time_usec": 4203394391
    },
    {
      "x": -9.707681655883789,
      "y": -0.03768695518374443,
      "z": 0.06161518394947052,
      "time_usec": 4203396648
    },
    {
      "x": -9.702896118164062,
      "y": -0.028115665540099144,
      "z": 0.08554340898990631,
      "time_usec": 4203398901
    },
    {
      "x": -9.698708534240723,
      "y": -0.03290131315588951,
      "z": 0.1333998590707779,
      "time_usec": 4203401164
    },
    {
      "x": -9.722038269042969,
      "y": -0.0323031060397625,
      "z": 0.1423729509115219,
      "time_usec": 4203403421
    },
    {
      "x": -9.736993789672852,
      "y": -0.04666004329919815,
      "z": 0.15672987699508667,
      "time_usec": 4203405679
    },
    {
      "x": -9.756135940551758,
      "y": -0.061016976833343506,
      "z": 0.17587246000766754,
      "time_usec": 4203407931
    },
    {
      "x": -9.765109062194824,
      "y": -0.07537391036748886,
      "z": 0.1663011759519577,
      "time_usec": 4203410186
    },
    {
      "x": -9.770493507385254,
      "y": -0.1136590763926506,
      "z": 0.18065811693668365,
      "time_usec": 4203412437
    },
    {
      "x": -9.78963565826416,
      "y": -0.12323036789894104,
      "z": 0.19920247793197632,
      "time_usec": 4203414708
    },
    {
      "x": -9.80399227142334,
      "y": -0.13280165195465088,
      "z": 0.18484555184841156,
      "time_usec": 4203416964
    },
    {
      "x": -9.817750930786133,
      "y": -0.13280165195465088,
      "z": 0.17527425289154053,
      "time_usec": 4203419220
    },
    {
      "x": -9.822537422180176,
      "y": -0.13280165195465088,
      "z": 0.16091732680797577,
      "time_usec": 4203421479
    },
    {
      "x": -9.817750930786133,
      "y": -0.12801600992679596,
      "z": 0.1704886108636856,
      "time_usec": 4203423737
    },
    {
      "x": -9.832108497619629,
      "y": -0.10348957777023315,
      "z": 0.17527425289154053,
      "time_usec": 4203425995
    },
    {
      "x": -9.822537422180176,
      "y": -0.09391828626394272,
      "z": 0.1944168359041214,
      "time_usec": 4203428246
    },
    {
      "x": -9.827322959899902,
      "y": -0.06520441919565201,
      "z": 0.23270200192928314,
      "time_usec": 4203430508
    },
    {
      "x": -9.812965393066406,
      "y": -0.05563312768936157,
      "z": 0.23748764395713806,
      "time_usec": 4203432763
    },
    {
      "x": -9.856036186218262,
      "y": -0.06041877344250679,
      "z": 0.2805584669113159,
      "time_usec": 4203435025
    },
    {
      "x": -9.870393753051758,
      "y": -0.06520441919565201,
      "z": 0.3326023519039154,
      "time_usec": 4203437279
    },
    {
      "x": -9.865608215332031,
      "y": -0.06520441919565201,
      "z": 0.3326023519039154,
      "time_usec": 4203439533
    },
    {
      "x": -9.889535903930664,
      "y": -0.064606212079525,
      "z": 0.3613162338733673,
      "time_usec": 4203441791
    },
    {
      "x": -9.899106979370117,
      "y": -0.07417750358581543,
      "z": 0.37088751792907715,
      "time_usec": 4203444050
    },
    {
      "x": -9.903892517089844,
      "y": -0.07896314561367035,
      "z": 0.33738797903060913,
      "time_usec": 4203446308
    },
    {
      "x": -9.884750366210938,
      "y": -0.07896314561367035,
      "z": 0.33738797903060913,
      "time_usec": 4203448555
    },
    {
      "x": -9.899106979370117,
      "y": -0.07417750358581543,
      "z": 0.3086741268634796,
      "time_usec": 4203450823
    },
    {
      "x": -9.89432144165039,
      "y": -0.08434699475765228,
      "z": 0.2847459018230438,
      "time_usec": 4203453071
    },
    {
      "x": -9.899106979370117,
      "y": -0.09870393574237823,
      "z": 0.26560330390930176,
      "time_usec": 4203455343
    },
    {
      "x": -9.91286563873291,
      "y": -0.0891326442360878,
      "z": 0.23210379481315613,
      "time_usec": 4203457594
    },
    {
      "x": -9.89850902557373,
      "y": -0.0891326442360878,
      "z": 0.20817556977272034,
      "time_usec": 4203459845
    },
    {
      "x": -9.888937950134277,
      "y": -0.10348957777023315,
      "z": 0.18005990982055664,
      "time_usec": 4203462113
    },
    {
      "x": -9.917651176452637,
      "y": -0.0891326442360878,
      "z": 0.17946170270442963,
      "time_usec": 4203464369
    },
    {
      "x": -9.92243766784668,
      "y": -0.11306086927652359,
      "z": 0.18424734473228455,
      "time_usec": 4203466628
    },
    {
      "x": -9.927223205566406,
      "y": -0.12263216078281403,
      "z": 0.20817556977272034,
      "time_usec": 4203468878
    },
    {
      "x": -9.92243766784668,
      "y": -0.13220344483852386,
      "z": 0.21774685382843018,
      "time_usec": 4203471141
    },
    {
      "x": -9.927223205566406,
      "y": -0.13220344483852386,
      "z": 0.2273181527853012,
      "time_usec": 4203473399
    },
    {
      "x": -9.927223205566406,
      "y": -0.15613168478012085,
      "z": 0.23688943684101105,
      "time_usec": 4203475656
    },
    {
      "x": -9.927821159362793,
      "y": -0.1704886108636856,
      "z": 0.24646073579788208,
      "time_usec": 4203477912
    },
    {
      "x": -9.923035621643066,
      "y": -0.18005990982055664,
      "z": 0.24167509377002716,
      "time_usec": 4203480167
    },
    {
      "x": -9.903892517089844,
      "y": -0.1657029688358307,
      "z": 0.2273181527853012,
      "time_usec": 4203482424
    },
    {
      "x": -9.92243766784668,
      "y": -0.1657029688358307,
      "z": 0.18424734473228455,
      "time_usec": 4203484672
    },
    {
      "x": -9.903294563293457,
      "y": -0.16091732680797577,
      "z": 0.18963119387626648,
      "time_usec": 4203486941
    },
    {
      "x": -9.91286563873291,
      "y": -0.16091732680797577,
      "z": 0.1986042857170105,
      "time_usec": 4203489193
    },
    {
      "x": -9.908080101013184,
      "y": -0.14656038582324982,
      "z": 0.18424734473228455,
      "time_usec": 4203491457
    },
    {
      "x": -9.879366874694824,
      "y": -0.11306086927652359,
      "z": 0.18005990982055664,
      "time_usec": 4203493715
    },
    {
      "x": -9.846465110778809,
      "y": -0.10348957777023315,
      "z": 0.18484555184841156,
      "time_usec": 4203495971
    },
    {
      "x": -9.850652694702148,
      "y": -0.09870393574237823,
      "z": 0.1657029688358307,
      "time_usec": 4203498225
    },
    {
      "x": -9.836894035339355,
      "y": -0.09930214285850525,
      "z": 0.17527425289154053,
      "time_usec": 4203500486
    },
    {
      "x": -9.80817985534668,
      "y": -0.0849452018737793,
      "z": 0.16091732680797577,
      "time_usec": 4203502744
    },
    {
      "x": -9.7938232421875,
      "y": -0.10408778488636017,
      "z": 0.15194423496723175,
      "time_usec": 4203505002
    },
    {
      "x": -9.76989459991455,
      "y": -0.1136590763926506,
      "z": 0.137587308883667,
      "time_usec": 4203507257
    },
    {
      "x": -9.760323524475098,
      "y": -0.1136590763926506,
      "z": 0.1423729509115219,
      "time_usec": 4203509509
    },
    {
      "x": -9.736993789672852,
      "y": -0.11425728350877762,
      "z": 0.1136590763926506,
      "time_usec": 4203511768
    },
    {
      "x": -9.736993789672852,
      "y": -0.11425728350877762,
      "z": 0.10408778488636017,
      "time_usec": 4203514030
    },
    {
      "x": -9.722038269042969,
      "y": -0.11425728350877762,
      "z": 0.08075776696205139,
      "time_usec": 4203516288
    },
    {
      "x": -9.684351921081543,
      "y": -0.1333998590707779,
      "z": 0.06640082597732544,
      "time_usec": 4203518542
    },
    {
      "x": -9.674779891967773,
      "y": -0.1381855010986328,
      "z": 0.0568295381963253,
      "time_usec": 4203520804
    },
    {
      "x": -9.66102123260498,
      "y": -0.1381855010986328,
      "z": 0.08075776696205139,
      "time_usec": 4203523055
    },
    {
      "x": -9.66102123260498,
      "y": -0.1094716340303421,
      "z": 0.12382857501506805,
      "time_usec": 4203525318
    },
    {
      "x": -9.651450157165527,
      "y": -0.09511470049619675,
      "z": 0.17647066712379456,
      "time_usec": 4203527572
    },
    {
      "x": -9.689735412597656,
      "y": -0.1094716340303421,
      "z": 0.22851456701755524,
      "time_usec": 4203529824
    },
    {
      "x": -9.689735412597656,
      "y": -0.09990034252405167,
      "z": 0.23330020904541016,
      "time_usec": 4203532076
    },
    {
      "x": -9.704092025756836,
      "y": -0.10468599200248718,
      "z": 0.24287149310112,
      "time_usec": 4203534347
    },
    {
      "x": -9.732806205749512,
      "y": -0.1136590763926506,
      "z": 0.2476571500301361,
      "time_usec": 4203536604
    },
    {
      "x": -9.718449592590332,
      "y": -0.11844471842050552,
      "z": 0.2667997181415558,
      "time_usec": 4203538859
    },
    {
      "x": -9.723235130310059,
      "y": -0.1136590763926506,
      "z": 0.2715853750705719,
      "time_usec": 4203541118
    },
    {
      "x": -9.704689979553223,
      "y": -0.12323036789894104,
      "z": 0.2955136001110077,
      "time_usec": 4203543376
    },
    {
      "x": -9.685547828674316,
      "y": -0.137587308883667,
      "z": 0.30987054109573364,
      "time_usec": 4203545632
    },
    {
      "x": -9.68076229095459,
      "y": -0.13280165195465088,
      "z": 0.30508488416671753,
      "time_usec": 4203547877
    },
    {
      "x": -9.657432556152344,
      "y": -0.1381855010986328,
      "z": 0.30508488416671753,
      "time_usec": 4203550141
    },
    {
      "x": -9.633503913879395,
      "y": -0.15254244208335876,
      "z": 0.2961117923259735,
      "time_usec": 4203552394
    },
    {
      "x": -9.623932838439941,
      "y": -0.1381855010986328,
      "z": 0.27696922421455383,
      "time_usec": 4203554667
    },
    {
      "x": -9.618548393249512,
      "y": -0.1094716340303421,
      "z": 0.21954147517681122,
      "time_usec": 4203556920
    },
    {
      "x": -9.618548393249512,
      "y": -0.11904292553663254,
      "z": 0.15254244208335876,
      "time_usec": 4203559175
    },
    {
      "x": -9.589237213134766,
      "y": -0.062213387340307236,
      "z": 0.1333998590707779,
      "time_usec": 4203561434
    },
    {
      "x": -9.594022750854492,
      "y": -0.0526420995593071,
      "z": 0.10049854964017868,
      "time_usec": 4203563692
    },
    {
      "x": -9.588638305664062,
      "y": -0.02392822690308094,
      "z": 0.04785645380616188,
      "time_usec": 4203565949
    },
    {
      "x": -9.574281692504883,
      "y": -0.009571290574967861,
      "z": 0.019142581149935722,
      "time_usec": 4203568200
    },
    {
      "x": -9.588638305664062,
      "y": 0.019142581149935722,
      "z": 0.004785645287483931,
      "time_usec": 4203570460
    },
    {
      "x": -9.588638305664062,
      "y": 0.02871387079358101,
      "z": -0.004785645287483931,
      "time_usec": 4203572721
    },
    {
      "x": -9.597611427307129,
      "y": 0.038285162299871445,
      "z": 0.009571290574967861,
      "time_usec": 4203574980
    },
    {
      "x": -9.598209381103516,
      "y": 0.05742774158716202,
      "z": 0.04307080805301666,
      "time_usec": 4203577233
    },
    {
      "x": -9.602396965026855,
      "y": 0.07178468257188797,
      "z": 0.04785645380616188,
      "time_usec": 4203579481
    },
    {
      "x": -9.617352485656738,
      "y": 0.09152546525001526,
      "z": 0.09511470049619675,
      "time_usec": 4203581750
    },
    {
      "x": -9.631111145019531,
      "y": 0.08673982322216034,
      "z": 0.09990034252405167,
      "time_usec": 4203583996
    },
    {
      "x": -9.65503978729248,
      "y": 0.08673982322216034,
      "z": 0.12861421704292297,
      "time_usec": 4203586269
    },
    {
      "x": -9.674181938171387,
      "y": 0.1010967567563057,
      "z": 0.12861421704292297,
      "time_usec": 4203588516
    },
    {
      "x": -9.702896118164062,
      "y": 0.09212367236614227,
      "z": 0.15672987699508667,
      "time_usec": 4203590778
    },
    {
      "x": -9.702896118164062,
      "y": 0.07776673883199692,
      "z": 0.17587246000766754,
      "time_usec": 4203593037
    },
    {
      "x": -9.726823806762695,
      "y": 0.0729810893535614,
      "z": 0.17587246000766754,
      "time_usec": 4203595295
    },
    {
      "x": -9.726823806762695,
      "y": 0.04905286431312561,
      "z": 0.17108681797981262,
      "time_usec": 4203597552
    },
    {
      "x": -9.736394882202148,
      "y": 0.039481572806835175,
      "z": 0.18544375896453857,
      "time_usec": 4203599804
    },
    {
      "x": -9.736394882202148,
      "y": 0.005982056725770235,
      "z": 0.17587246000766754,
      "time_usec": 4203602064
    },
    {
      "x": -9.736394882202148,
      "y": -0.013160524889826775,
      "z": 0.17108681797981262,
      "time_usec": 4203604324
    },
    {
      "x": -9.750752449035645,
      "y": -0.04666004329919815,
      "z": 0.16151553392410278,
      "time_usec": 4203606582
    },
    {
      "x": -9.722636222839355,
      "y": -0.0323031060397625,
      "z": 0.1663011759519577,
      "time_usec": 4203608834
    },
    {
      "x": -9.717850685119629,
      "y": -0.0323031060397625,
      "z": 0.15672987699508667,
      "time_usec": 4203611094
    },
    {
      "x": -9.731609344482422,
      "y": -0.02273181453347206,
      "z": 0.15672987699508667,
      "time_usec": 4203613340
    },
    {
      "x": -9.713065147399902,
      "y": -0.052043892443180084,
      "z": 0.14715859293937683,
      "time_usec": 4203615612
    },
    {
      "x": -9.70349407196045,
      "y": -0.028115665540099144,
      "z": 0.12861421704292297,
      "time_usec": 4203617868
    },
    {
      "x": -9.68913745880127,
      "y": -0.023330021649599075,
      "z": 0.11425728350877762,
      "time_usec": 4203620126
    },
    {
      "x": -9.68913745880127,
      "y": -0.028115665540099144,
      "z": 0.11425728350877762,
      "time_usec": 4203622380
    },
    {
      "x": -9.698110580444336,
      "y": 0.005383851006627083,
      "z": 0.10468599200248718,
      "time_usec": 4203624628
    },
    {
      "x": -9.688538551330566,
      "y": 0.010169495828449726,
      "z": 0.12861421704292297,
      "time_usec": 4203626897
    },
    {
      "x": -9.684351921081543,
      "y": -0.008973085321485996,
      "z": 0.11904292553663254,
      "time_usec": 4203629149
    },
    {
      "x": -9.6795654296875,
      "y": 0.005383851006627083,
      "z": 0.1333998590707779,
      "time_usec": 4203631415
    },
    {
      "x": -9.707681655883789,
      "y": 0.015553346835076809,
      "z": 0.16151553392410278,
      "time_usec": 4203633669
    },
    {
      "x": -9.674779891967773,
      "y": -0.004187439568340778,
      "z": 0.22372891008853912,
      "time_usec": 4203635926
    },
    {
      "x": -9.675378799438477,
      "y": 0.015553346835076809,
      "z": 0.26201409101486206,
      "time_usec": 4203638178
    },
    {
      "x": -9.69930648803711,
      "y": -0.003589233849197626,
      "z": 0.3002992272377014,
      "time_usec": 4203640442
    },
    {
      "x": -9.723235130310059,
      "y": -0.02751746028661728,
      "z": 0.3433700501918793,
      "time_usec": 4203642700
    },
    {
      "x": -9.737591743469238,
      "y": 0.0011964113218709826,
      "z": 0.36670008301734924,
      "time_usec": 4203644954
    },
    {
      "x": -9.766305923461914,
      "y": -0.022133609279990196,
      "z": 0.39062830805778503,
      "time_usec": 4203647199
    },
    {
      "x": -9.766305923461914,
      "y": -0.04127619042992592,
      "z": 0.4001995921134949,
      "time_usec": 4203649465
    },
    {
      "x": -9.775876998901367,
      "y": -0.04127619042992592,
      "z": 0.4145565330982208,
      "time_usec": 4203651728
    },
    {
      "x": -9.795019149780273,
      "y": -0.050847481936216354,
      "z": 0.4049852192401886,
      "time_usec": 4203653989
    },
    {
      "x": -9.78544807434082,
      "y": -0.06041877344250679,
      "z": 0.4097708761692047,
      "time_usec": 4203656243
    },
    {
      "x": -9.780662536621094,
      "y": -0.0364905446767807,
      "z": 0.3858426511287689,
      "time_usec": 4203658496
    },
    {
      "x": -9.784850120544434,
      "y": -0.046061836183071136,
      "z": 0.357128769159317,
      "time_usec": 4203660762
    },
    {
      "x": -9.766305923461914,
      "y": -0.050847481936216354,
      "z": 0.36191442608833313,
      "time_usec": 4203663015
    },
    {
      "x": -9.728020668029785,
      "y": -0.05144568532705307,
      "z": 0.3290131092071533,
      "time_usec": 4203665273
    },
    {
      "x": -9.708877563476562,
      "y": -0.02751746028661728,
      "z": 0.33858439326286316,
      "time_usec": 4203667527
    },
    {
      "x": -9.675378799438477,
      "y": -0.0323031060397625,
      "z": 0.2955136001110077,
      "time_usec": 4203669784
    },
    {
      "x": -9.665806770324707,
      "y": -0.01375873014330864,
      "z": 0.2763710021972656,
      "time_usec": 4203672049
    },
    {
      "x": -9.656235694885254,
      "y": -0.023330021649599075,
      "z": 0.2386840581893921,
      "time_usec": 4203674301
    },
    {
      "x": -9.6466646194458,
      "y": -0.01375873014330864,
      "z": 0.22432711720466614,
      "time_usec": 4203676558
    },
    {
      "x": -9.617950439453125,
      "y": -0.018544375896453857,
      "z": 0.20518454909324646,
      "time_usec": 4203678810
    },
    {
      "x": -9.622735977172852,
      "y": -0.018544375896453857,
      "z": 0.20997019112110138,
      "time_usec": 4203681070
    },
    {
      "x": -9.608379364013672,
      "y": -0.01375873014330864,
      "z": 0.20039889216423035,
      "time_usec": 4203683331
    },
    {
      "x": -9.617950439453125,
      "y": -0.01375873014330864,
      "z": 0.2147558331489563,
      "time_usec": 4203685589
    },
    {
      "x": -9.598808288574219,
      "y": 0.005383851006627083,
      "z": 0.21954147517681122,
      "time_usec": 4203687845
    },
    {
      "x": -9.608379364013672,
      "y": -0.004187439568340778,
      "z": 0.22911277413368225,
      "time_usec": 4203690098
    },
    {
      "x": -9.608379364013672,
      "y": -0.018544375896453857,
      "z": 0.2386840581893921,
      "time_usec": 4203692360
    },
    {
      "x": -9.617950439453125,
      "y": -0.004187439568340778,
      "z": 0.2386840581893921,
      "time_usec": 4203694617
    },
    {
      "x": -9.617950439453125,
      "y": -0.008973085321485996,
      "z": 0.243469700217247,
      "time_usec": 4203696876
    },
    {
      "x": -9.641879081726074,
      "y": 5.982056609354913E-4,
      "z": 0.21954147517681122,
      "time_usec": 4203699127
    },
    {
      "x": -9.632308006286621,
      "y": -0.023330021649599075,
      "z": 0.2147558331489563,
      "time_usec": 4203701389
    },
    {
      "x": -9.655637741088867,
      "y": -0.028115665540099144,
      "z": 0.17168502509593964,
      "time_usec": 4203703647
    },
    {
      "x": -9.641280174255371,
      "y": -0.01375873014330864,
      "z": 0.17168502509593964,
      "time_usec": 4203705905
    },
    {
      "x": -9.65085220336914,
      "y": -0.04247260093688965,
      "z": 0.12382857501506805,
      "time_usec": 4203708156
    },
    {
      "x": -9.655637741088867,
      "y": -0.03290131315588951,
      "z": 0.08554340898990631,
      "time_usec": 4203710415
    },
    {
      "x": -9.678967475891113,
      "y": -0.018544375896453857,
      "z": 0.08554340898990631,
      "time_usec": 4203712664
    },
    {
      "x": -9.693324089050293,
      "y": -0.018544375896453857,
      "z": 0.047258246690034866,
      "time_usec": 4203714936
    },
    {
      "x": -9.688538551330566,
      "y": -0.01375873014330864,
      "z": 0.06161518394947052,
      "time_usec": 4203717189
    },
    {
      "x": -9.717252731323242,
      "y": -0.04247260093688965,
      "z": 0.06161518394947052,
      "time_usec": 4203719446
    },
    {
      "x": -9.726823806762695,
      "y": -0.03290131315588951,
      "z": 0.06640082597732544,
      "time_usec": 4203721705
    },
    {
      "x": -9.716654777526855,
      "y": -0.018544375896453857,
      "z": 0.052043892443180084,
      "time_usec": 4203723963
    },
    {
      "x": -9.707083702087402,
      "y": -0.023330021649599075,
      "z": 0.03290131315588951,
      "time_usec": 4203726220
    },
    {
      "x": -9.740582466125488,
      "y": -0.03290131315588951,
      "z": 0.061016976833343506,
      "time_usec": 4203728472
    },
    {
      "x": -9.711869239807129,
      "y": -0.008973085321485996,
      "z": 0.052043892443180084,
      "time_usec": 4203730735
    },
    {
      "x": -9.716654777526855,
      "y": 5.982056609354913E-4,
      "z": 0.04247260093688965,
      "time_usec": 4203732994
    },
    {
      "x": -9.717252731323242,
      "y": -0.008973085321485996,
      "z": 0.06640082597732544,
      "time_usec": 4203735251
    },
    {
      "x": -9.707681655883789,
      "y": -0.01375873014330864,
      "z": 0.052043892443180084,
      "time_usec": 4203737504
    },
    {
      "x": -9.707681655883789,
      "y": -0.03290131315588951,
      "z": 0.07118647545576096,
      "time_usec": 4203739752
    },
    {
      "x": -9.717252731323242,
      "y": -0.03290131315588951,
      "z": 0.08554340898990631,
      "time_usec": 4203742021
    },
    {
      "x": -9.726823806762695,
      "y": -0.01375873014330864,
      "z": 0.08973085135221481,
      "time_usec": 4203744279
    },
    {
      "x": -9.726823806762695,
      "y": -0.03290131315588951,
      "z": 0.09451649338006973,
      "time_usec": 4203746539
    },
    {
      "x": -9.726823806762695,
      "y": -0.04247260093688965,
      "z": 0.1136590763926506,
      "time_usec": 4203748792
    },
    {
      "x": -9.741181373596191,
      "y": -0.037088751792907715,
      "z": 0.11844471842050552,
      "time_usec": 4203751051
    },
    {
      "x": -9.750752449035645,
      "y": -0.0323031060397625,
      "z": 0.137587308883667,
      "time_usec": 4203753306
    },
    {
      "x": -9.774680137634277,
      "y": -0.037088751792907715,
      "z": 0.15672987699508667,
      "time_usec": 4203755556
    },
    {
      "x": -9.774680137634277,
      "y": -0.02273181453347206,
      "z": 0.18544375896453857,
      "time_usec": 4203757820
    },
    {
      "x": -9.755537986755371,
      "y": -0.02751746028661728,
      "z": 0.20458634197711945,
      "time_usec": 4203760070
    },
    {
      "x": -9.789037704467773,
      "y": -0.037088751792907715,
      "z": 0.1950150430202484,
      "time_usec": 4203762341
    },
    {
      "x": -9.76989459991455,
      "y": -0.04666004329919815,
      "z": 0.20937198400497437,
      "time_usec": 4203764595
    },
    {
      "x": -9.76989459991455,
      "y": -0.037088751792907715,
      "z": 0.23330020904541016,
      "time_usec": 4203766854
    },
    {
      "x": -9.765109062194824,
      "y": -0.0323031060397625,
      "z": 0.23808585107326508,
      "time_usec": 4203769105
    },
    {
      "x": -9.779465675354004,
      "y": -0.017946170642971992,
      "z": 0.23270200192928314,
      "time_usec": 4203771367
    },
    {
      "x": -9.76989459991455,
      "y": -0.02751746028661728,
      "z": 0.23330020904541016,
      "time_usec": 4203773624
    },
    {
      "x": -9.784252166748047,
      "y": -0.04187439754605293,
      "z": 0.2189432680606842,
      "time_usec": 4203775881
    },
    {
      "x": -9.7938232421875,
      "y": -0.04666004329919815,
      "z": 0.20877377688884735,
      "time_usec": 4203778134
    },
    {
      "x": -9.798608779907227,
      "y": -0.04187439754605293,
      "z": 0.18963119387626648,
      "time_usec": 4203780396
    },
    {
      "x": -9.803394317626953,
      "y": -0.05144568532705307,
      "z": 0.1663011759519577,
      "time_usec": 4203782651
    },
    {
      "x": -9.817152976989746,
      "y": -0.02751746028661728,
      "z": 0.14656038582324982,
      "time_usec": 4203784901
    },
    {
      "x": -9.807581901550293,
      "y": -0.003589233849197626,
      "z": 0.16091732680797577,
      "time_usec": 4203787168
    },
    {
      "x": -9.81236743927002,
      "y": -0.013160524889826775,
      "z": 0.12801600992679596,
      "time_usec": 4203789420
    },
    {
      "x": -9.79801082611084,
      "y": -0.008374879136681557,
      "z": 0.13280165195465088,
      "time_usec": 4203791686
    },
    {
      "x": -9.81236743927002,
      "y": 0.005982056725770235,
      "z": 0.1423729509115219,
      "time_usec": 4203793940
    },
    {
      "x": -9.817152976989746,
      "y": 0.020338991656899452,
      "z": 0.14656038582324982,
      "time_usec": 4203796196
    },
    {
      "x": -9.831509590148926,
      "y": 0.025722842663526535,
      "z": 0.18005990982055664,
      "time_usec": 4203798442
    },
    {
      "x": -9.831509590148926,
      "y": 0.030508488416671753,
      "z": 0.21355941891670227,
      "time_usec": 4203800713
    },
    {
      "x": -9.855438232421875,
      "y": 0.006580262444913387,
      "z": 0.2183450609445572,
      "time_usec": 4203802970
    },
    {
      "x": -9.845867156982422,
      "y": 0.01136590726673603,
      "z": 0.2470589429140091,
      "time_usec": 4203805232
    },
    {
      "x": -9.846465110778809,
      "y": 0.001794616924598813,
      "z": 0.28534409403800964,
      "time_usec": 4203807483
    },
    {
      "x": -9.865009307861328,
      "y": -0.012562318705022335,
      "z": 0.28534409403800964,
      "time_usec": 4203809736
    },
    {
      "x": -9.865608215332031,
      "y": -0.022133609279990196,
      "z": 0.3038884699344635,
      "time_usec": 4203811994
    },
    {
      "x": -9.856036186218262,
      "y": -0.026919255033135414,
      "z": 0.30927231907844543,
      "time_usec": 4203814244
    },
    {
      "x": -9.870393753051758,
      "y": -0.01734796352684498,
      "z": 0.3278166949748993,
      "time_usec": 4203816514
    },
    {
      "x": -9.874580383300781,
      "y": -0.0077766734175384045,
      "z": 0.3086741268634796,
      "time_usec": 4203818766
    },
    {
      "x": -9.846465110778809,
      "y": -0.0077766734175384045,
      "z": 0.3044866919517517,
      "time_usec": 4203821032
    },
    {
      "x": -9.846465110778809,
      "y": -0.012562318705022335,
      "z": 0.30927231907844543,
      "time_usec": 4203823287
    },
    {
      "x": -9.856036186218262,
      "y": 0.01136590726673603,
      "z": 0.3044866919517517,
      "time_usec": 4203825543
    },
    {
      "x": -9.869794845581055,
      "y": 0.001794616924598813,
      "z": 0.3038884699344635,
      "time_usec": 4203827795
    },
    {
      "x": -9.856036186218262,
      "y": 0.006580262444913387,
      "z": 0.2997010350227356,
      "time_usec": 4203830053
    },
    {
      "x": -9.879366874694824,
      "y": 0.001794616924598813,
      "z": 0.28953152894973755,
      "time_usec": 4203832315
    },
    {
      "x": -9.874580383300781,
      "y": -0.0077766734175384045,
      "z": 0.29431718587875366,
      "time_usec": 4203834575
    },
    {
      "x": -9.879366874694824,
      "y": -0.012562318705022335,
      "z": 0.26560330390930176,
      "time_usec": 4203836830
    },
    {
      "x": -9.888937950134277,
      "y": -0.0029910283628851175,
      "z": 0.24167509377002716,
      "time_usec": 4203839082
    },
    {
      "x": -9.897911071777344,
      "y": 0.006580262444913387,
      "z": 0.23210379481315613,
      "time_usec": 4203841345
    },
    {
      "x": -9.907482147216797,
      "y": 0.01136590726673603,
      "z": 0.20338992774486542,
      "time_usec": 4203843602
    },
    {
      "x": -9.907482147216797,
      "y": -0.012562318705022335,
      "z": 0.1657029688358307,
      "time_usec": 4203845857
    },
    {
      "x": -9.90269660949707,
      "y": -0.01734796352684498,
      "z": 0.17527425289154053,
      "time_usec": 4203848107
    },
    {
      "x": -9.893125534057617,
      "y": -0.0077766734175384045,
      "z": 0.17527425289154053,
      "time_usec": 4203850388
    },
    {
      "x": -9.893125534057617,
      "y": -0.01734796352684498,
      "z": 0.17527425289154053,
      "time_usec": 4203852631
    },
    {
      "x": -9.897911071777344,
      "y": -0.022133609279990196,
      "z": 0.1944168359041214,
      "time_usec": 4203854892
    },
    {
      "x": -9.89850902557373,
      "y": -0.04127619042992592,
      "z": 0.20877377688884735,
      "time_usec": 4203857141
    },
    {
      "x": -9.879366874694824,
      "y": -0.046061836183071136,
      "z": 0.2470589429140091,
      "time_usec": 4203859399
    },
    {
      "x": -9.879366874694824,
      "y": -0.04127619042992592,
      "z": 0.26560330390930176,
      "time_usec": 4203861661
    },
    {
      "x": -9.875179290771484,
      "y": -0.06999006122350693,
      "z": 0.275174617767334,
      "time_usec": 4203863915
    },
    {
      "x": -9.879964828491211,
      "y": -0.07956135272979736,
      "z": 0.2799602448940277,
      "time_usec": 4203866163
    },
    {
      "x": -9.884750366210938,
      "y": -0.09391828626394272,
      "z": 0.2991028428077698,
      "time_usec": 4203868427
    },
    {
      "x": -9.884750366210938,
      "y": -0.10827522724866867,
      "z": 0.31824541091918945,
      "time_usec": 4203870690
    },
    {
      "x": -9.884750366210938,
      "y": -0.13220344483852386,
      "z": 0.3086741268634796,
      "time_usec": 4203872951
    },
    {
      "x": -9.899106979370117,
      "y": -0.15613168478012085,
      "z": 0.3278166949748993,
      "time_usec": 4203875206
    },
    {
      "x": -9.899106979370117,
      "y": -0.16091732680797577,
      "z": 0.3086741268634796,
      "time_usec": 4203877462
    },
    {
      "x": -9.91825008392334,
      "y": -0.1704886108636856,
      "z": 0.31345975399017334,
      "time_usec": 4203879714
    },
    {
      "x": -9.903892517089844,
      "y": -0.1704886108636856,
      "z": 0.3086741268634796,
      "time_usec": 4203881973
    },
    {
      "x": -9.903892517089844,
      "y": -0.17527425289154053,
      "z": 0.26560330390930176,
      "time_usec": 4203884221
    },
    {
      "x": -9.889535903930664,
      "y": -0.17527425289154053,
      "z": 0.27038896083831787,
      "time_usec": 4203886489
    },
    {
      "x": -9.884750366210938,
      "y": -0.18484555184841156,
      "z": 0.2512463629245758,
      "time_usec": 4203888741
    },
    {
      "x": -9.865608215332031,
      "y": -0.17527425289154053,
      "z": 0.2566302418708801,
      "time_usec": 4203890996
    },
    {
      "x": -9.870393753051758,
      "y": -0.16091732680797577,
      "z": 0.2470589429140091,
      "time_usec": 4203893264
    },
    {
      "x": -9.847063064575195,
