{
  "accelerations": [
    {
      "x": 9.81954574584961,
      "y": 0.01615155301988125,
      "z": 1.4733805656433105,
      "time_usec": 12415481634
    },
    {
      "x": 9.800403594970703,
      "y": -0.0077766734175384045,
      "z": 1.4727823734283447,
      "time_usec": 12415483892
    },
    {
      "x": 9.814760208129883,
      "y": -0.06520441919565201,
      "z": 1.4781662225723267,
      "time_usec": 12415486149
    },
    {
      "x": 9.795618057250977,
      "y": -0.09391828626394272,
      "z": 1.5014961957931519,
      "time_usec": 12415488405
    },
    {
      "x": 9.814162254333496,
      "y": -0.1178465187549591,
      "z": 1.4967105388641357,
      "time_usec": 12415490662
    },
    {
      "x": 9.804591178894043,
      "y": -0.1178465187549591,
      "z": 1.5397813320159912,
      "time_usec": 12415492919
    },
    {
      "x": 9.814162254333496,
      "y": -0.12741780281066895,
      "z": 1.5445669889450073,
      "time_usec": 12415495176
    },
    {
      "x": 9.804591178894043,
      "y": -0.10827522724866867,
      "z": 1.5780665874481201,
      "time_usec": 12415497435
    },
    {
      "x": 9.81356430053711,
      "y": -0.1178465187549591,
      "z": 1.6067804098129272,
      "time_usec": 12415499695
    },
    {
      "x": 9.818349838256836,
      "y": -0.09391828626394272,
      "z": 1.6067804098129272,
      "time_usec": 12415501948
    },
    {
      "x": 9.814162254333496,
      "y": -0.06999006122350693,
      "z": 1.6163517236709595,
      "time_usec": 12415504206
    },
    {
      "x": 9.790233612060547,
      "y": -0.046061836183071136,
      "z": 1.6354942321777344,
      "time_usec": 12415506461
    },
    {
      "x": 9.7669038772583,
      "y": -0.035892341285943985,
      "z": 1.6115660667419434,
      "time_usec": 12415508719
    },
    {
      "x": 9.762118339538574,
      "y": -0.02632104977965355,
      "z": 1.5876377820968628,
      "time_usec": 12415510976
    },
    {
      "x": 9.734002113342285,
      "y": -0.02153540402650833,
      "z": 1.5493526458740234,
      "time_usec": 12415513233
    },
    {
      "x": 9.714859962463379,
      "y": -0.007178467698395252,
      "z": 1.4871392250061035,
      "time_usec": 12415515490
    },
    {
      "x": 9.734601020812988,
      "y": 0.030508488416671753,
      "z": 1.444068431854248,
      "time_usec": 12415517748
    },
    {
      "x": 9.720842361450195,
      "y": 0.049651071429252625,
      "z": 1.3722838163375854,
      "time_usec": 12415520005
    },
    {
      "x": 9.730413436889648,
      "y": 0.0687936544418335,
      "z": 1.3387842178344727,
      "time_usec": 12415522263
    },
    {
      "x": 9.735796928405762,
      "y": 0.08793623000383377,
      "z": 1.2957134246826172,
      "time_usec": 12415524519
    },
    {
      "x": 9.745368003845215,
      "y": 0.10229317098855972,
      "z": 1.2532408237457275,
      "time_usec": 12415526777
    },
    {
      "x": 9.759725570678711,
      "y": 0.13579268753528595,
      "z": 1.2340983152389526,
      "time_usec": 12415529033
    },
    {
      "x": 9.764511108398438,
      "y": 0.13100704550743103,
      "z": 1.2293126583099365,
      "time_usec": 12415531292
    },
    {
      "x": 9.741181373596191,
      "y": 0.15493527054786682,
      "z": 1.2197413444519043,
      "time_usec": 12415533549
    },
    {
      "x": 9.745368003845215,
      "y": 0.13579268753528595,
      "z": 1.2340983152389526,
      "time_usec": 12415535805
    },
    {
      "x": 9.740582466125488,
      "y": 0.13100704550743103,
      "z": 1.2436695098876953,
      "time_usec": 12415538063
    },
    {
      "x": 9.745368003845215,
      "y": 0.11186445504426956,
      "z": 1.2580264806747437,
      "time_usec": 12415540320
    },
    {
      "x": 9.745368003845215,
      "y": 0.08315058797597885,
      "z": 1.2819547653198242,
      "time_usec": 12415542577
    },
    {
      "x": 9.749555587768555,
      "y": 0.06400800496339798,
      "z": 1.333998680114746,
      "time_usec": 12415544835
    },
    {
      "x": 9.772886276245117,
      "y": 0.049651071429252625,
      "z": 1.3489537239074707,
      "time_usec": 12415547091
    },
    {
      "x": 9.791430473327637,
      "y": 0.01136590726673603,
      "z": 1.3968101739883423,
      "time_usec": 12415549348
    },
    {
      "x": 9.796216011047363,
      "y": -0.022133609279990196,
      "z": 1.425524115562439,
      "time_usec": 12415551606
    },
    {
      "x": 9.79083251953125,
      "y": -0.050847481936216354,
      "z": 1.4536397457122803,
      "time_usec": 12415553863
    },
    {
      "x": 9.79083251953125,
      "y": -0.05563312768936157,
      "z": 1.4871392250061035,
      "time_usec": 12415556124
    },
    {
      "x": 9.786046028137207,
      "y": -0.050847481936216354,
      "z": 1.4871392250061035,
      "time_usec": 12415558378
    },
    {
      "x": 9.786046028137207,
      "y": -0.06041877344250679,
      "z": 1.4967105388641357,
      "time_usec": 12415560634
    },
    {
      "x": 9.776474952697754,
      "y": -0.06041877344250679,
      "z": 1.4919248819351196,
      "time_usec": 12415562890
    },
    {
      "x": 9.7669038772583,
      "y": -0.04127619042992592,
      "z": 1.511067509651184,
      "time_usec": 12415565148
    },
    {
      "x": 9.753145217895508,
      "y": -0.05563312768936157,
      "z": 1.4727823734283447,
      "time_usec": 12415567405
    },
    {
      "x": 9.729216575622559,
      "y": -0.0364905446767807,
      "z": 1.4536397457122803,
      "time_usec": 12415569663
    },
    {
      "x": 9.725028991699219,
      "y": -0.0364905446767807,
      "z": 1.415354609489441,
      "time_usec": 12415571920
    },
    {
      "x": 9.69631576538086,
      "y": -0.03170489892363548,
      "z": 1.3818551301956177,
      "time_usec": 12415574178
    },
    {
      "x": 9.663414001464844,
      "y": -0.040677983313798904,
      "z": 1.3435698747634888,
      "time_usec": 12415576435
    },
    {
      "x": 9.672985076904297,
      "y": -0.050847481936216354,
      "z": 1.3100703954696655,
      "time_usec": 12415578692
    },
    {
      "x": 9.663414001464844,
      "y": -0.04546362906694412,
      "z": 1.333998680114746,
      "time_usec": 12415580948
    },
    {
      "x": 9.663414001464844,
      "y": -0.040677983313798904,
      "z": 1.32921302318573,
      "time_usec": 12415583205
    },
    {
      "x": 9.663414001464844,
      "y": -0.040677983313798904,
      "z": 1.357926845550537,
      "time_usec": 12415585462
    },
    {
      "x": 9.663414001464844,
      "y": -0.05503492057323456,
      "z": 1.3770694732666016,
      "time_usec": 12415587720
    },
    {
      "x": 9.701101303100586,
      "y": -0.05503492057323456,
      "z": 1.415354609489441,
      "time_usec": 12415589977
    },
    {
      "x": 9.69631576538086,
      "y": -0.05024927482008934,
      "z": 1.439282774925232,
      "time_usec": 12415592234
    },
    {
      "x": 9.710672378540039,
      "y": -0.05503492057323456,
      "z": 1.439282774925232,
      "time_usec": 12415594493
    },
    {
      "x": 9.69631576538086,
      "y": -0.05024927482008934,
      "z": 1.4632110595703125,
      "time_usec": 12415596749
    },
    {
      "x": 9.7005033493042,
      "y": -0.05024927482008934,
      "z": 1.482353687286377,
      "time_usec": 12415599006
    },
    {
      "x": 9.681360244750977,
      "y": -0.059820566326379776,
      "z": 1.49611234664917,
      "time_usec": 12415601263
    },
    {
      "x": 9.695717811584473,
      "y": -0.07417750358581543,
      "z": 1.5200406312942505,
      "time_usec": 12415603520
    },
    {
      "x": 9.671789169311523,
      "y": -0.05503492057323456,
      "z": 1.5391831398010254,
      "time_usec": 12415605778
    },
    {
      "x": 9.681360244750977,
      "y": -0.06939185410737991,
      "z": 1.5391831398010254,
      "time_usec": 12415608035
    },
    {
      "x": 9.67657470703125,
      "y": -0.07417750358581543,
      "z": 1.5487544536590576,
      "time_usec": 12415610292
    },
    {
      "x": 9.681360244750977,
      "y": -0.064606212079525,
      "z": 1.5487544536590576,
      "time_usec": 12415612552
    },
    {
      "x": 9.67657470703125,
      "y": -0.08374879509210587,
      "z": 1.5200406312942505,
      "time_usec": 12415614806
    },
    {
      "x": 9.69511890411377,
      "y": -0.09810572862625122,
      "z": 1.5439687967300415,
      "time_usec": 12415617063
    },
    {
      "x": 9.704689979553223,
      "y": -0.10289137065410614,
      "z": 1.5343974828720093,
      "time_usec": 12415619319
    },
    {
      "x": 9.709476470947266,
      "y": -0.12203395366668701,
      "z": 1.5152549743652344,
      "time_usec": 12415621577
    },
    {
      "x": 9.719047546386719,
      "y": -0.09810572862625122,
      "z": 1.506281852722168,
      "time_usec": 12415623835
    },
    {
      "x": 9.733404159545898,
      "y": -0.09391828626394272,
      "z": 1.506281852722168,
      "time_usec": 12415626092
    },
    {
      "x": 9.733404159545898,
      "y": -0.09391828626394272,
      "z": 1.511067509651184,
      "time_usec": 12415628350
    },
    {
      "x": 9.728618621826172,
      "y": -0.07896314561367035,
      "z": 1.5158531665802002,
      "time_usec": 12415630607
    },
    {
      "x": 9.710074424743652,
      "y": -0.08374879509210587,
      "z": 1.4919248819351196,
      "time_usec": 12415632863
    },
    {
      "x": 9.719645500183105,
      "y": -0.07956135272979736,
      "z": 1.4488540887832642,
      "time_usec": 12415635121
    },
    {
      "x": 9.681958198547363,
      "y": -0.06939185410737991,
      "z": 1.415354609489441,
      "time_usec": 12415637377
    },
    {
      "x": 9.686744689941406,
      "y": -0.035892341285943985,
      "z": 1.3866406679153442,
      "time_usec": 12415639634
    },
    {
      "x": 9.663414001464844,
      "y": -0.035892341285943985,
      "z": 1.353141188621521,
      "time_usec": 12415641892
    },
    {
      "x": 9.66819953918457,
      "y": -0.007178467698395252,
      "z": 1.32921302318573,
      "time_usec": 12415644150
    },
    {
      "x": 9.654440879821777,
      "y": 0.01196411345154047,
      "z": 1.2861422300338745,
      "time_usec": 12415646407
    },
    {
      "x": 9.65503978729248,
      "y": 0.035892341285943985,
      "z": 1.2239288091659546,
      "time_usec": 12415648666
    },
    {
      "x": 9.621540069580078,
      "y": 0.04546362906694412,
      "z": 1.2813565731048584,
      "time_usec": 12415650926
    },
    {
      "x": 9.603593826293945,
      "y": 0.07896314561367035,
      "z": 1.1282159090042114,
      "time_usec": 12415653177
    },
    {
      "x": 9.645467758178711,
      "y": 0.06939185410737991,
      "z": 1.26699960231781,
      "time_usec": 12415655435
    },
    {
      "x": 9.612566947937012,
      "y": 0.07896314561367035,
      "z": 1.1282159090042114,
      "time_usec": 12415657691
    },
    {
      "x": 9.631111145019531,
      "y": 0.08374879509210587,
      "z": 1.2574282884597778,
      "time_usec": 12415659949
    },
    {
      "x": 9.621540069580078,
      "y": 0.031106693670153618,
      "z": 1.2765709161758423,
      "time_usec": 12415662206
    },
    {
      "x": 9.631111145019531,
      "y": 0.04546362906694412,
      "z": 1.2191431522369385,
      "time_usec": 12415664464
    },
    {
      "x": 9.644869804382324,
      "y": 0.007178467698395252,
      "z": 1.347757339477539,
      "time_usec": 12415666722
    },
    {
      "x": 9.64965534210205,
      "y": -0.0023928226437419653,
      "z": 1.3196417093276978,
      "time_usec": 12415668978
    },
    {
      "x": 9.644271850585938,
      "y": -0.02632104977965355,
      "z": 1.347757339477539,
      "time_usec": 12415671235
    },
    {
      "x": 9.629914283752441,
      "y": -0.05503492057323456,
      "z": 1.414756417274475,
      "time_usec": 12415673491
    },
    {
      "x": 9.629914283752441,
      "y": -0.07417750358581543,
      "z": 1.3621143102645874,
      "time_usec": 12415675750
    },
    {
      "x": 9.596415519714355,
      "y": -0.08374879509210587,
      "z": 1.4003994464874268,
      "time_usec": 12415678007
    },
    {
      "x": 9.577272415161133,
      "y": -0.07836493849754333,
      "z": 1.3956137895584106,
      "time_usec": 12415680264
    },
    {
      "x": 9.56351375579834,
      "y": -0.0687936544418335,
      "z": 1.3812568187713623,
      "time_usec": 12415682521
    },
    {
      "x": 9.553942680358887,
      "y": -0.07357929646968842,
      "z": 1.3573286533355713,
      "time_usec": 12415684779
    },
    {
      "x": 9.558728218078613,
      "y": -0.030508488416671753,
      "z": 1.342971682548523,
      "time_usec": 12415687035
    },
    {
      "x": 9.554540634155273,
      "y": 0.0029910283628851175,
      "z": 1.3381860256195068,
      "time_usec": 12415689293
    },
    {
      "x": 9.559326171875,
      "y": 0.03170489892363548,
      "z": 1.2999008893966675,
      "time_usec": 12415691549
    },
    {
      "x": 9.559925079345703,
      "y": 0.06999006122350693,
      "z": 1.2664014101028442,
      "time_usec": 12415693806
    },
    {
      "x": 9.55513858795166,
      "y": 0.0891326442360878,
      "z": 1.256830096244812,
      "time_usec": 12415696064
    },
    {
      "x": 9.541379928588867,
      "y": 0.08434699475765228,
      "z": 1.2424731254577637,
      "time_usec": 12415698321
    },
    {
      "x": 9.546165466308594,
      "y": 0.09870393574237823,
      "z": 1.2185449600219727,
      "time_usec": 12415700580
    },
    {
      "x": 9.56052303314209,
      "y": 0.08853443711996078,
      "z": 1.2233306169509888,
      "time_usec": 12415702836
    },
    {
      "x": 9.546165466308594,
      "y": 0.10348957777023315,
      "z": 1.2472587823867798,
      "time_usec": 12415705092
    },
    {
      "x": 9.56471061706543,
      "y": 0.06999006122350693,
      "z": 1.3094722032546997,
      "time_usec": 12415707350
    },
    {
      "x": 9.588040351867676,
      "y": 0.04546362906694412,
      "z": 1.3525429964065552,
      "time_usec": 12415709607
    },
    {
      "x": 9.634700775146484,
      "y": 0.0023928226437419653,
      "z": 1.4195420742034912,
      "time_usec": 12415711864
    },
    {
      "x": 9.662816047668457,
      "y": -0.007178467698395252,
      "z": 1.4769697189331055,
      "time_usec": 12415714123
    },
    {
      "x": 9.65803050994873,
      "y": -0.04546362906694412,
      "z": 1.5152549743652344,
      "time_usec": 12415716384
    },
    {
      "x": 9.671789169311523,
      "y": -0.059820566326379776,
      "z": 1.5391831398010254,
      "time_usec": 12415718641
    },
    {
      "x": 9.671789169311523,
      "y": -0.06939185410737991,
      "z": 1.5774682760238647,
      "time_usec": 12415720894
    },
    {
      "x": 9.681360244750977,
      "y": -0.08853443711996078,
      "z": 1.5726827383041382,
      "time_usec": 12415723149
    },
    {
      "x": 9.704689979553223,
      "y": -0.09810572862625122,
      "z": 1.567897081375122,
      "time_usec": 12415725406
    },
    {
      "x": 9.704689979553223,
      "y": -0.10289137065410614,
      "z": 1.5726827383041382,
      "time_usec": 12415727665
    },
    {
      "x": 9.723833084106445,
      "y": -0.10767702013254166,
      "z": 1.5445669889450073,
      "time_usec": 12415729921
    },
    {
      "x": 9.704689979553223,
      "y": -0.0933200865983963,
      "z": 1.5487544536590576,
      "time_usec": 12415732179
    },
    {
      "x": 9.733404159545898,
      "y": -0.10767702013254166,
      "z": 1.5589239597320557,
      "time_usec": 12415734436
    },
    {
      "x": 9.709476470947266,
      "y": -0.10289137065410614,
      "z": 1.5535401105880737,
      "time_usec": 12415736693
    },
    {
      "x": 9.709476470947266,
      "y": -0.10767702013254166,
      "z": 1.5583257675170898,
      "time_usec": 12415738951
    },
    {
      "x": 9.67657470703125,
      "y": -0.09810572862625122,
      "z": 1.5439687967300415,
      "time_usec": 12415741207
    },
    {
      "x": 9.652647018432617,
      "y": -0.09810572862625122,
      "z": 1.5343974828720093,
      "time_usec": 12415743464
    },
    {
      "x": 9.638289451599121,
      "y": -0.08374879509210587,
      "z": 1.5487544536590576,
      "time_usec": 12415745721
    },
    {
      "x": 9.628718376159668,
      "y": -0.07357929646968842,
      "z": 1.563111424446106,
      "time_usec": 12415747978
    },
    {
      "x": 9.610174179077148,
      "y": -0.07836493849754333,
      "z": 1.5248262882232666,
      "time_usec": 12415750236
    },
    {
      "x": 9.600603103637695,
      "y": -0.0687936544418335,
      "z": 1.5200406312942505,
      "time_usec": 12415752492
    },
    {
      "x": 9.600603103637695,
      "y": -0.0687936544418335,
      "z": 1.500898003578186,
      "time_usec": 12415754750
    },
    {
      "x": 9.619745254516602,
      "y": -0.07417750358581543,
      "z": 1.4865410327911377,
      "time_usec": 12415757008
    },
    {
      "x": 9.596415519714355,
      "y": -0.07357929646968842,
      "z": 1.4626128673553467,
      "time_usec": 12415759265
    },
    {
      "x": 9.601201057434082,
      "y": -0.07417750358581543,
      "z": 1.43389892578125,
      "time_usec": 12415761522
    },
    {
      "x": 9.615557670593262,
      "y": -0.059820566326379776,
      "z": 1.3908281326293945,
      "time_usec": 12415763779
    },
    {
      "x": 9.625128746032715,
      "y": -0.064606212079525,
      "z": 1.3716856241226196,
      "time_usec": 12415766036
    },
    {
      "x": 9.601799011230469,
      "y": -0.02632104977965355,
      "z": 1.347757339477539,
      "time_usec": 12415768293
    },
    {
      "x": 9.634700775146484,
      "y": -0.05503492057323456,
      "z": 1.3573286533355713,
      "time_usec": 12415770550
    },
    {
      "x": 9.639486312866211,
      "y": -0.02632104977965355,
      "z": 1.3621143102645874,
      "time_usec": 12415772811
    },
    {
      "x": 9.630513191223145,
      "y": -0.016749758273363113,
      "z": 1.3668999671936035,
      "time_usec": 12415775074
    },
    {
      "x": 9.658628463745117,
      "y": -0.0023928226437419653,
      "z": 1.3770694732666016,
      "time_usec": 12415777321
    },
    {
      "x": 9.672985076904297,
      "y": -0.01196411345154047,
      "z": 1.357926845550537,
      "time_usec": 12415779579
    },
    {
      "x": 9.682557106018066,
      "y": 0.016749758273363113,
      "z": 1.3435698747634888,
      "time_usec": 12415781834
    },
    {
      "x": 9.683155059814453,
      "y": 0.001794616924598813,
      "z": 1.3052847385406494,
      "time_usec": 12415784093
    },
    {
      "x": 9.664012908935547,
      "y": 0.040677983313798904,
      "z": 1.2813565731048584,
      "time_usec": 12415786350
    },
    {
      "x": 9.65503978729248,
      "y": 0.02632104977965355,
      "z": 1.2382856607437134,
      "time_usec": 12415788608
    },
    {
      "x": 9.631111145019531,
      "y": 0.040677983313798904,
      "z": 1.2478569746017456,
      "time_usec": 12415790865
    },
    {
      "x": 9.635896682739258,
      "y": 0.035892341285943985,
      "z": 1.2430713176727295,
      "time_usec": 12415793123
    },
    {
      "x": 9.621540069580078,
      "y": 0.040677983313798904,
      "z": 1.2191431522369385,
      "time_usec": 12415795378
    },
    {
      "x": 9.593423843383789,
      "y": 0.035892341285943985,
      "z": 1.2191431522369385,
      "time_usec": 12415797636
    },
    {
      "x": 9.574281692504883,
      "y": 0.02632104977965355,
      "z": 1.2137593030929565,
      "time_usec": 12415799893
    },
    {
      "x": 9.574281692504883,
      "y": 0.02153540402650833,
      "z": 1.2233306169509888,
      "time_usec": 12415802151
    },
    {
      "x": 9.592825889587402,
      "y": 0.016749758273363113,
      "z": 1.2376874685287476,
      "time_usec": 12415804408
    },
    {
      "x": 9.592825889587402,
      "y": -0.0023928226437419653,
      "z": 1.256830096244812,
      "time_usec": 12415806665
    },
    {
      "x": 9.602396965026855,
      "y": -0.0023928226437419653,
      "z": 1.2903295755386353,
      "time_usec": 12415808922
    },
    {
      "x": 9.592825889587402,
      "y": 0.007178467698395252,
      "z": 1.319043517112732,
      "time_usec": 12415811180
    },
    {
      "x": 9.611370086669922,
      "y": 0.02153540402650833,
      "z": 1.3334003686904907,
      "time_usec": 12415813436
    },
    {
      "x": 9.587442398071289,
      "y": -0.0023928226437419653,
      "z": 1.3621143102645874,
      "time_usec": 12415815694
    },
    {
      "x": 9.57787036895752,
      "y": -0.01136590726673603,
      "z": 1.3621143102645874,
      "time_usec": 12415817950
    },
    {
      "x": 9.601799011230469,
      "y": -0.016749758273363113,
      "z": 1.3956137895584106,
      "time_usec": 12415820208
    },
    {
      "x": 9.610772132873535,
      "y": -0.031106693670153618,
      "z": 1.4243277311325073,
      "time_usec": 12415822464
    },
    {
      "x": 9.634700775146484,
      "y": -0.031106693670153618,
      "z": 1.4291132688522339,
      "time_usec": 12415824722
    },
    {
      "x": 9.644271850585938,
      "y": -0.05503492057323456,
      "z": 1.409970760345459,
      "time_usec": 12415826979
    },
    {
      "x": 9.658628463745117,
      "y": -0.05024927482008934,
      "z": 1.4003994464874268,
      "time_usec": 12415829238
    },
    {
      "x": 9.66819953918457,
      "y": -0.04546362906694412,
      "z": 1.3770694732666016,
      "time_usec": 12415831493
    },
    {
      "x": 9.525827407836914,
      "y": -0.054436713457107544,
      "z": 1.337587833404541,
      "time_usec": 12415833751
    },
    {
      "x": 9.763314247131348,
      "y": -0.01734796352684498,
      "z": 1.358525037765503,
      "time_usec": 12415836008
    },
    {
      "x": 9.863214492797852,
      "y": 0.005982056725770235,
      "z": 1.3160524368286133,
      "time_usec": 12415838265
    },
    {
      "x": 9.67777156829834,
      "y": -0.046061836183071136,
      "z": 1.2813565731048584,
      "time_usec": 12415840522
    },
    {
      "x": 9.65384292602539,
      "y": -0.040677983313798904,
      "z": 1.3052847385406494,
      "time_usec": 12415842780
    },
    {
      "x": 9.673583984375,
      "y": 0.007178467698395252,
      "z": 1.3100703954696655,
      "time_usec": 12415845038
    },
    {
      "x": 9.625727653503418,
      "y": -0.01196411345154047,
      "z": 1.3142578601837158,
      "time_usec": 12415847298
    },
    {
      "x": 9.582656860351562,
      "y": -0.001794616924598813,
      "z": 1.3573286533355713,
      "time_usec": 12415849567
    },
    {
      "x": 9.640084266662598,
      "y": 0.007178467698395252,
      "z": 1.3716856241226196,
      "time_usec": 12415851824
    },
    {
      "x": 9.672985076904297,
      "y": -0.01196411345154047,
      "z": 1.415354609489441,
      "time_usec": 12415854080
    },
    {
      "x": 9.677172660827637,
      "y": -0.02153540402650833,
      "z": 1.4482558965682983,
      "time_usec": 12415856330
    },
    {
      "x": 9.69631576538086,
      "y": -0.02153540402650833,
      "z": 1.444068431854248,
      "time_usec": 12415858592
    },
    {
      "x": 9.69631576538086,
      "y": -0.01196411345154047,
      "z": 1.4344971179962158,
      "time_usec": 12415860849
    },
    {
      "x": 9.658628463745117,
      "y": -0.0023928226437419653,
      "z": 1.4291132688522339,
      "time_usec": 12415863100
    },
    {
      "x": 9.644271850585938,
      "y": 0.02153540402650833,
      "z": 1.414756417274475,
      "time_usec": 12415865352
    },
    {
      "x": 9.625128746032715,
      "y": -0.01196411345154047,
      "z": 1.4051851034164429,
      "time_usec": 12415867615
    },
    {
      "x": 9.610772132873535,
      "y": -0.040677983313798904,
      "z": 1.409970760345459,
      "time_usec": 12415869878
    },
    {
      "x": 9.639486312866211,
      "y": -0.059820566326379776,
      "z": 1.414756417274475,
      "time_usec": 12415872135
    },
    {
      "x": 9.620343208312988,
      "y": -0.04546362906694412,
      "z": 1.4195420742034912,
      "time_usec": 12415874393
    },
    {
      "x": 9.625128746032715,
      "y": -0.07417750358581543,
      "z": 1.4243277311325073,
      "time_usec": 12415876646
    },
    {
      "x": 9.648459434509277,
      "y": -0.07417750358581543,
      "z": 1.4291132688522339,
      "time_usec": 12415878907
    },
    {
      "x": 9.691530227661133,
      "y": -0.06939185410737991,
      "z": 1.415354609489441,
      "time_usec": 12415881162
    },
    {
      "x": 9.691530227661133,
      "y": -0.05503492057323456,
      "z": 1.4009976387023926,
      "time_usec": 12415883410
    },
    {
      "x": 9.710672378540039,
      "y": -0.046061836183071136,
      "z": 1.4057832956314087,
      "time_usec": 12415885673
    },
    {
      "x": 9.720243453979492,
      "y": -0.026919255033135414,
      "z": 1.4009976387023926,
      "time_usec": 12415887935
    },
    {
      "x": 9.734601020812988,
      "y": -0.03170489892363548,
      "z": 1.3962119817733765,
      "time_usec": 12415890195
    },
    {
      "x": 9.734601020812988,
      "y": -0.03170489892363548,
      "z": 1.3866406679153442,
      "time_usec": 12415892451
    },
    {
      "x": 9.734601020812988,
      "y": -0.046061836183071136,
      "z": 1.3770694732666016,
      "time_usec": 12415894706
    },
    {
      "x": 9.734601020812988,
      "y": -0.026919255033135414,
      "z": 1.3627125024795532,
      "time_usec": 12415896959
    },
    {
      "x": 9.753743171691895,
      "y": -0.0364905446767807,
      "z": 1.357926845550537,
      "time_usec": 12415899220
    },
    {
      "x": 9.734601020812988,
      "y": -0.046061836183071136,
      "z": 1.353141188621521,
      "time_usec": 12415901476
    },
    {
      "x": 9.739386558532715,
      "y": -0.05563312768936157,
      "z": 1.3770694732666016,
      "time_usec": 12415903735
    },
    {
      "x": 9.758528709411621,
      "y": -0.0364905446767807,
      "z": 1.3674981594085693,
      "time_usec": 12415905988
    },
    {
      "x": 9.734601020812988,
      "y": -0.03170489892363548,
      "z": 1.333998680114746,
      "time_usec": 12415908247
    },
    {
      "x": 9.716055870056152,
      "y": -0.04127619042992592,
      "z": 1.3148560523986816,
      "time_usec": 12415910494
    },
    {
      "x": 9.672985076904297,
      "y": -0.05563312768936157,
      "z": 1.2957134246826172,
      "time_usec": 12415912765
    },
    {
      "x": 9.67777156829834,
      "y": -0.06041877344250679,
      "z": 1.2813565731048584,
      "time_usec": 12415915023
    },
    {
      "x": 9.664012908935547,
      "y": -0.046061836183071136,
      "z": 1.262213945388794,
      "time_usec": 12415917281
    },
    {
      "x": 9.625727653503418,
      "y": -0.040677983313798904,
      "z": 1.26699960231781,
      "time_usec": 12415919527
    },
    {
      "x": 9.630513191223145,
      "y": -0.02632104977965355,
      "z": 1.2478569746017456,
      "time_usec": 12415921800
    },
    {
      "x": 9.626325607299805,
      "y": -0.02153540402650833,
      "z": 1.2574282884597778,
      "time_usec": 12415924052
    },
    {
      "x": 9.640084266662598,
      "y": -0.01196411345154047,
      "z": 1.2574282884597778,
      "time_usec": 12415926305
    },
    {
      "x": 9.626325607299805,
      "y": 0.0023928226437419653,
      "z": 1.2430713176727295,
      "time_usec": 12415928564
    },
    {
      "x": 9.631111145019531,
      "y": 0.0023928226437419653,
      "z": 1.2335001230239868,
      "time_usec": 12415930818
    },
    {
      "x": 9.626325607299805,
      "y": -0.0023928226437419653,
      "z": 1.2143574953079224,
      "time_usec": 12415933066
    },
    {
      "x": 9.65503978729248,
      "y": -0.01734796352684498,
      "z": 1.2143574953079224,
      "time_usec": 12415935330
    },
    {
      "x": 9.668798446655273,
      "y": -0.0077766734175384045,
      "z": 1.2143574953079224,
      "time_usec": 12415937589
    },
    {
      "x": 9.654440879821777,
      "y": -0.022133609279990196,
      "z": 1.2239288091659546,
      "time_usec": 12415939853
    },
    {
      "x": 9.654440879821777,
      "y": -0.022133609279990196,
      "z": 1.262213945388794,
      "time_usec": 12415942109
    },
    {
      "x": 9.659226417541504,
      "y": -0.01734796352684498,
      "z": 1.2813565731048584,
      "time_usec": 12415944365
    },
    {
      "x": 9.672985076904297,
      "y": -0.05563312768936157,
      "z": 1.3100703954696655,
      "time_usec": 12415946618
    },
    {
      "x": 9.687342643737793,
      "y": -0.06999006122350693,
      "z": 1.3483555316925049,
      "time_usec": 12415948878
    },
    {
      "x": 9.715457916259766,
      "y": -0.0891326442360878,
      "z": 1.3818551301956177,
      "time_usec": 12415951132
    },
    {
      "x": 9.701101303100586,
      "y": -0.08434699475765228,
      "z": 1.4297115802764893,
      "time_usec": 12415953391
    },
    {
      "x": 9.705288887023926,
      "y": -0.07956135272979736,
      "z": 1.4632110595703125,
      "time_usec": 12415955638
    },
    {
      "x": 9.734002113342285,
      "y": -0.09391828626394272,
      "z": 1.4919248819351196,
      "time_usec": 12415957907
    },
    {
      "x": 9.734002113342285,
      "y": -0.10827522724866867,
      "z": 1.482353687286377,
      "time_usec": 12415960160
    },
    {
      "x": 9.738189697265625,
      "y": -0.10827522724866867,
      "z": 1.506281852722168,
      "time_usec": 12415962425
    },
    {
      "x": 9.762118339538574,
      "y": -0.09391828626394272,
      "z": 1.4967105388641357,
      "time_usec": 12415964678
    },
    {
      "x": 9.795618057250977,
      "y": -0.08434699475765228,
      "z": 1.4584254026412964,
      "time_usec": 12415966932
    },
    {
      "x": 9.824331283569336,
      "y": -0.0849452018737793,
      "z": 1.454237937927246,
      "time_usec": 12415969193
    },
    {
      "x": 9.748359680175781,
      "y": -0.05563312768936157,
      "z": 1.4536397457122803,
      "time_usec": 12415971449
    },
    {
      "x": 9.848259925842285,
      "y": -0.04187439754605293,
      "z": 1.425524115562439,
      "time_usec": 12415973710
    },
    {
      "x": 9.857831001281738,
      "y": -0.013160524889826775,
      "z": 1.4063814878463745,
      "time_usec": 12415975960
    },
    {
      "x": 9.810572624206543,
      "y": -0.01734796352684498,
      "z": 1.4207384586334229,
      "time_usec": 12415978221
    },
    {
      "x": 9.820143699645996,
      "y": -0.013160524889826775,
      "z": 1.425524115562439,
      "time_usec": 12415980473
    },
    {
      "x": 9.829715728759766,
      "y": 0.0011964113218709826,
      "z": 1.4159528017044067,
      "time_usec": 12415982738
    },
    {
      "x": 9.824331283569336,
      "y": -0.02751746028661728,
      "z": 1.44945228099823,
      "time_usec": 12415984993
    },
    {
      "x": 9.796216011047363,
      "y": -0.012562318705022335,
      "z": 1.4446666240692139,
      "time_usec": 12415987247
    },
    {
      "x": 9.791430473327637,
      "y": -0.0364905446767807,
      "z": 1.4679967164993286,
      "time_usec": 12415989509
    },
    {
      "x": 9.78664493560791,
      "y": -0.050847481936216354,
      "z": 1.4584254026412964,
      "time_usec": 12415991766
    },
    {
      "x": 9.767501831054688,
      "y": -0.07477571070194244,
      "z": 1.439282774925232,
      "time_usec": 12415994020
    },
    {
      "x": 9.767501831054688,
      "y": -0.08434699475765228,
      "z": 1.444068431854248,
      "time_usec": 12415996266
    },
    {
      "x": 9.757930755615234,
      "y": -0.09870393574237823,
      "z": 1.4297115802764893,
      "time_usec": 12415998536
    },
    {
      "x": 9.738788604736328,
      "y": -0.10827522724866867,
      "z": 1.415354609489441,
      "time_usec": 12416000791
    },
    {
      "x": 9.725028991699219,
      "y": -0.09870393574237823,
      "z": 1.4105689525604248,
      "time_usec": 12416003040
    },
    {
      "x": 9.725028991699219,
      "y": -0.09391828626394272,
      "z": 1.3914263248443604,
      "time_usec": 12416005301
    },
    {
      "x": 9.720243453979492,
      "y": -0.0891326442360878,
      "z": 1.3483555316925049,
      "time_usec": 12416007552
    },
    {
      "x": 9.701101303100586,
      "y": -0.10348957777023315,
      "z": 1.32921302318573,
      "time_usec": 12416009824
    },
    {
      "x": 9.682557106018066,
      "y": -0.0891326442360878,
      "z": 1.2717852592468262,
      "time_usec": 12416012075
    },
    {
      "x": 9.673583984375,
      "y": -0.07956135272979736,
      "z": 1.2430713176727295,
      "time_usec": 12416014326
    },
    {
      "x": 9.668798446655273,
      "y": -0.05563312768936157,
      "z": 1.2335001230239868,
      "time_usec": 12416016590
    },
    {
      "x": 9.659825325012207,
      "y": -0.046061836183071136,
      "z": 1.1808580160140991,
      "time_usec": 12416018852
    },
    {
      "x": 9.645467758178711,
      "y": -0.06041877344250679,
      "z": 1.1856436729431152,
      "time_usec": 12416021112
    },
    {
      "x": 9.650253295898438,
      "y": -0.0364905446767807,
      "z": 1.1569297313690186,
      "time_usec": 12416023365
    },
    {
      "x": 9.650253295898438,
      "y": -0.03170489892363548,
      "z": 1.1521440744400024,
      "time_usec": 12416025617
    },
    {
      "x": 9.640682220458984,
      "y": -0.03170489892363548,
      "z": 1.1665010452270508,
      "time_usec": 12416027880
    },
    {
      "x": 9.654440879821777,
      "y": -0.05563312768936157,
      "z": 1.2095718383789062,
      "time_usec": 12416030133
    },
    {
      "x": 9.678369522094727,
      "y": -0.06041877344250679,
      "z": 1.2191431522369385,
      "time_usec": 12416032395
    },
    {
      "x": 9.716055870056152,
      "y": -0.06999006122350693,
      "z": 1.2765709161758423,
      "time_usec": 12416034650
    },
    {
      "x": 9.710672378540039,
      "y": -0.09870393574237823,
      "z": 1.32921302318573,
      "time_usec": 12416036904
    },
    {
      "x": 9.720243453979492,
      "y": -0.10827522724866867,
      "z": 1.3627125024795532,
      "time_usec": 12416039161
    },
    {
      "x": 9.710672378540039,
      "y": -0.1178465187549591,
      "z": 1.3914263248443604,
      "time_usec": 12416041423
    },
    {
      "x": 9.701101303100586,
      "y": -0.12263216078281403,
      "z": 1.3866406679153442,
      "time_usec": 12416043680
    },
    {
      "x": 9.686744689941406,
      "y": -0.13220344483852386,
      "z": 1.3722838163375854,
      "time_usec": 12416045934
    },
    {
      "x": 9.681958198547363,
      "y": -0.12741780281066895,
      "z": 1.3483555316925049,
      "time_usec": 12416048194
    },
    {
      "x": 9.69212818145752,
      "y": -0.10827522724866867,
      "z": 1.3148560523986816,
      "time_usec": 12416050449
    },
    {
      "x": 9.701699256896973,
      "y": -0.08434699475765228,
      "z": 1.2526426315307617,
      "time_usec": 12416052710
    },
    {
      "x": 9.720842361450195,
      "y": -0.05563312768936157,
      "z": 1.2245270013809204,
      "time_usec": 12416054964
    },
    {
      "x": 9.731011390686035,
      "y": -0.037088751792907715,
      "z": 1.1958130598068237,
      "time_usec": 12416057217
    },
    {
      "x": 9.721440315246582,
      "y": -0.022133609279990196,
      "z": 1.205384373664856,
      "time_usec": 12416059476
    },
    {
      "x": 9.740582466125488,
      "y": 0.01615155301988125,
      "z": 1.1958130598068237,
      "time_usec": 12416061738
    },
    {
      "x": 9.721440315246582,
      "y": 0.020937198773026466,
      "z": 1.2005987167358398,
      "time_usec": 12416063996
    },
    {
      "x": 9.707083702087402,
      "y": 0.030508488416671753,
      "z": 1.210170030593872,
      "time_usec": 12416066247
    },
    {
      "x": 9.674181938171387,
      "y": 0.04486542567610741,
      "z": 1.2191431522369385,
      "time_usec": 12416068508
    },
    {
      "x": 9.645467758178711,
      "y": 0.059820566326379776,
      "z": 1.2287144660949707,
      "time_usec": 12416070762
    },
    {
      "x": 9.621540069580078,
      "y": 0.040677983313798904,
      "z": 1.2813565731048584,
      "time_usec": 12416073011
    },
    {
      "x": 9.621540069580078,
      "y": 0.016749758273363113,
      "z": 1.290927767753601,
      "time_usec": 12416075279
    },
    {
      "x": 9.640084266662598,
      "y": 0.007178467698395252,
      "z": 1.3244273662567139,
      "time_usec": 12416077532
    },
    {
      "x": 9.630513191223145,
      "y": -0.007178467698395252,
      "z": 1.3381860256195068,
      "time_usec": 12416079798
    },
    {
      "x": 9.65384292602539,
      "y": -0.040677983313798904,
      "z": 1.3770694732666016,
      "time_usec": 12416082053
    },
    {
      "x": 9.681958198547363,
      "y": -0.05024927482008934,
      "z": 1.3962119817733765,
      "time_usec": 12416084309
    },
    {
      "x": 9.710672378540039,
      "y": -0.06041877344250679,
      "z": 1.4297115802764893,
      "time_usec": 12416086557
    },
    {
      "x": 9.738788604736328,
      "y": -0.07956135272979736,
      "z": 1.4632110595703125,
      "time_usec": 12416088810
    },
    {
      "x": 9.772287368774414,
      "y": -0.050847481936216354,
      "z": 1.482353687286377,
      "time_usec": 12416091080
    },
    {
      "x": 9.78126049041748,
      "y": -0.07956135272979736,
      "z": 1.4919248819351196,
      "time_usec": 12416093338
    },
    {
      "x": 9.795618057250977,
      "y": -0.10348957777023315,
      "z": 1.4967105388641357,
      "time_usec": 12416095591
    },
    {
      "x": 9.800403594970703,
      "y": -0.09391828626394272,
      "z": 1.4871392250061035,
      "time_usec": 12416097835
    },
    {
      "x": 9.809974670410156,
      "y": -0.08015955984592438,
      "z": 1.4590235948562622,
      "time_usec": 12416100097
    },
    {
      "x": 9.800403594970703,
      "y": -0.10408778488636017,
      "z": 1.425524115562439,
      "time_usec": 12416102367
    },
    {
      "x": 9.800403594970703,
      "y": -0.10408778488636017,
      "z": 1.3968101739883423,
      "time_usec": 12416104625
    },
    {
      "x": 9.791430473327637,
      "y": -0.07058826833963394,
      "z": 1.3728820085525513,
      "time_usec": 12416106877
    },
    {
      "x": 9.78664493560791,
      "y": -0.06580262631177902,
      "z": 1.363310694694519,
      "time_usec": 12416109133
    },
    {
      "x": 9.763314247131348,
      "y": -0.05563312768936157,
      "z": 1.339382529258728,
      "time_usec": 12416111395
    },
    {
      "x": 9.772886276245117,
      "y": -0.061016976833343506,
      "z": 1.3250255584716797,
      "time_usec": 12416113652
    },
    {
      "x": 9.758528709411621,
      "y": -0.05563312768936157,
      "z": 1.334596872329712,
      "time_usec": 12416115907
    },
    {
      "x": 9.734601020812988,
      "y": -0.06041877344250679,
      "z": 1.3387842178344727,
      "time_usec": 12416118173
    },
    {
      "x": 9.753743171691895,
      "y": -0.07477571070194244,
      "z": 1.3483555316925049,
      "time_usec": 12416120420
    },
    {
      "x": 9.739386558532715,
      "y": -0.0891326442360878,
      "z": 1.353141188621521,
      "time_usec": 12416122669
    },
    {
      "x": 9.734601020812988,
      "y": -0.09391828626394272,
      "z": 1.357926845550537,
      "time_usec": 12416124935
    },
    {
      "x": 9.738788604736328,
      "y": -0.10827522724866867,
      "z": 1.3627125024795532,
      "time_usec": 12416127189
    },
    {
      "x": 9.729815483093262,
      "y": -0.08434699475765228,
      "z": 1.353141188621521,
      "time_usec": 12416129453
    },
    {
      "x": 9.720243453979492,
      "y": -0.11306086927652359,
      "z": 1.3387842178344727,
      "time_usec": 12416131709
    },
    {
      "x": 9.720243453979492,
      "y": -0.11306086927652359,
      "z": 1.32921302318573,
      "time_usec": 12416133968
    },
    {
      "x": 9.725028991699219,
      "y": -0.09870393574237823,
      "z": 1.2957134246826172,
      "time_usec": 12416136221
    },
    {
      "x": 9.729815483093262,
      "y": -0.10348957777023315,
      "z": 1.290927767753601,
      "time_usec": 12416138482
    },
    {
      "x": 9.744172096252441,
      "y": -0.09870393574237823,
      "z": 1.2675977945327759,
      "time_usec": 12416140735
    },
    {
      "x": 9.749555587768555,
      "y": -0.06041877344250679,
      "z": 1.2628121376037598,
      "time_usec": 12416142983
    },
    {
      "x": 9.739984512329102,
      "y": -0.050847481936216354,
      "z": 1.2628121376037598,
      "time_usec": 12416145251
    },
    {
      "x": 9.716654777526855,
      "y": -0.0029910283628851175,
      "z": 1.2526426315307617,
      "time_usec": 12416147504
    },
    {
      "x": 9.697511672973633,
      "y": 0.006580262444913387,
      "z": 1.2382856607437134,
      "time_usec": 12416149770
    },
    {
      "x": 9.678967475891113,
      "y": 0.01615155301988125,
      "z": 1.2095718383789062,
      "time_usec": 12416152024
    },
    {
      "x": 9.645467758178711,
      "y": 0.03529413416981697,
      "z": 1.1856436729431152,
      "time_usec": 12416154282
    },
    {
      "x": 9.636494636535645,
      "y": 0.03529413416981697,
      "z": 1.1569297313690186,
      "time_usec": 12416156533
    },
    {
      "x": 9.607781410217285,
      "y": 0.01196411345154047,
      "z": 1.1473584175109863,
      "time_usec": 12416158795
    },
    {
      "x": 9.612566947937012,
      "y": 0.007178467698395252,
      "z": 1.1617153882980347,
      "time_usec": 12416161052
    },
    {
      "x": 9.607781410217285,
      "y": 0.007178467698395252,
      "z": 1.1617153882980347,
      "time_usec": 12416163310
    },
    {
      "x": 9.602995872497559,
      "y": 0.0023928226437419653,
      "z": 1.1808580160140991,
      "time_usec": 12416165562
    },
    {
      "x": 9.607182502746582,
      "y": -0.040677983313798904,
      "z": 1.2287144660949707,
      "time_usec": 12416167824
    },
    {
      "x": 9.588040351867676,
      "y": -0.05503492057323456,
      "z": 1.252044439315796,
      "time_usec": 12416170079
    },
    {
      "x": 9.587442398071289,
      "y": -0.08374879509210587,
      "z": 1.2759727239608765,
      "time_usec": 12416172331
    },
    {
      "x": 9.597013473510742,
      "y": -0.13639089465141296,
      "z": 1.2999008893966675,
      "time_usec": 12416174586
    },
    {
      "x": 9.601201057434082,
      "y": -0.14117653667926788,
      "z": 1.3046865463256836,
      "time_usec": 12416176847
    },
    {
      "x": 9.591629981994629,
      "y": -0.13639089465141296,
      "z": 1.323829174041748,
      "time_usec": 12416179112
    },
    {
      "x": 9.586843490600586,
      "y": -0.14117653667926788,
      "z": 1.323829174041748,
      "time_usec": 12416181369
    },
    {
      "x": 9.596415519714355,
      "y": -0.1459621787071228,
      "z": 1.3046865463256836,
      "time_usec": 12416183624
    },
    {
      "x": 9.616155624389648,
      "y": -0.11246266216039658,
      "z": 1.2903295755386353,
      "time_usec": 12416185875
    },
    {
      "x": 9.56889820098877,
      "y": -0.08853443711996078,
      "z": 1.256830096244812,
      "time_usec": 12416188134
    },
    {
      "x": 9.597611427307129,
      "y": -0.059820566326379776,
      "z": 1.2239288091659546,
      "time_usec": 12416190394
    },
    {
      "x": 9.588040351867676,
      "y": -0.016749758273363113,
      "z": 1.2137593030929565,
      "time_usec": 12416192643
    },
    {
      "x": 9.57906723022461,
      "y": 0.0023928226437419653,
      "z": 1.1808580160140991,
      "time_usec": 12416194910
    },
    {
      "x": 9.56052303314209,
      "y": 0.04546362906694412,
      "z": 1.165902853012085,
      "time_usec": 12416197162
    },
    {
      "x": 9.565308570861816,
      "y": 0.05024927482008934,
      "z": 1.1234302520751953,
      "time_usec": 12416199428
    },
    {
      "x": 9.570094108581543,
      "y": 0.05503492057323456,
      "z": 1.1042876243591309,
      "time_usec": 12416201681
    },
    {
      "x": 9.5324068069458,
      "y": 0.06939185410737991,
      "z": 1.1084750890731812,
      "time_usec": 12416203939
    },
    {
      "x": 9.54197883605957,
      "y": 0.07896314561367035,
      "z": 1.1084750890731812,
      "time_usec": 12416206189
    },
    {
      "x": 9.513264656066895,
      "y": 0.059820566326379776,
      "z": 1.0893324613571167,
      "time_usec": 12416208442
    },
    {
      "x": 9.494122505187988,
      "y": 0.06999006122350693,
      "z": 1.1180464029312134,
      "time_usec": 12416210709
    },
    {
      "x": 9.498908042907715,
      "y": 0.06520441919565201,
      "z": 1.1419745683670044,
      "time_usec": 12416212966
    },
    {
      "x": 9.493523597717285,
      "y": 0.04127619042992592,
      "z": 1.1754741668701172,
      "time_usec": 12416215226
    },
    {
      "x": 9.512666702270508,
      "y": 0.04127619042992592,
      "z": 1.189831018447876,
      "time_usec": 12416217476
    },
    {
      "x": 9.531808853149414,
      "y": 0.05503492057323456,
      "z": 1.189831018447876,
      "time_usec": 12416219739
    },
    {
      "x": 9.531808853149414,
      "y": 0.06041877344250679,
      "z": 1.189831018447876,
      "time_usec": 12416221996
    },
    {
      "x": 9.546165466308594,
      "y": 0.059820566326379776,
      "z": 1.165902853012085,
      "time_usec": 12416224254
    },
    {
      "x": 9.565308570861816,
      "y": 0.08374879509210587,
      "z": 1.1611171960830688,
      "time_usec": 12416226506
    },
    {
      "x": 9.56052303314209,
      "y": 0.07896314561367035,
      "z": 1.1377872228622437,
      "time_usec": 12416228768
    },
    {
      "x": 9.546764373779297,
      "y": 0.08374879509210587,
      "z": 1.1276177167892456,
      "time_usec": 12416231025
    },
    {
      "x": 9.55633544921875,
      "y": 0.0933200865983963,
      "z": 1.109073281288147,
      "time_usec": 12416233282
    },
    {
      "x": 9.565308570861816,
      "y": 0.07896314561367035,
      "z": 1.0995019674301147,
      "time_usec": 12416235530
    },
    {
      "x": 9.57487964630127,
      "y": 0.064606212079525,
      "z": 1.109073281288147,
      "time_usec": 12416237783
    },
    {
      "x": 9.584450721740723,
      "y": 0.064606212079525,
      "z": 1.1282159090042114,
      "time_usec": 12416240050
    },
    {
      "x": 9.608379364013672,
      "y": 0.06939185410737991,
      "z": 1.1282159090042114,
      "time_usec": 12416242300
    },
    {
      "x": 9.622138023376465,
      "y": 0.04546362906694412,
      "z": 1.1473584175109863,
      "time_usec": 12416244571
    },
    {
      "x": 9.612566947937012,
      "y": 0.04546362906694412,
      "z": 1.1425727605819702,
      "time_usec": 12416246820
    },
    {
      "x": 9.612566947937012,
      "y": 0.02632104977965355,
      "z": 1.1425727605819702,
      "time_usec": 12416249082
    },
    {
      "x": 9.636494636535645,
      "y": 0.03529413416981697,
      "z": 1.1665010452270508,
      "time_usec": 12416251326
    },
    {
      "x": 9.626923561096191,
      "y": 0.016749758273363113,
      "z": 1.171286702156067,
      "time_usec": 12416253596
    },
    {
      "x": 9.631709098815918,
      "y": 0.035892341285943985,
      "z": 1.1808580160140991,
      "time_usec": 12416255848
    },
    {
      "x": 9.66939640045166,
      "y": 0.049651071429252625,
      "z": 1.200000524520874,
      "time_usec": 12416258114
    },
    {
      "x": 9.674181938171387,
      "y": 0.04486542567610741,
      "z": 1.2143574953079224,
      "time_usec": 12416260365
    },
    {
      "x": 9.678967475891113,
      "y": 0.03529413416981697,
      "z": 1.2191431522369385,
      "time_usec": 12416262615
    },
    {
      "x": 9.707083702087402,
      "y": 0.030508488416671753,
      "z": 1.2197413444519043,
      "time_usec": 12416264881
    },
    {
      "x": 9.697511672973633,
      "y": 0.020937198773026466,
      "z": 1.2191431522369385,
      "time_usec": 12416267134
    },
    {
      "x": 9.697511672973633,
      "y": 0.025722842663526535,
      "z": 1.2239288091659546,
      "time_usec": 12416269396
    },
    {
      "x": 9.70229721069336,
      "y": 0.030508488416671753,
      "z": 1.205384373664856,
      "time_usec": 12416271637
    },
    {
      "x": 9.740582466125488,
      "y": 0.04007977992296219,
      "z": 1.1718848943710327,
      "time_usec": 12416273896
    },
    {
      "x": 9.735796928405762,
      "y": 0.02512463741004467,
      "z": 1.181456208229065,
      "time_usec": 12416276157
    },
    {
      "x": 9.726823806762695,
      "y": 0.03529413416981697,
      "z": 1.1718848943710327,
      "time_usec": 12416278431
    },
    {
      "x": 9.736394882202148,
      "y": 0.039481572806835175,
      "z": 1.1431710720062256,
      "time_usec": 12416280683
    },
    {
      "x": 9.745368003845215,
      "y": 0.015553346835076809,
      "z": 1.1383854150772095,
      "time_usec": 12416282930
    },
    {
      "x": 9.741181373596191,
      "y": 0.010767702013254166,
      "z": 1.1240284442901611,
      "time_usec": 12416285196
    },
    {
      "x": 9.741181373596191,
      "y": 0.03469592705368996,
      "z": 1.1096714735031128,
      "time_usec": 12416287449
    },
    {
      "x": 9.736394882202148,
      "y": -0.008374879136681557,
      "z": 1.090528964996338,
      "time_usec": 12416289702
    },
    {
      "x": 9.736394882202148,
      "y": -0.008374879136681557,
      "z": 1.0666006803512573,
      "time_usec": 12416291969
    },
    {
      "x": 9.750752449035645,
      "y": -0.003589233849197626,
      "z": 1.0761719942092896,
      "time_usec": 12416294225
    },
    {
      "x": 9.77408218383789,
      "y": -0.017946170642971992,
      "z": 1.0671988725662231,
      "time_usec": 12416296481
    },
    {
      "x": 9.778867721557617,
      "y": -0.037088751792907715,
      "z": 1.0815558433532715,
      "time_usec": 12416298741
    },
    {
      "x": 9.793225288391113,
      "y": -0.037088751792907715,
      "z": 1.0767701864242554,
      "time_usec": 12416300997
    },
    {
      "x": 9.79262638092041,
      "y": -0.07058826833963394,
      "z": 1.100698471069336,
      "time_usec": 12416303255
    },
    {
      "x": 9.80219841003418,
      "y": -0.08075776696205139,
      "z": 1.1150553226470947,
      "time_usec": 12416305505
    },
    {
      "x": 9.811769485473633,
      "y": -0.07118647545576096,
      "z": 1.1341979503631592,
      "time_usec": 12416307764
    },
    {
      "x": 9.821340560913086,
      "y": -0.06161518394947052,
      "z": 1.1485549211502075,
      "time_usec": 12416310025
    },
    {
      "x": 9.8207426071167,
      "y": -0.08554340898990631,
      "z": 1.1629117727279663,
      "time_usec": 12416312282
    },
    {
      "x": 9.830313682556152,
      "y": -0.08075776696205139,
      "z": 1.191625714302063,
      "time_usec": 12416314540
    },
    {
      "x": 9.839884757995605,
      "y": -0.08075776696205139,
      "z": 1.1629117727279663,
      "time_usec": 12416316793
    },
    {
      "x": 9.825528144836426,
      "y": -0.07118647545576096,
      "z": 1.1724830865859985,
      "time_usec": 12416319055
    },
    {
      "x": 9.821340560913086,
      "y": -0.07118647545576096,
      "z": 1.1389836072921753,
      "time_usec": 12416321311
    },
    {
      "x": 9.821340560913086,
      "y": -0.08075776696205139,
      "z": 1.1198409795761108,
      "time_usec": 12416323568
    },
    {
      "x": 9.811769485473633,
      "y": -0.08075776696205139,
      "z": 1.100698471069336,
      "time_usec": 12416325821
    },
    {
      "x": 9.806983947753906,
      "y": -0.09032905846834183,
      "z": 1.0671988725662231,
      "time_usec": 12416328083
    },
    {
      "x": 9.797411918640137,
      "y": -0.09990034252405167,
      "z": 1.057627558708191,
      "time_usec": 12416330337
    },
    {
      "x": 9.811769485473633,
      "y": -0.09032905846834183,
      "z": 1.0432707071304321,
      "time_usec": 12416332586
    },
    {
      "x": 9.783055305480957,
      "y": -0.1094716340303421,
      "z": 1.062413215637207,
      "time_usec": 12416334854
    },
    {
      "x": 9.811769485473633,
      "y": -0.1094716340303421,
      "z": 1.0863415002822876,
      "time_usec": 12416337106
    },
    {
      "x": 9.826126098632812,
      "y": -0.09990034252405167,
      "z": 1.0959128141403198,
      "time_usec": 12416339372
    },
    {
      "x": 9.8207426071167,
      "y": -0.14297115802764893,
      "z": 1.1389836072921753,
      "time_usec": 12416341626
    },
    {
      "x": 9.830313682556152,
      "y": -0.1381855010986328,
      "z": 1.1724830865859985,
      "time_usec": 12416343883
    },
    {
      "x": 9.853643417358398,
      "y": -0.15732808411121368,
      "z": 1.210768222808838,
      "time_usec": 12416346136
    },
    {
      "x": 9.853643417358398,
      "y": -0.17168502509593964,
      "z": 1.2346965074539185,
      "time_usec": 12416348398
    },
    {
      "x": 9.862616539001465,
      "y": -0.19561325013637543,
      "z": 1.2442678213119507,
      "time_usec": 12416350655
    },
    {
      "x": 9.862616539001465,
      "y": -0.18125630915164948,
      "z": 1.2538390159606934,
      "time_usec": 12416352910
    },
    {
      "x": 9.853643417358398,
      "y": -0.1908276081085205,
      "z": 1.2299108505249023,
      "time_usec": 12416355164
    },
    {
      "x": 9.853643417358398,
      "y": -0.19561325013637543,
      "z": 1.215553879737854,
      "time_usec": 12416357421
    },
    {
      "x": 9.858428955078125,
      "y": -0.1908276081085205,
      "z": 1.210768222808838,
      "time_usec": 12416359671
    },
    {
      "x": 9.848857879638672,
      "y": -0.1908276081085205,
      "z": 1.1820544004440308,
      "time_usec": 12416361942
    },
    {
      "x": 9.834501266479492,
      "y": -0.1860419660806656,
      "z": 1.1724830865859985,
      "time_usec": 12416364198
    },
    {
      "x": 9.848857879638672,
      "y": -0.1621137410402298,
      "z": 1.1676974296569824,
      "time_usec": 12416366456
    },
    {
      "x": 9.848857879638672,
      "y": -0.17168502509593964,
      "z": 1.1437692642211914,
      "time_usec": 12416368712
    },
    {
      "x": 9.849455833435059,
      "y": -0.15732808411121368,
      "z": 1.153340458869934,
      "time_usec": 12416370967
    },
    {
      "x": 9.830313682556152,
      "y": -0.14297115802764893,
      "z": 1.1389836072921753,
      "time_usec": 12416373211
    },
    {
      "x": 9.844670295715332,
      "y": -0.11904292553663254,
      "z": 1.100698471069336,
      "time_usec": 12416375468
    },
    {
      "x": 9.821340560913086,
      "y": -0.12861421704292297,
      "z": 1.100698471069336,
      "time_usec": 12416377729
    },
    {
      "x": 9.821340560913086,
      "y": -0.12382857501506805,
      "z": 1.0815558433532715,
      "time_usec": 12416380005
    },
    {
      "x": 9.821340560913086,
      "y": -0.10468599200248718,
      "z": 1.0719845294952393,
      "time_usec": 12416382259
    },
    {
      "x": 9.826126098632812,
      "y": -0.09511470049619675,
      "z": 1.057627558708191,
      "time_usec": 12416384514
    },
    {
      "x": 9.830911636352539,
      "y": -0.09990034252405167,
      "z": 1.0145567655563354,
      "time_usec": 12416386763
    },
    {
      "x": 9.821938514709473,
      "y": -0.08075776696205139,
      "z": 1.0049854516983032,
      "time_usec": 12416389028
    },
    {
      "x": 9.817152976989746,
      "y": -0.09032905846834183,
      "z": 1.0001999139785767,
      "time_usec": 12416391284
    },
    {
      "x": 9.831509590148926,
      "y": -0.07118647545576096,
      "z": 0.9858429431915283,
      "time_usec": 12416393541
    },
    {
      "x": 9.817152976989746,
      "y": -0.06640082597732544,
      "z": 1.0145567655563354,
      "time_usec": 12416395792
    },
    {
      "x": 9.793225288391113,
      "y": -0.07597211748361588,
      "z": 1.0145567655563354,
      "time_usec": 12416398052
    },
    {
      "x": 9.79801082611084,
      "y": -0.06640082597732544,
      "z": 1.0193424224853516,
      "time_usec": 12416400301
    },
    {
      "x": 9.807581901550293,
      "y": -0.06161518394947052,
      "z": 1.038485050201416,
      "time_usec": 12416402571
    },
    {
      "x": 9.778867721557617,
      "y": -0.08075776696205139,
      "z": 1.0480563640594482,
      "time_usec": 12416404824
    },
    {
      "x": 9.778867721557617,
      "y": -0.08075776696205139,
      "z": 1.0432707071304321,
      "time_usec": 12416407075
    },
    {
      "x": 9.769296646118164,
      "y": -0.07537391036748886,
      "z": 1.062413215637207,
      "time_usec": 12416409341
    },
    {
      "x": 9.745368003845215,
      "y": -0.08015955984592438,
      "z": 1.0857433080673218,
      "time_usec": 12416411598
    },
    {
      "x": 9.764511108398438,
      "y": -0.1136590763926506,
      "z": 1.0911271572113037,
      "time_usec": 12416413857
    },
    {
      "x": 9.769296646118164,
      "y": -0.1136590763926506,
      "z": 1.0815558433532715,
      "time_usec": 12416416108
    },
    {
      "x": 9.76391315460205,
      "y": -0.137587308883667,
      "z": 1.0911271572113037,
      "time_usec": 12416418370
    },
    {
      "x": 9.773484230041504,
      "y": -0.11844471842050552,
      "z": 1.0911271572113037,
      "time_usec": 12416420627
    },
    {
      "x": 9.787840843200684,
      "y": -0.12323036789894104,
      "z": 1.1102696657180786,
      "time_usec": 12416422886
    },
    {
      "x": 9.787840843200684,
      "y": -0.10887342691421509,
      "z": 1.0959128141403198,
      "time_usec": 12416425136
    },
    {
      "x": 9.80219841003418,
      "y": -0.09032905846834183,
      "z": 1.0863415002822876,
      "time_usec": 12416427394
    },
    {
      "x": 9.79262638092041,
      "y": -0.09930214285850525,
      "z": 1.0863415002822876,
      "time_usec": 12416429655
    },
    {
      "x": 9.783653259277344,
      "y": -0.09930214285850525,
      "z": 1.0528420209884644,
      "time_usec": 12416431914
    },
    {
      "x": 9.79262638092041,
      "y": -0.11425728350877762,
      "z": 1.062413215637207,
      "time_usec": 12416434170
    },
    {
      "x": 9.787840843200684,
      "y": -0.1094716340303421,
      "z": 1.0528420209884644,
      "time_usec": 12416436414
    },
    {
      "x": 9.76391315460205,
      "y": -0.13280165195465088,
      "z": 1.090528964996338,
      "time_usec": 12416438684
    },
    {
      "x": 9.787840843200684,
      "y": -0.13280165195465088,
      "z": 1.100698471069336,
      "time_usec": 12416440941
    },
    {
      "x": 9.768698692321777,
      "y": -0.15194423496723175,
      "z": 1.1383854150772095,
      "time_usec": 12416443202
    },
    {
      "x": 9.754341125488281,
      "y": -0.16151553392410278,
      "z": 1.1575279235839844,
      "time_usec": 12416445452
    },
    {
      "x": 9.734601020812988,
      "y": -0.17108681797981262,
      "z": 1.1958130598068237,
      "time_usec": 12416447708
    },
    {
      "x": 9.729815483093262,
      "y": -0.20458634197711945,
      "z": 1.2293126583099365,
      "time_usec": 12416449970
    },
    {
      "x": 9.739386558532715,
      "y": -0.21415762603282928,
      "z": 1.2293126583099365,
      "time_usec": 12416452225
    },
    {
      "x": 9.691530227661133,
      "y": -0.2183450609445572,
      "z": 1.2191431522369385,
      "time_usec": 12416454472
    },
    {
      "x": 9.677172660827637,
      "y": -0.2470589429140091,
      "z": 1.2239288091659546,
      "time_usec": 12416456737
    },
    {
      "x": 9.65384292602539,
      "y": -0.22791635990142822,
      "z": 1.1856436729431152,
      "time_usec": 12416458999
    },
    {
      "x": 9.64965534210205,
      "y": -0.18484555184841156,
      "z": 1.1521440744400024,
      "time_usec": 12416461260
    },
    {
      "x": 9.620942115783691,
      "y": -0.1657029688358307,
      "z": 1.1330015659332275,
      "time_usec": 12416463513
    },
    {
