{
  "accelerations": [
    {
      "x": -9.622735977172852,
      "y": 0.16809579730033875,
      "z": 0.6305087804794312,
      "time_usec": 8371729271
    },
    {
      "x": -9.579665184020996,
      "y": 0.19621145725250244,
      "z": 0.6305087804794312,
      "time_usec": 8371731524
    },
    {
      "x": -9.555737495422363,
      "y": 0.22013968229293823,
      "z": 0.6071787476539612,
      "time_usec": 8371733782
    },
    {
      "x": -9.565308570861816,
      "y": 0.2153540402650833,
      "z": 0.6119644045829773,
      "time_usec": 8371736040
    },
    {
      "x": -9.56052303314209,
      "y": 0.2105683982372284,
      "z": 0.5928218364715576,
      "time_usec": 8371738297
    },
    {
      "x": -9.517452239990234,
      "y": 0.22013968229293823,
      "z": 0.6023930907249451,
      "time_usec": 8371740554
    },
    {
      "x": -9.522237777709961,
      "y": 0.19621145725250244,
      "z": 0.597607433795929,
      "time_usec": 8371742812
    },
    {
      "x": -9.522835731506348,
      "y": 0.19621145725250244,
      "z": 0.6167500615119934,
      "time_usec": 8371745069
    },
    {
      "x": -9.513264656066895,
      "y": 0.1866401731967926,
      "z": 0.6215356588363647,
      "time_usec": 8371747326
    },
    {
      "x": -9.508479118347168,
      "y": 0.17647066712379456,
      "z": 0.5832505226135254,
      "time_usec": 8371749580
    },
    {
      "x": -9.489336013793945,
      "y": 0.15254244208335876,
      "z": 0.6023930907249451,
      "time_usec": 8371751826
    },
    {
      "x": -9.456435203552246,
      "y": 0.14775680005550385,
      "z": 0.6029912829399109,
      "time_usec": 8371754086
    },
    {
      "x": -9.456435203552246,
      "y": 0.1333998590707779,
      "z": 0.5934200286865234,
      "time_usec": 8371756344
    },
    {
      "x": -9.446864128112793,
      "y": 0.14775680005550385,
      "z": 0.5838487148284912,
      "time_usec": 8371758616
    },
    {
      "x": -9.422935485839844,
      "y": 0.1621137410402298,
      "z": 0.5599204897880554,
      "time_usec": 8371760874
    },
    {
      "x": -9.42772102355957,
      "y": 0.14297115802764893,
      "z": 0.550349235534668,
      "time_usec": 8371763132
    },
    {
      "x": -9.43190860748291,
      "y": 0.16689938306808472,
      "z": 0.5455635786056519,
      "time_usec": 8371765382
    },
    {
      "x": -9.436694145202637,
      "y": 0.1860419660806656,
      "z": 0.5694918036460876,
      "time_usec": 8371767630
    },
    {
      "x": -9.44626522064209,
      "y": 0.17647066712379456,
      "z": 0.5742774605751038,
      "time_usec": 8371769900
    },
    {
      "x": -9.44626522064209,
      "y": 0.1908276081085205,
      "z": 0.5742774605751038,
      "time_usec": 8371772157
    },
    {
      "x": -9.436694145202637,
      "y": 0.19561325013637543,
      "z": 0.5647061467170715,
      "time_usec": 8371774418
    },
    {
      "x": -9.436694145202637,
      "y": 0.21954147517681122,
      "z": 0.5647061467170715,
      "time_usec": 8371776672
    },
    {
      "x": -9.436694145202637,
      "y": 0.2386840581893921,
      "z": 0.5790630578994751,
      "time_usec": 8371778929
    },
    {
      "x": -9.427123069763184,
      "y": 0.2721835672855377,
      "z": 0.5982056856155396,
      "time_usec": 8371781179
    },
    {
      "x": -9.43190860748291,
      "y": 0.28654050827026367,
      "z": 0.5934200286865234,
      "time_usec": 8371783439
    },
    {
      "x": -9.427123069763184,
      "y": 0.267397940158844,
      "z": 0.5838487148284912,
      "time_usec": 8371785701
    },
    {
      "x": -9.422337532043457,
      "y": 0.27696922421455383,
      "z": 0.5838487148284912,
      "time_usec": 8371787961
    },
    {
      "x": -9.45583724975586,
      "y": 0.2626122832298279,
      "z": 0.5886343717575073,
      "time_usec": 8371790217
    },
    {
      "x": -9.465408325195312,
      "y": 0.25782662630081177,
      "z": 0.5934200286865234,
      "time_usec": 8371792469
    },
    {
      "x": -9.484550476074219,
      "y": 0.2386840581893921,
      "z": 0.6215356588363647,
      "time_usec": 8371794732
    },
    {
      "x": -9.498908042907715,
      "y": 0.22971096634864807,
      "z": 0.6502495408058167,
      "time_usec": 8371796993
    },
    {
      "x": -9.513264656066895,
      "y": 0.22013968229293823,
      "z": 0.664606511592865,
      "time_usec": 8371799246
    },
    {
      "x": -9.54197883605957,
      "y": 0.19142581522464752,
      "z": 0.6789634227752686,
      "time_usec": 8371801498
    },
    {
      "x": -9.55633544921875,
      "y": 0.17706887423992157,
      "z": 0.6831508874893188,
      "time_usec": 8371803754
    },
    {
      "x": -9.570094108581543,
      "y": 0.1818545162677765,
      "z": 0.6687939167022705,
      "time_usec": 8371806014
    },
    {
      "x": -9.594022750854492,
      "y": 0.16749759018421173,
      "z": 0.6640082597732544,
      "time_usec": 8371808277
    },
    {
      "x": -9.589237213134766,
      "y": 0.1818545162677765,
      "z": 0.6640082597732544,
      "time_usec": 8371810533
    },
    {
      "x": -9.594022750854492,
      "y": 0.1579262912273407,
      "z": 0.6687939167022705,
      "time_usec": 8371812787
    },
    {
      "x": -9.598808288574219,
      "y": 0.1585244983434677,
      "z": 0.6927221417427063,
      "time_usec": 8371815048
    },
    {
      "x": -9.589835166931152,
      "y": 0.15314064919948578,
      "z": 0.6927221417427063,
      "time_usec": 8371817300
    },
    {
      "x": -9.575477600097656,
      "y": 0.14356936514377594,
      "z": 0.7070791125297546,
      "time_usec": 8371819550
    },
    {
      "x": -9.604191780090332,
      "y": 0.14416755735874176,
      "z": 0.7357929348945618,
      "time_usec": 8371821815
    },
    {
      "x": -9.585647583007812,
      "y": 0.12502498924732208,
      "z": 0.7692924737930298,
      "time_usec": 8371824079
    },
    {
      "x": -9.595218658447266,
      "y": 0.11545369029045105,
      "z": 0.778863787651062,
      "time_usec": 8371826341
    },
    {
      "x": -9.604789733886719,
      "y": 0.12023933976888657,
      "z": 0.8027920126914978,
      "time_usec": 8371828594
    },
    {
      "x": -9.619147300720215,
      "y": 0.09152546525001526,
      "z": 0.8165507316589355,
      "time_usec": 8371830849
    },
    {
      "x": -9.643074989318848,
      "y": 0.08195417374372482,
      "z": 0.8261220455169678,
      "time_usec": 8371833102
    },
    {
      "x": -9.643074989318848,
      "y": 0.05802594870328903,
      "z": 0.8500502705574036,
      "time_usec": 8371835365
    },
    {
      "x": -9.657432556152344,
      "y": 0.06281159073114395,
      "z": 0.8548358678817749,
      "time_usec": 8371837622
    },
    {
      "x": -9.67657470703125,
      "y": 0.04366901144385338,
      "z": 0.8404789566993713,
      "time_usec": 8371839879
    },
    {
      "x": -9.704689979553223,
      "y": 0.06340979784727097,
      "z": 0.8261220455169678,
      "time_usec": 8371842131
    },
    {
      "x": -9.690333366394043,
      "y": 0.05383851006627083,
      "z": 0.8261220455169678,
      "time_usec": 8371844394
    },
    {
      "x": -9.699904441833496,
      "y": 0.058624155819416046,
      "z": 0.8356932997703552,
      "time_usec": 8371846651
    },
    {
      "x": -9.685547828674316,
      "y": 0.06281159073114395,
      "z": 0.8069794178009033,
      "time_usec": 8371848910
    },
    {
      "x": -9.69511890411377,
      "y": 0.058624155819416046,
      "z": 0.7974081635475159,
      "time_usec": 8371851162
    },
    {
      "x": -9.690333366394043,
      "y": 0.04366901144385338,
      "z": 0.768694281578064,
      "time_usec": 8371853418
    },
    {
      "x": -9.704689979553223,
      "y": 0.024526432156562805,
      "z": 0.768694281578064,
      "time_usec": 8371855681
    },
    {
      "x": -9.723833084106445,
      "y": 0.010767702013254166,
      "z": 0.7543373107910156,
      "time_usec": 8371857939
    },
    {
      "x": -9.728618621826172,
      "y": -0.017946170642971992,
      "z": 0.7495517134666443,
      "time_usec": 8371860196
    },
    {
      "x": -9.747162818908691,
      "y": -0.013160524889826775,
      "z": 0.7495517134666443,
      "time_usec": 8371862448
    },
    {
      "x": -9.77109146118164,
      "y": -0.037088751792907715,
      "z": 0.7728816866874695,
      "time_usec": 8371864709
    },
    {
      "x": -9.795019149780273,
      "y": -0.061016976833343506,
      "z": 0.7824530005455017,
      "time_usec": 8371866962
    },
    {
      "x": -9.7998046875,
      "y": -0.06580262631177902,
      "z": 0.7920243144035339,
      "time_usec": 8371869226
    },
    {
      "x": -9.842875480651855,
      "y": -0.06999006122350693,
      "z": 0.8249256014823914,
      "time_usec": 8371871478
    },
    {
      "x": -9.866804122924805,
      "y": -0.046061836183071136,
      "z": 0.8105686902999878,
      "time_usec": 8371873741
    },
    {
      "x": -9.871589660644531,
      "y": -0.050847481936216354,
      "z": 0.8344969153404236,
      "time_usec": 8371875995
    },
    {
      "x": -9.890732765197754,
      "y": -0.06520441919565201,
      "z": 0.8632107973098755,
      "time_usec": 8371878257
    },
    {
      "x": -9.871589660644531,
      "y": -0.04127619042992592,
      "z": 0.877567708492279,
      "time_usec": 8371880511
    },
    {
      "x": -9.876375198364258,
      "y": -0.050847481936216354,
      "z": 0.8823533654212952,
      "time_usec": 8371882764
    },
    {
      "x": -9.90987491607666,
      "y": -0.05024927482008934,
      "z": 0.9200403094291687,
      "time_usec": 8371885023
    },
    {
      "x": -9.890732765197754,
      "y": -0.040677983313798904,
      "z": 0.9397810697555542,
      "time_usec": 8371887286
    },
    {
      "x": -9.890732765197754,
      "y": -0.02153540402650833,
      "z": 0.9397810697555542,
      "time_usec": 8371889542
    },
    {
      "x": -9.881759643554688,
      "y": -0.035892341285943985,
      "z": 0.9918249845504761,
      "time_usec": 8371891795
    },
    {
      "x": -9.894919395446777,
      "y": 0.001794616924598813,
      "z": 0.8871390223503113,
      "time_usec": 8371894056
    },
    {
      "x": -9.863214492797852,
      "y": -0.08374879509210587,
      "z": 1.0636097192764282,
      "time_usec": 8371896312
    },
    {
      "x": -9.942776679992676,
      "y": -0.02632104977965355,
      "z": 0.900897741317749,
      "time_usec": 8371898573
    },
    {
      "x": -9.90149974822998,
      "y": -0.0933200865983963,
      "z": 1.058824062347412,
      "time_usec": 8371900827
    },
    {
      "x": -9.929018020629883,
      "y": -0.05024927482008934,
      "z": 0.9774680733680725,
      "time_usec": 8371903081
    },
    {
      "x": -9.919445991516113,
      "y": -0.04546362906694412,
      "z": 0.900897741317749,
      "time_usec": 8371905345
    },
    {
      "x": -9.896714210510254,
      "y": -0.10289137065410614,
      "z": 1.073180913925171,
      "time_usec": 8371907602
    },
    {
      "x": -9.937990188598633,
      "y": -0.035892341285943985,
      "z": 0.8386843204498291,
      "time_usec": 8371909859
    },
    {
      "x": -9.90568733215332,
      "y": -0.08374879509210587,
      "z": 0.9631111025810242,
      "time_usec": 8371912110
    },
    {
      "x": -9.943374633789062,
      "y": -0.059820566326379776,
      "z": 0.9296116232872009,
      "time_usec": 8371914373
    },
    {
      "x": -9.918848037719727,
      "y": -0.050847481936216354,
      "z": 0.8249256014823914,
      "time_usec": 8371916631
    },
    {
      "x": -9.914660453796387,
      "y": -0.06939185410737991,
      "z": 0.8967102766036987,
      "time_usec": 8371918889
    },
    {
      "x": -9.918848037719727,
      "y": -0.050847481936216354,
      "z": 0.8201399445533752,
      "time_usec": 8371921144
    },
    {
      "x": -9.89970588684082,
      "y": -0.050847481936216354,
      "z": 0.8201399445533752,
      "time_usec": 8371923398
    },
    {
      "x": -9.885348320007324,
      "y": -0.026919255033135414,
      "z": 0.8297112584114075,
      "time_usec": 8371925657
    },
    {
      "x": -9.89013385772705,
      "y": -0.026919255033135414,
      "z": 0.7914260625839233,
      "time_usec": 8371927905
    },
    {
      "x": -9.885348320007324,
      "y": -0.01734796352684498,
      "z": 0.8105686902999878,
      "time_usec": 8371930175
    },
    {
      "x": -9.885348320007324,
      "y": 0.01136590726673603,
      "z": 0.8057830333709717,
      "time_usec": 8371932427
    },
    {
      "x": -9.89013385772705,
      "y": 0.01615155301988125,
      "z": 0.8009973764419556,
      "time_usec": 8371934693
    },
    {
      "x": -9.889535903930664,
      "y": 0.030508488416671753,
      "z": 0.7770691514015198,
      "time_usec": 8371936947
    },
    {
      "x": -9.875179290771484,
      "y": 0.04007977992296219,
      "z": 0.7770691514015198,
      "time_usec": 8371939203
    },
    {
      "x": -9.875179290771484,
      "y": 0.054436713457107544,
      "z": 0.7818548083305359,
      "time_usec": 8371941458
    },
    {
      "x": -9.879964828491211,
      "y": 0.054436713457107544,
      "z": 0.7770691514015198,
      "time_usec": 8371943719
    },
    {
      "x": -9.865608215332031,
      "y": 0.049651071429252625,
      "z": 0.7435696125030518,
      "time_usec": 8371945978
    },
    {
      "x": -9.860821723937988,
      "y": 0.07836493849754333,
      "z": 0.7489534616470337,
      "time_usec": 8371948235
    },
    {
      "x": -9.856036186218262,
      "y": 0.09272187948226929,
      "z": 0.763310432434082,
      "time_usec": 8371950490
    },
    {
      "x": -9.836894035339355,
      "y": 0.11665010452270508,
      "z": 0.7393822073936462,
      "time_usec": 8371952742
    },
    {
      "x": -9.81356430053711,
      "y": 0.09690931439399719,
      "z": 0.7441678643226624,
      "time_usec": 8371955002
    },
    {
      "x": -9.808777809143066,
      "y": 0.09690931439399719,
      "z": 0.7585247755050659,
      "time_usec": 8371957261
    },
    {
      "x": -9.799206733703613,
      "y": 0.11605189740657806,
      "z": 0.763310432434082,
      "time_usec": 8371959510
    },
    {
      "x": -9.808777809143066,
      "y": 0.12143574655056,
      "z": 0.763310432434082,
      "time_usec": 8371961772
    },
    {
      "x": -9.818349838256836,
      "y": 0.11665010452270508,
      "z": 0.7680960893630981,
      "time_usec": 8371964025
    },
    {
      "x": -9.851250648498535,
      "y": 0.0975075215101242,
      "z": 0.7585247755050659,
      "time_usec": 8371966295
    },
    {
      "x": -9.865608215332031,
      "y": 0.11665010452270508,
      "z": 0.7674978375434875,
      "time_usec": 8371968540
    },
    {
      "x": -9.89850902557373,
      "y": 0.12622138857841492,
      "z": 0.7627122402191162,
      "time_usec": 8371970810
    },
    {
      "x": -9.908080101013184,
      "y": 0.14117653667926788,
      "z": 0.7914260625839233,
      "time_usec": 8371973057
    },
    {
      "x": -9.927223205566406,
      "y": 0.1459621787071228,
      "z": 0.7722834944725037,
      "time_usec": 8371975314
    },
    {
      "x": -9.91286563873291,
      "y": 0.15074782073497772,
      "z": 0.7818548083305359,
      "time_usec": 8371977582
    },
    {
      "x": -9.917651176452637,
      "y": 0.16031911969184875,
      "z": 0.7722834944725037,
      "time_usec": 8371979839
    },
    {
      "x": -9.893723487854004,
      "y": 0.18843477964401245,
      "z": 0.7962117195129395,
      "time_usec": 8371982094
    },
    {
      "x": -9.874580383300781,
      "y": 0.19322042167186737,
      "z": 0.7818548083305359,
      "time_usec": 8371984353
    },
    {
      "x": -9.874580383300781,
      "y": 0.19800607860088348,
      "z": 0.7722834944725037,
      "time_usec": 8371986614
    },
    {
      "x": -9.874580383300781,
      "y": 0.18843477964401245,
      "z": 0.753140926361084,
      "time_usec": 8371988869
    },
    {
      "x": -9.841679573059082,
      "y": 0.19322042167186737,
      "z": 0.7680960893630981,
      "time_usec": 8371991123
    },
    {
      "x": -9.76989459991455,
      "y": 0.2069791555404663,
      "z": 0.729810893535614,
      "time_usec": 8371993373
    },
    {
      "x": -9.722636222839355,
      "y": 0.19262222945690155,
      "z": 0.7160521745681763,
      "time_usec": 8371995629
    },
    {
      "x": -9.6795654296875,
      "y": 0.18723836541175842,
      "z": 0.6969096064567566,
      "time_usec": 8371997897
    },
    {
      "x": -9.669994354248047,
      "y": 0.19680966436862946,
      "z": 0.6825526356697083,
      "time_usec": 8372000154
    },
    {
      "x": -9.708279609680176,
      "y": 0.16331014037132263,
      "z": 0.6586244106292725,
      "time_usec": 8372002409
    },
    {
      "x": -9.693922996520996,
      "y": 0.13938191533088684,
      "z": 0.649053156375885,
      "time_usec": 8372004669
    },
    {
      "x": -9.70349407196045,
      "y": 0.14895321428775787,
      "z": 0.6299105882644653,
      "time_usec": 8372006923
    },
    {
      "x": -9.698708534240723,
      "y": 0.129810631275177,
      "z": 0.649053156375885,
      "time_usec": 8372009171
    },
    {
      "x": -9.717850685119629,
      "y": 0.129810631275177,
      "z": 0.6729813814163208,
      "time_usec": 8372011436
    },
    {
      "x": -9.732208251953125,
      "y": 0.10648060590028763,
      "z": 0.6777670383453369,
      "time_usec": 8372013700
    },
    {
      "x": -9.760921478271484,
      "y": 0.10648060590028763,
      "z": 0.7016952633857727,
      "time_usec": 8372015959
    },
    {
      "x": -9.756135940551758,
      "y": 0.09212367236614227,
      "z": 0.7256234884262085,
      "time_usec": 8372018215
    },
    {
      "x": -9.751350402832031,
      "y": 0.09212367236614227,
      "z": 0.7447660565376282,
      "time_usec": 8372020470
    },
    {
      "x": -9.770493507385254,
      "y": 0.0729810893535614,
      "z": 0.7728816866874695,
      "time_usec": 8372022728
    },
    {
      "x": -9.77527904510498,
      "y": 0.07776673883199692,
      "z": 0.7680960893630981,
      "time_usec": 8372024991
    },
    {
      "x": -9.765707015991211,
      "y": 0.08733802288770676,
      "z": 0.7537391185760498,
      "time_usec": 8372027243
    },
    {
      "x": -9.770493507385254,
      "y": 0.06819544732570648,
      "z": 0.763310432434082,
      "time_usec": 8372029500
    },
    {
      "x": -9.760921478271484,
      "y": 0.10169496387243271,
      "z": 0.7345965504646301,
      "time_usec": 8372031751
    },
    {
      "x": -9.736993789672852,
      "y": 0.10169496387243271,
      "z": 0.7399803996086121,
      "time_usec": 8372034011
    },
    {
      "x": -9.751350402832031,
      "y": 0.10169496387243271,
      "z": 0.735194742679596,
      "time_usec": 8372036273
    },
    {
      "x": -9.651450157165527,
      "y": 0.1537388563156128,
      "z": 0.7214360237121582,
      "time_usec": 8372038531
    },
    {
      "x": -9.661619186401367,
      "y": 0.1010967567563057,
      "z": 0.7543373107910156,
      "time_usec": 8372040787
    },
    {
      "x": -9.847063064575195,
      "y": 0.020937198773026466,
      "z": 0.7345965504646301,
      "time_usec": 8372043040
    },
    {
      "x": -9.746564865112305,
      "y": 0.11126625537872314,
      "z": 0.7639086246490479,
      "time_usec": 8372045305
    },
    {
      "x": -9.637691497802734,
      "y": 0.12023933976888657,
      "z": 0.7639086246490479,
      "time_usec": 8372047560
    },
    {
      "x": -9.766305923461914,
      "y": 0.0729810893535614,
      "z": 0.8015955686569214,
      "time_usec": 8372049817
    },
    {
      "x": -9.732806205749512,
      "y": 0.07776673883199692,
      "z": 0.8255237936973572,
      "time_usec": 8372052059
    },
    {
      "x": -9.671191215515137,
      "y": 0.08195417374372482,
      "z": 0.859621524810791,
      "time_usec": 8372054319
    },
    {
      "x": -9.714262008666992,
      "y": 0.09212367236614227,
      "z": 0.8733802437782288,
      "time_usec": 8372056584
    },
    {
      "x": -9.757332801818848,
      "y": 0.0729810893535614,
      "z": 0.8733802437782288,
      "time_usec": 8372058847
    },
    {
      "x": -9.762118339538574,
      "y": 0.05383851006627083,
      "z": 0.8877372145652771,
      "time_usec": 8372061097
    },
    {
      "x": -9.752547264099121,
      "y": 0.05383851006627083,
      "z": 0.8925228714942932,
      "time_usec": 8372063357
    },
    {
      "x": -9.7998046875,
      "y": 0.054436713457107544,
      "z": 0.882951557636261,
      "time_usec": 8372065620
    },
    {
      "x": -9.804591178894043,
      "y": 0.0687936544418335,
      "z": 0.8877372145652771,
      "time_usec": 8372067877
    },
    {
      "x": -9.804591178894043,
      "y": 0.049651071429252625,
      "z": 0.9014959335327148,
      "time_usec": 8372070134
    },
    {
      "x": -9.80937671661377,
      "y": 0.0687936544418335,
      "z": 0.9158528447151184,
      "time_usec": 8372072387
    },
    {
      "x": -9.804591178894043,
      "y": 0.05922235921025276,
      "z": 0.9206385016441345,
      "time_usec": 8372074648
    },
    {
      "x": -9.786046028137207,
      "y": 0.04486542567610741,
      "z": 0.9355936646461487,
      "time_usec": 8372076906
    },
    {
      "x": -9.771689414978027,
      "y": 0.04007977992296219,
      "z": 0.9451649188995361,
      "time_usec": 8372079163
    },
    {
      "x": -9.776474952697754,
      "y": 0.06400800496339798,
      "z": 0.9260223507881165,
      "time_usec": 8372081415
    },
    {
      "x": -9.742975234985352,
      "y": 0.058624155819416046,
      "z": 0.9499505758285522,
      "time_usec": 8372083678
    },
    {
      "x": -9.762118339538574,
      "y": 0.0687936544418335,
      "z": 0.9403793215751648,
      "time_usec": 8372085936
    },
    {
      "x": -9.733404159545898,
      "y": 0.058624155819416046,
      "z": 0.9308080077171326,
      "time_usec": 8372088191
    },
    {
      "x": -9.728618621826172,
      "y": 0.0729810893535614,
      "z": 0.9260223507881165,
      "time_usec": 8372090436
    },
    {
      "x": -9.742975234985352,
      "y": 0.08255238085985184,
      "z": 0.9212366938591003,
      "time_usec": 8372092702
    },
    {
      "x": -9.747760772705078,
      "y": 0.09212367236614227,
      "z": 0.9116654396057129,
      "time_usec": 8372094965
    },
    {
      "x": -9.723833084106445,
      "y": 0.09690931439399719,
      "z": 0.9116654396057129,
      "time_usec": 8372097226
    },
    {
      "x": -9.733404159545898,
      "y": 0.11126625537872314,
      "z": 0.8925228714942932,
      "time_usec": 8372099480
    },
    {
      "x": -9.733404159545898,
      "y": 0.12083754688501358,
      "z": 0.8973084688186646,
      "time_usec": 8372101731
    },
    {
      "x": -9.704689979553223,
      "y": 0.13519448041915894,
      "z": 0.9068797826766968,
      "time_usec": 8372103991
    },
    {
      "x": -9.671789169311523,
      "y": 0.12083754688501358,
      "z": 0.9074779748916626,
      "time_usec": 8372106249
    },
    {
      "x": -9.65683364868164,
      "y": 0.14476576447486877,
      "z": 0.9026923179626465,
      "time_usec": 8372108498
    },
    {
      "x": -9.643074989318848,
      "y": 0.11545369029045105,
      "z": 0.8883354067802429,
      "time_usec": 8372110767
    },
    {
      "x": -9.619147300720215,
      "y": 0.13938191533088684,
      "z": 0.8691928386688232,
      "time_usec": 8372113019
    },
    {
      "x": -9.614361763000488,
      "y": 0.12023933976888657,
      "z": 0.8404789566993713,
      "time_usec": 8372115272
    },
    {
      "x": -9.600004196166992,
      "y": 0.10588239878416061,
      "z": 0.836291491985321,
      "time_usec": 8372117539
    },
    {
      "x": -9.585647583007812,
      "y": 0.11066804826259613,
      "z": 0.7884350419044495,
      "time_usec": 8372119795
    },
    {
      "x": -9.585647583007812,
      "y": 0.07657032459974289,
      "z": 0.7740781307220459,
      "time_usec": 8372122053
    },
    {
      "x": -9.57607650756836,
      "y": 0.07657032459974289,
      "z": 0.7645068168640137,
      "time_usec": 8372124310
    },
    {
      "x": -9.571290969848633,
      "y": 0.08135596662759781,
      "z": 0.745364248752594,
      "time_usec": 8372126565
    },
    {
      "x": -9.571290969848633,
      "y": 0.08135596662759781,
      "z": 0.7214360237121582,
      "time_usec": 8372128827
    },
    {
      "x": -9.56650447845459,
      "y": 0.06699903309345245,
      "z": 0.7070791125297546,
      "time_usec": 8372131082
    },
    {
      "x": -9.575477600097656,
      "y": 0.06699903309345245,
      "z": 0.7070791125297546,
      "time_usec": 8372133338
    },
    {
      "x": -9.589835166931152,
      "y": 0.09571290761232376,
      "z": 0.7070791125297546,
      "time_usec": 8372135598
    },
    {
      "x": -9.594620704650879,
      "y": 0.11006984114646912,
      "z": 0.6927221417427063,
      "time_usec": 8372137856
    },
    {
      "x": -9.589835166931152,
      "y": 0.11485548317432404,
      "z": 0.6592226624488831,
      "time_usec": 8372140114
    },
    {
      "x": -9.589237213134766,
      "y": 0.13878370821475983,
      "z": 0.6687939167022705,
      "time_usec": 8372142365
    },
    {
      "x": -9.57487964630127,
      "y": 0.15314064919948578,
      "z": 0.6592226624488831,
      "time_usec": 8372144628
    },
    {
      "x": -9.570094108581543,
      "y": 0.1579262912273407,
      "z": 0.6406782865524292,
      "time_usec": 8372146885
    },
    {
      "x": -9.57487964630127,
      "y": 0.1866401731967926,
      "z": 0.6496513485908508,
      "time_usec": 8372149142
    },
    {
      "x": -9.57487964630127,
      "y": 0.16749759018421173,
      "z": 0.6544370055198669,
      "time_usec": 8372151395
    },
    {
      "x": -9.57487964630127,
      "y": 0.19142581522464752,
      "z": 0.6544370055198669,
      "time_usec": 8372153657
    },
    {
      "x": -9.56052303314209,
      "y": 0.1579262912273407,
      "z": 0.6406782865524292,
      "time_usec": 8372155915
    },
    {
      "x": -9.57487964630127,
      "y": 0.14835500717163086,
      "z": 0.6592226624488831,
      "time_usec": 8372158174
    },
    {
      "x": -9.579665184020996,
      "y": 0.1579262912273407,
      "z": 0.6640082597732544,
      "time_usec": 8372160428
    },
    {
      "x": -9.570094108581543,
      "y": 0.16271193325519562,
      "z": 0.6592226624488831,
      "time_usec": 8372162682
    },
    {
      "x": -9.57069206237793,
      "y": 0.15314064919948578,
      "z": 0.6783652305603027,
      "time_usec": 8372164944
    },
    {
      "x": -9.594620704650879,
      "y": 0.1339980661869049,
      "z": 0.6975077986717224,
      "time_usec": 8372167201
    },
    {
      "x": -9.608977317810059,
      "y": 0.12442677468061447,
      "z": 0.7070791125297546,
      "time_usec": 8372169459
    },
    {
      "x": -9.594620704650879,
      "y": 0.12921242415905,
      "z": 0.7501499056816101,
      "time_usec": 8372171711
    },
    {
      "x": -9.594620704650879,
      "y": 0.13938191533088684,
      "z": 0.7884350419044495,
      "time_usec": 8372173971
    },
    {
      "x": -9.685547828674316,
      "y": 0.11066804826259613,
      "z": 0.8213363885879517,
      "time_usec": 8372176219
    },
    {
      "x": -9.628718376159668,
      "y": 0.11066804826259613,
      "z": 0.8452646136283875,
      "time_usec": 8372178487
    },
    {
      "x": -9.619147300720215,
      "y": 0.11066804826259613,
      "z": 0.8452646136283875,
      "time_usec": 8372180732
    },
    {
      "x": -9.671191215515137,
      "y": 0.1010967567563057,
      "z": 0.8548358678817749,
      "time_usec": 8372183001
    },
    {
      "x": -9.671789169311523,
      "y": 0.08195417374372482,
      "z": 0.8835497498512268,
      "time_usec": 8372185261
    },
    {
      "x": -9.685547828674316,
      "y": 0.08255238085985184,
      "z": 0.8787640929222107,
      "time_usec": 8372187521
    },
    {
      "x": -9.709476470947266,
      "y": 0.06340979784727097,
      "z": 0.8781659007072449,
      "time_usec": 8372189775
    },
    {
      "x": -9.719047546386719,
      "y": 0.07776673883199692,
      "z": 0.8973084688186646,
      "time_usec": 8372192028
    },
    {
      "x": -9.704689979553223,
      "y": 0.06819544732570648,
      "z": 0.882951557636261,
      "time_usec": 8372194292
    },
    {
      "x": -9.714262008666992,
      "y": 0.06340979784727097,
      "z": 0.9020941257476807,
      "time_usec": 8372196544
    },
    {
      "x": -9.733404159545898,
      "y": 0.058624155819416046,
      "z": 0.9308080077171326,
      "time_usec": 8372198798
    },
    {
      "x": -9.752547264099121,
      "y": 0.058624155819416046,
      "z": 0.9260223507881165,
      "time_usec": 8372201051
    },
    {
      "x": -9.762118339538574,
      "y": 0.07357929646968842,
      "z": 0.9451649188995361,
      "time_usec": 8372203318
    },
    {
      "x": -9.771689414978027,
      "y": 0.06400800496339798,
      "z": 0.9690931439399719,
      "time_usec": 8372205579
    },
    {
      "x": -9.79083251953125,
      "y": 0.07836493849754333,
      "z": 0.96370929479599,
      "time_usec": 8372207839
    },
    {
      "x": -9.78126049041748,
      "y": 0.07357929646968842,
      "z": 0.997208833694458,
      "time_usec": 8372210092
    },
    {
      "x": -9.809974670410156,
      "y": 0.054436713457107544,
      "z": 1.0019944906234741,
      "time_usec": 8372212345
    },
    {
      "x": -9.809974670410156,
      "y": 0.06400800496339798,
      "z": 0.997208833694458,
      "time_usec": 8372214606
    },
    {
      "x": -9.81954574584961,
      "y": 0.06400800496339798,
      "z": 0.997208833694458,
      "time_usec": 8372216864
    },
    {
      "x": -9.814760208129883,
      "y": 0.04007977992296219,
      "z": 0.9924231767654419,
      "time_usec": 8372219121
    },
    {
      "x": -9.81954574584961,
      "y": 0.03529413416981697,
      "z": 0.9828519225120544,
      "time_usec": 8372221375
    },
    {
      "x": -9.829116821289062,
      "y": 0.020937198773026466,
      "z": 0.9780662655830383,
      "time_usec": 8372223640
    },
    {
      "x": -9.81954574584961,
      "y": 0.030508488416671753,
      "z": 0.9684949517250061,
      "time_usec": 8372225894
    },
    {
      "x": -9.80518913269043,
      "y": 0.030508488416671753,
      "z": 0.9493523836135864,
      "time_usec": 8372228153
    },
    {
      "x": -9.786046028137207,
      "y": 0.025722842663526535,
      "z": 0.9260223507881165,
      "time_usec": 8372230408
    },
    {
      "x": -9.786046028137207,
      "y": 0.03529413416981697,
      "z": 0.9068797826766968,
      "time_usec": 8372232661
    },
    {
      "x": -9.7998046875,
      "y": 0.04007977992296219,
      "z": 0.8925228714942932,
      "time_usec": 8372234923
    },
    {
      "x": -9.771689414978027,
      "y": 0.04905286431312561,
      "z": 0.8638089895248413,
      "time_usec": 8372237180
    },
    {
      "x": -9.780662536621094,
      "y": 0.05383851006627083,
      "z": 0.8590233325958252,
      "time_usec": 8372239438
    },
    {
      "x": -9.775876998901367,
      "y": 0.07776673883199692,
      "z": 0.8398807644844055,
      "time_usec": 8372241690
    },
    {
      "x": -9.766305923461914,
      "y": 0.10169496387243271,
      "z": 0.8350951075553894,
      "time_usec": 8372243953
    },
    {
      "x": -9.77109146118164,
      "y": 0.09212367236614227,
      "z": 0.8398807644844055,
      "time_usec": 8372246207
    },
    {
      "x": -9.78544807434082,
      "y": 0.08793623000383377,
      "z": 0.8350951075553894,
      "time_usec": 8372248457
    },
    {
      "x": -9.795019149780273,
      "y": 0.07836493849754333,
      "z": 0.8542376756668091,
      "time_usec": 8372250724
    },
    {
      "x": -9.814162254333496,
      "y": 0.07836493849754333,
      "z": 0.8590233325958252,
      "time_usec": 8372252979
    },
    {
      "x": -9.837491989135742,
      "y": 0.08793623000383377,
      "z": 0.8823533654212952,
      "time_usec": 8372255243
    },
    {
      "x": -9.851848602294922,
      "y": 0.10229317098855972,
      "z": 0.906281590461731,
      "time_usec": 8372257497
    },
    {
      "x": -9.856635093688965,
      "y": 0.0975075215101242,
      "z": 0.906281590461731,
      "time_usec": 8372259755
    },
    {
      "x": -9.89970588684082,
      "y": 0.08853443711996078,
      "z": 0.8967102766036987,
      "time_usec": 8372262005
    },
    {
      "x": -9.923633575439453,
      "y": 0.07417750358581543,
      "z": 0.8913264274597168,
      "time_usec": 8372264256
    },
    {
      "x": -9.908679008483887,
      "y": 0.11246266216039658,
      "z": 0.877567708492279,
      "time_usec": 8372266525
    },
    {
      "x": -9.91825008392334,
      "y": 0.11246266216039658,
      "z": 0.8727820515632629,
      "time_usec": 8372268785
    },
    {
      "x": -9.908679008483887,
      "y": 0.1459621787071228,
      "z": 0.8392825126647949,
      "time_usec": 8372271036
    },
    {
      "x": -9.89432144165039,
      "y": 0.12622138857841492,
      "z": 0.8153542876243591,
      "time_usec": 8372273291
    },
    {
      "x": -9.899106979370117,
      "y": 0.15074782073497772,
      "z": 0.8105686902999878,
      "time_usec": 8372275543
    },
    {
      "x": -9.884750366210938,
      "y": 0.14057832956314087,
      "z": 0.8153542876243591,
      "time_usec": 8372277816
    },
    {
      "x": -9.888937950134277,
      "y": 0.1698904037475586,
      "z": 0.8057830333709717,
      "time_usec": 8372280070
    },
    {
      "x": -9.851250648498535,
      "y": 0.15972091257572174,
      "z": 0.7914260625839233,
      "time_usec": 8372282320
    },
    {
      "x": -9.846465110778809,
      "y": 0.18364913761615753,
      "z": 0.7776673436164856,
      "time_usec": 8372284586
    },
    {
      "x": -9.832108497619629,
      "y": 0.18364913761615753,
      "z": 0.7728816866874695,
      "time_usec": 8372286839
    },
    {
      "x": -9.836894035339355,
      "y": 0.1740778535604477,
      "z": 0.763310432434082,
      "time_usec": 8372289103
    },
    {
      "x": -9.80817985534668,
      "y": 0.16929219663143158,
      "z": 0.7585247755050659,
      "time_usec": 8372291352
    },
    {
      "x": -9.7938232421875,
      "y": 0.1543370634317398,
      "z": 0.7537391185760498,
      "time_usec": 8372293612
    },
    {
      "x": -9.77527904510498,
      "y": 0.13519448041915894,
      "z": 0.763310432434082,
      "time_usec": 8372295873
    },
    {
      "x": -9.756135940551758,
      "y": 0.11605189740657806,
      "z": 0.7680960893630981,
      "time_usec": 8372298129
    },
    {
      "x": -9.751350402832031,
      "y": 0.12083754688501358,
      "z": 0.763310432434082,
      "time_usec": 8372300375
    },
    {
      "x": -9.737591743469238,
      "y": 0.11605189740657806,
      "z": 0.7639086246490479,
      "time_usec": 8372302641
    },
    {
      "x": -9.732806205749512,
      "y": 0.10169496387243271,
      "z": 0.7734799385070801,
      "time_usec": 8372304902
    },
    {
      "x": -9.713663101196289,
      "y": 0.09690931439399719,
      "z": 0.7830511927604675,
      "time_usec": 8372307163
    },
    {
      "x": -9.723235130310059,
      "y": 0.08255238085985184,
      "z": 0.7974081635475159,
      "time_usec": 8372309417
    },
    {
      "x": -9.728020668029785,
      "y": 0.08733802288770676,
      "z": 0.8063812255859375,
      "time_usec": 8372311667
    },
    {
      "x": -9.732806205749512,
      "y": 0.06340979784727097,
      "z": 0.8111668825149536,
      "time_usec": 8372313923
    },
    {
      "x": -9.733404159545898,
      "y": 0.06340979784727097,
      "z": 0.8350951075553894,
      "time_usec": 8372316190
    },
    {
      "x": -9.738189697265625,
      "y": 0.058624155819416046,
      "z": 0.8255237936973572,
      "time_usec": 8372318448
    },
    {
      "x": -9.723833084106445,
      "y": 0.07776673883199692,
      "z": 0.8207381963729858,
      "time_usec": 8372320707
    },
    {
      "x": -9.742377281188965,
      "y": 0.09212367236614227,
      "z": 0.8159525394439697,
      "time_usec": 8372322956
    },
    {
      "x": -9.733404159545898,
      "y": 0.06819544732570648,
      "z": 0.8255237936973572,
      "time_usec": 8372325219
    },
    {
      "x": -9.751948356628418,
      "y": 0.08733802288770676,
      "z": 0.8303094506263733,
      "time_usec": 8372327476
    },
    {
      "x": -9.77109146118164,
      "y": 0.08733802288770676,
      "z": 0.8398807644844055,
      "time_usec": 8372329735
    },
    {
      "x": -9.761520385742188,
      "y": 0.11605189740657806,
      "z": 0.8446664214134216,
      "time_usec": 8372331987
    },
    {
      "x": -9.766305923461914,
      "y": 0.09690931439399719,
      "z": 0.8350951075553894,
      "time_usec": 8372334248
    },
    {
      "x": -9.761520385742188,
      "y": 0.09212367236614227,
      "z": 0.8159525394439697,
      "time_usec": 8372336502
    },
    {
      "x": -9.742377281188965,
      "y": 0.09212367236614227,
      "z": 0.8159525394439697,
      "time_usec": 8372338761
    },
    {
      "x": -9.747162818908691,
      "y": 0.08733802288770676,
      "z": 0.8015955686569214,
      "time_usec": 8372341008
    },
    {
      "x": -9.751948356628418,
      "y": 0.08255238085985184,
      "z": 0.7968099117279053,
      "time_usec": 8372343275
    },
    {
      "x": -9.732806205749512,
      "y": 0.05383851006627083,
      "z": 0.7782655358314514,
      "time_usec": 8372345533
    },
    {
      "x": -9.732806205749512,
      "y": 0.058624155819416046,
      "z": 0.7734799385070801,
      "time_usec": 8372347783
    },
    {
      "x": -9.728020668029785,
      "y": 0.029910283163189888,
      "z": 0.735194742679596,
      "time_usec": 8372350051
    },
    {
      "x": -9.718449592590332,
      "y": 0.010169495828449726,
      "z": 0.7304090857505798,
      "time_usec": 8372352303
    },
    {
      "x": -9.713663101196289,
      "y": -0.004187439568340778,
      "z": 0.7208378314971924,
      "time_usec": 8372354568
    },
    {
      "x": -9.685547828674316,
      "y": -0.01375873014330864,
      "z": 0.6969096064567566,
      "time_usec": 8372356824
    },
    {
      "x": -9.69511890411377,
      "y": -0.04247260093688965,
      "z": 0.6825526356697083,
      "time_usec": 8372359079
    },
    {
      "x": -9.718449592590332,
      "y": -0.0568295381963253,
      "z": 0.6777670383453369,
      "time_usec": 8372361333
    },
    {
      "x": -9.732806205749512,
      "y": -0.04247260093688965,
      "z": 0.649053156375885,
      "time_usec": 8372363608
    },
    {
      "x": -9.728020668029785,
      "y": -0.06640082597732544,
      "z": 0.6681957244873047,
      "time_usec": 8372365852
    },
    {
      "x": -9.742377281188965,
      "y": -0.07597211748361588,
      "z": 0.6681957244873047,
      "time_usec": 8372368110
    },
    {
      "x": -9.761520385742188,
      "y": -0.04247260093688965,
      "z": 0.6586244106292725,
      "time_usec": 8372370361
    },
    {
      "x": -9.760921478271484,
      "y": -0.008374879136681557,
      "z": 0.6634100675582886,
      "time_usec": 8372372609
    },
    {
      "x": -9.77527904510498,
      "y": -0.008374879136681557,
      "z": 0.6442674994468689,
      "time_usec": 8372374868
    },
    {
      "x": -9.77527904510498,
      "y": 0.02512463741004467,
      "z": 0.6586244106292725,
      "time_usec": 8372377123
    },
    {
      "x": -9.803394317626953,
      "y": 0.05383851006627083,
      "z": 0.6867401003837585,
      "time_usec": 8372379384
    },
    {
      "x": -9.803394317626953,
      "y": 0.08733802288770676,
      "z": 0.6867401003837585,
      "time_usec": 8372381641
    },
    {
      "x": -9.822537422180176,
      "y": 0.10648060590028763,
      "z": 0.6963114142417908,
      "time_usec": 8372383899
    },
    {
      "x": -9.851250648498535,
      "y": 0.11186445504426956,
      "z": 0.7250252366065979,
      "time_usec": 8372386156
    },
    {
      "x": -9.841679573059082,
      "y": 0.12622138857841492,
      "z": 0.729810893535614,
      "time_usec": 8372388414
    },
    {
      "x": -9.836894035339355,
      "y": 0.1501496136188507,
      "z": 0.7393822073936462,
      "time_usec": 8372390673
    },
    {
      "x": -9.836894035339355,
      "y": 0.1453639715909958,
      "z": 0.7537391185760498,
      "time_usec": 8372392937
    },
    {
      "x": -9.836894035339355,
      "y": 0.15493527054786682,
      "z": 0.7441678643226624,
      "time_usec": 8372395189
    },
    {
      "x": -9.846465110778809,
      "y": 0.1453639715909958,
      "z": 0.7441678643226624,
      "time_usec": 8372397456
    },
    {
      "x": -9.855438232421875,
      "y": 0.15972091257572174,
      "z": 0.7106683254241943,
      "time_usec": 8372399700
    },
    {
      "x": -9.869794845581055,
      "y": 0.14057832956314087,
      "z": 0.6915257573127747,
      "time_usec": 8372401968
    },
    {
      "x": -9.841081619262695,
      "y": 0.1453639715909958,
      "z": 0.672383189201355,
      "time_usec": 8372404227
    },
    {
      "x": -9.850652694702148,
      "y": 0.12622138857841492,
      "z": 0.6628118753433228,
      "time_usec": 8372406482
    },
    {
      "x": -9.855438232421875,
      "y": 0.11665010452270508,
      "z": 0.638883650302887,
      "time_usec": 8372408730
    },
    {
      "x": -9.850652694702148,
      "y": 0.11186445504426956,
      "z": 0.6484549641609192,
      "time_usec": 8372410996
    },
    {
      "x": -9.841081619262695,
      "y": 0.09690931439399719,
      "z": 0.6245267391204834,
      "time_usec": 8372413254
    },
    {
      "x": -9.841081619262695,
      "y": 0.08733802288770676,
      "z": 0.6436693072319031,
      "time_usec": 8372415515
    },
    {
      "x": -9.817750930786133,
      "y": 0.09212367236614227,
      "z": 0.6484549641609192,
      "time_usec": 8372417762
    },
    {
      "x": -9.812965393066406,
      "y": 0.06819544732570648,
      "z": 0.6580262184143066,
      "time_usec": 8372420035
    },
    {
      "x": -9.817750930786133,
      "y": 0.0729810893535614,
      "z": 0.6771687865257263,
      "time_usec": 8372422282
    },
    {
      "x": -9.803394317626953,
      "y": 0.0729810893535614,
      "z": 0.6963114142417908,
      "time_usec": 8372424547
    },
    {
      "x": -9.799206733703613,
      "y": 0.0729810893535614,
      "z": 0.7154539823532104,
      "time_usec": 8372426801
    },
    {
      "x": -9.770493507385254,
      "y": 0.10169496387243271,
      "z": 0.7202396392822266,
      "time_usec": 8372429061
    },
    {
      "x": -9.765707015991211,
      "y": 0.10648060590028763,
      "z": 0.7489534616470337,
      "time_usec": 8372431312
    },
    {
      "x": -9.761520385742188,
      "y": 0.09690931439399719,
      "z": 0.7872386574745178,
      "time_usec": 8372433561
    },
    {
      "x": -9.751948356628418,
      "y": 0.09212367236614227,
      "z": 0.7920243144035339,
      "time_usec": 8372435826
    },
    {
      "x": -9.766305923461914,
      "y": 0.06819544732570648,
      "z": 0.8255237936973572,
      "time_usec": 8372438089
    },
    {
      "x": -9.756733894348145,
      "y": 0.08733802288770676,
      "z": 0.8542376756668091,
      "time_usec": 8372440348
    },
    {
      "x": -9.766305923461914,
      "y": 0.08255238085985184,
      "z": 0.8733802437782288,
      "time_usec": 8372442600
    },
    {
      "x": -9.786046028137207,
      "y": 0.049651071429252625,
      "z": 0.9020941257476807,
      "time_usec": 8372444860
    },
    {
      "x": -9.795618057250977,
      "y": 0.03529413416981697,
      "z": 0.9254241585731506,
      "time_usec": 8372447115
    },
    {
      "x": -9.79083251953125,
      "y": 0.030508488416671753,
      "z": 0.9541380405426025,
      "time_usec": 8372449376
    },
    {
      "x": -9.800403594970703,
      "y": 0.01615155301988125,
      "z": 0.9541380405426025,
      "time_usec": 8372451626
    },
    {
      "x": -9.814760208129883,
      "y": -0.0077766734175384045,
      "z": 0.9397810697555542,
      "time_usec": 8372453881
    },
    {
      "x": -9.814760208129883,
      "y": 0.001794616924598813,
      "z": 0.9302098155021667,
      "time_usec": 8372456148
    },
    {
      "x": -9.824331283569336,
      "y": 0.01136590726673603,
      "z": 0.9254241585731506,
      "time_usec": 8372458407
    },
    {
      "x": -9.829116821289062,
      "y": -0.0029910283628851175,
      "z": 0.9254241585731506,
      "time_usec": 8372460664
    },
    {
      "x": -9.838089942932129,
      "y": 0.025722842663526535,
      "z": 0.8871390223503113,
      "time_usec": 8372462916
    },
    {
      "x": -9.814760208129883,
      "y": -0.0077766734175384045,
      "z": 0.9014959335327148,
      "time_usec": 8372465179
    },
    {
      "x": -9.828518867492676,
      "y": -0.0029910283628851175,
      "z": 0.8967102766036987,
      "time_usec": 8372467435
    },
    {
      "x": -9.80518913269043,
      "y": 0.020937198773026466,
      "z": 0.9014959335327148,
      "time_usec": 8372469693
    },
    {
      "x": -9.786046028137207,
      "y": 0.010767702013254166,
      "z": 0.8973084688186646,
      "time_usec": 8372471944
    },
    {
      "x": -9.804591178894043,
      "y": 0.03529413416981697,
      "z": 0.8973084688186646,
      "time_usec": 8372474207
    },
    {
      "x": -9.79083251953125,
      "y": 0.04486542567610741,
      "z": 0.9020941257476807,
      "time_usec": 8372476461
    },
    {
      "x": -9.776474952697754,
      "y": 0.058624155819416046,
      "z": 0.8925228714942932,
      "time_usec": 8372478724
    },
    {
      "x": -9.7669038772583,
      "y": 0.04905286431312561,
      "z": 0.9116654396057129,
      "time_usec": 8372480979
    },
    {
      "x": -9.742975234985352,
      "y": 0.05383851006627083,
      "z": 0.9020941257476807,
      "time_usec": 8372483231
    },
    {
      "x": -9.742975234985352,
      "y": 0.0729810893535614,
      "z": 0.8925228714942932,
      "time_usec": 8372485483
    },
    {
      "x": -9.728618621826172,
      "y": 0.06340979784727097,
      "z": 0.8877372145652771,
      "time_usec": 8372487751
    },
    {
      "x": -9.728618621826172,
      "y": 0.06819544732570648,
      "z": 0.882951557636261,
      "time_usec": 8372490004
    },
    {
      "x": -9.719047546386719,
      "y": 0.039481572806835175,
      "z": 0.8638089895248413,
      "time_usec": 8372492264
    },
    {
      "x": -9.709476470947266,
      "y": 0.03469592705368996,
      "z": 0.8404789566993713,
      "time_usec": 8372494524
    },
    {
      "x": -9.699904441833496,
      "y": 0.03888336941599846,
      "z": 0.802193820476532,
      "time_usec": 8372496784
    },
    {
      "x": -9.690333366394043,
      "y": 0.019740786403417587,
      "z": 0.768694281578064,
      "time_usec": 8372499043
    },
    {
      "x": -9.675976753234863,
      "y": 0.019740786403417587,
      "z": 0.7399803996086121,
      "time_usec": 8372501293
    },
    {
      "x": -9.671191215515137,
      "y": 0.03409772366285324,
      "z": 0.706480860710144,
      "time_usec": 8372503551
    },
    {
      "x": -9.656235694885254,
      "y": 0.03888336941599846,
      "z": 0.6687939167022705,
      "time_usec": 8372505810
    },
    {
      "x": -9.66102123260498,
      "y": 0.06281159073114395,
      "z": 0.6831508874893188,
      "time_usec": 8372508067
    },
    {
      "x": -9.656235694885254,
      "y": 0.06281159073114395,
      "z": 0.6687939167022705,
      "time_usec": 8372510316
    },
    {
      "x": -9.656235694885254,
      "y": 0.06759724020957947,
      "z": 0.6496513485908508,
      "time_usec": 8372512578
    },
    {
      "x": -9.656235694885254,
      "y": 0.07238288223743439,
      "z": 0.6305087804794312,
      "time_usec": 8372514840
    },
    {
      "x": -9.665806770324707,
      "y": 0.0771685317158699,
      "z": 0.6305087804794312,
      "time_usec": 8372517100
    },
    {
      "x": -9.66102123260498,
      "y": 0.08673982322216034,
      "z": 0.6305087804794312,
      "time_usec": 8372519356
    },
    {
      "x": -9.651450157165527,
      "y": 0.09152546525001526,
      "z": 0.6305087804794312,
      "time_usec": 8372521604
    },
    {
      "x": -9.651450157165527,
      "y": 0.08673982322216034,
      "z": 0.6209374666213989,
      "time_usec": 8372523857
    },
    {
      "x": -9.641879081726074,
      "y": 0.08614161610603333,
      "z": 0.6113662123680115,
      "time_usec": 8372526124
    },
    {
      "x": -9.641879081726074,
      "y": 0.08195417374372482,
      "z": 0.6161518096923828,
      "time_usec": 8372528373
    },
    {
      "x": -9.632308006286621,
      "y": 0.1052841991186142,
      "z": 0.6017948985099792,
      "time_usec": 8372530645
    },
    {
      "x": -9.617950439453125,
      "y": 0.09571290761232376,
      "z": 0.6017948985099792,
      "time_usec": 8372532891
    },
    {
      "x": -9.613164901733398,
      "y": 0.10049854964017868,
      "z": 0.6161518096923828,
      "time_usec": 8372535148
    },
    {
      "x": -9.627521514892578,
      "y": 0.09571290761232376,
      "z": 0.6352944374084473,
      "time_usec": 8372537415
    },
    {
      "x": -9.613164901733398,
      "y": 0.11006984114646912,
      "z": 0.6352944374084473,
      "time_usec": 8372539672
    },
    {
      "x": -9.617950439453125,
      "y": 0.12921242415905,
      "z": 0.6496513485908508,
      "time_usec": 8372541927
    },
    {
      "x": -9.617950439453125,
      "y": 0.12502498924732208,
      "z": 0.6879364848136902,
      "time_usec": 8372544186
    },
    {
      "x": -9.627521514892578,
      "y": 0.14895321428775787,
      "z": 0.7070791125297546,
      "time_usec": 8372546442
    },
    {
      "x": -9.617950439453125,
      "y": 0.1585244983434677,
      "z": 0.711864709854126,
      "time_usec": 8372548703
    },
    {
      "x": -9.613164901733398,
      "y": 0.16331014037132263,
      "z": 0.7310073375701904,
      "time_usec": 8372550958
    },
    {
      "x": -9.613762855529785,
      "y": 0.16331014037132263,
      "z": 0.7357929348945618,
      "time_usec": 8372553212
    },
    {
      "x": -9.618548393249512,
      "y": 0.16331014037132263,
      "z": 0.7692924737930298,
      "time_usec": 8372555475
    },
    {
      "x": -9.608977317810059,
      "y": 0.1537388563156128,
      "z": 0.7597211599349976,
      "time_usec": 8372557733
    },
    {
      "x": -9.623334884643555,
      "y": 0.1537388563156128,
      "z": 0.7597211599349976,
      "time_usec": 8372559994
    },
    {
      "x": -9.637691497802734,
      "y": 0.13459627330303192,
      "z": 0.7782655358314514,
      "time_usec": 8372562240
    },
    {
      "x": -9.632905960083008,
      "y": 0.12502498924732208,
      "z": 0.7974081635475159,
      "time_usec": 8372564502
    },
    {
      "x": -9.628120422363281,
      "y": 0.12502498924732208,
      "z": 0.802193820476532,
      "time_usec": 8372566753
    },
    {
      "x": -9.637691497802734,
      "y": 0.1010967567563057,
      "z": 0.7974081635475159,
      "time_usec": 8372569012
    },
    {
      "x": -9.637691497802734,
      "y": 0.09631111472845078,
      "z": 0.8117650747299194,
      "time_usec": 8372571263
    },
    {
      "x": -9.623932838439941,
      "y": 0.10588239878416061,
      "z": 0.8309076428413391,
      "time_usec": 8372573530
    },
    {
      "x": -9.647860527038574,
      "y": 0.08673982322216034,
      "z": 0.8500502705574036,
      "time_usec": 8372575791
    },
    {
      "x": -9.642477035522461,
      "y": 0.10588239878416061,
      "z": 0.8309076428413391,
      "time_usec": 8372578050
    },
    {
      "x": -9.66640567779541,
      "y": 0.09152546525001526,
      "z": 0.8404789566993713,
      "time_usec": 8372580303
    },
    {
      "x": -9.66640567779541,
      "y": 0.11545369029045105,
      "z": 0.8309076428413391,
      "time_usec": 8372582557
    },
    {
      "x": -9.661619186401367,
      "y": 0.11545369029045105,
      "z": 0.8356932997703552,
      "time_usec": 8372584819
    },
    {
      "x": -9.642477035522461,
      "y": 0.11066804826259613,
      "z": 0.7974081635475159,
      "time_usec": 8372587079
    },
    {
      "x": -9.637691497802734,
      "y": 0.12023933976888657,
      "z": 0.7974081635475159,
      "time_usec": 8372589339
    },
    {
      "x": -9.652048110961914,
      "y": 0.129810631275177,
      "z": 0.768694281578064,
      "time_usec": 8372591588
    },
    {
      "x": -9.651450157165527,
      "y": 0.14416755735874176,
      "z": 0.7447660565376282,
      "time_usec": 8372593849
    },
    {
      "x": -9.651450157165527,
      "y": 0.13459627330303192,
      "z": 0.735194742679596,
      "time_usec": 8372596106
    },
    {
      "x": -9.637093544006348,
      "y": 0.12023933976888657,
      "z": 0.7166503667831421,
      "time_usec": 8372598365
    },
    {
      "x": -9.637093544006348,
      "y": 0.13938191533088684,
      "z": 0.7070791125297546,
      "time_usec": 8372600620
    },
    {
      "x": -9.608977317810059,
      "y": 0.12502498924732208,
      "z": 0.6975077986717224,
      "time_usec": 8372602874
    },
    {
      "x": -9.608977317810059,
      "y": 0.129810631275177,
      "z": 0.6927221417427063,
      "time_usec": 8372605137
    },
    {
      "x": -9.5802640914917,
      "y": 0.11964113265275955,
      "z": 0.7022934556007385,
      "time_usec": 8372607394
    },
    {
      "x": -9.585049629211426,
      "y": 0.11485548317432404,
      "z": 0.6927221417427063,
      "time_usec": 8372609652
    },
    {
      "x": -9.57069206237793,
      "y": 0.12442677468061447,
      "z": 0.6879364848136902,
      "time_usec": 8372611903
    },
    {
      "x": -9.575477600097656,
      "y": 0.11485548317432404,
      "z": 0.6831508874893188,
      "time_usec": 8372614166
    },
    {
      "x": -9.57069206237793,
      "y": 0.11964113265275955,
      "z": 0.6831508874893188,
      "time_usec": 8372616423
    },
    {
      "x": -9.57069206237793,
      "y": 0.11485548317432404,
      "z": 0.6687939167022705,
      "time_usec": 8372618682
    },
    {
      "x": -9.565906524658203,
      "y": 0.12442677468061447,
      "z": 0.6406782865524292,
      "time_usec": 8372620937
    },
    {
      "x": -9.584450721740723,
      "y": 0.12921242415905,
      "z": 0.6209374666213989,
      "time_usec": 8372623190
    },
    {
      "x": -9.579665184020996,
      "y": 0.11485548317432404,
      "z": 0.5880361795425415,
      "time_usec": 8372625453
    },
    {
      "x": -9.594022750854492,
      "y": 0.09571290761232376,
      "z": 0.5641079545021057,
      "time_usec": 8372627709
    },
    {
      "x": -9.594022750854492,
      "y": 0.11964113265275955,
      "z": 0.5545366406440735,
      "time_usec": 8372629957
    },
    {
      "x": -9.603593826293945,
      "y": 0.09092725813388824,
      "z": 0.5778666734695435,
      "time_usec": 8372632219
    },
    {
      "x": -9.603593826293945,
      "y": 0.09571290761232376,
      "z": 0.5682953596115112,
      "time_usec": 8372634474
    },
    {
      "x": -9.603593826293945,
      "y": 0.07657032459974289,
      "z": 0.592223584651947,
      "time_usec": 8372636737
    },
    {
      "x": -9.627521514892578,
      "y": 0.062213387340307236,
      "z": 0.6209374666213989,
      "time_usec": 8372638995
    },
    {
      "x": -9.617950439453125,
      "y": 0.07657032459974289,
      "z": 0.6305087804794312,
      "time_usec": 8372641250
    },
    {
      "x": -9.617950439453125,
      "y": 0.07178468257188797,
      "z": 0.6544370055198669,
      "time_usec": 8372643508
    },
    {
      "x": -9.651450157165527,
      "y": 0.07238288223743439,
      "z": 0.6544370055198669,
      "time_usec": 8372645772
    },
    {
      "x": -9.656235694885254,
      "y": 0.07238288223743439,
      "z": 0.6879364848136902,
      "time_usec": 8372648033
    },
    {
      "x": -9.656235694885254,
      "y": 0.06281159073114395,
      "z": 0.6831508874893188,
      "time_usec": 8372650285
    },
    {
      "x": -9.670592308044434,
      "y": 0.06759724020957947,
      "z": 0.6640082597732544,
      "time_usec": 8372652536
    },
    {
      "x": -9.689735412597656,
      "y": 0.03888336941599846,
      "z": 0.6681957244873047,
      "time_usec": 8372654797
    },
    {
      "x": -9.68494987487793,
      "y": 0.05802594870328903,
      "z": 0.6586244106292725,
      "time_usec": 8372657056
    },
    {
      "x": -9.713663101196289,
      "y": 0.048454657196998596,
      "z": 0.6777670383453369,
      "time_usec": 8372659312
    },
    {
      "x": -9.732208251953125,
      "y": 0.04366901144385338,
      "z": 0.6777670383453369,
      "time_usec": 8372661567
    },
    {
      "x": -9.736993789672852,
      "y": 0.06281159073114395,
      "z": 0.6634100675582886,
      "time_usec": 8372663832
    },
    {
      "x": -9.746564865112305,
      "y": 0.053240302950143814,
      "z": 0.6586244106292725,
      "time_usec": 8372666087
    },
    {
      "x": -9.741779327392578,
      "y": 0.0729810893535614,
      "z": 0.6921239495277405,
      "time_usec": 8372668344
    },
    {
      "x": -9.732208251953125,
      "y": 0.08255238085985184,
      "z": 0.706480860710144,
      "time_usec": 8372670590
    },
    {
      "x": -9.751350402832031,
      "y": 0.09212367236614227,
      "z": 0.735194742679596,
      "time_usec": 8372672853
    },
    {
      "x": -9.736993789672852,
      "y": 0.10169496387243271,
      "z": 0.7495517134666443,
      "time_usec": 8372675112
    },
    {
      "x": -9.751350402832031,
      "y": 0.11605189740657806,
      "z": 0.7728816866874695,
      "time_usec": 8372677359
    },
    {
      "x": -9.747162818908691,
      "y": 0.11605189740657806,
      "z": 0.8063812255859375,
      "time_usec": 8372679618
    },
    {
      "x": -9.732806205749512,
      "y": 0.10648060590028763,
      "z": 0.8350951075553894,
      "time_usec": 8372681883
    },
    {
      "x": -9.751948356628418,
      "y": 0.08255238085985184,
      "z": 0.8446664214134216,
      "time_usec": 8372684149
    },
    {
      "x": -9.752547264099121,
      "y": 0.06819544732570648,
      "z": 0.8733802437782288,
      "time_usec": 8372686406
    },
    {
      "x": -9.752547264099121,
      "y": 0.058624155819416046,
      "z": 0.8638089895248413,
      "time_usec": 8372688661
    },
    {
      "x": -9.77109146118164,
      "y": 0.039481572806835175,
      "z": 0.8638089895248413,
      "time_usec": 8372690916
    },
    {
      "x": -9.775876998901367,
      "y": 0.039481572806835175,
      "z": 0.8685946464538574,
      "time_usec": 8372693169
    },
    {
      "x": -9.78544807434082,
      "y": 0.015553346835076809,
      "z": 0.8350951075553894,
      "time_usec": 8372695432
    },
    {
      "x": -9.795019149780273,
      "y": 0.005982056725770235,
      "z": 0.8398807644844055,
      "time_usec": 8372697687
    },
    {
      "x": -9.804591178894043,
      "y": 0.005982056725770235,
      "z": 0.8207381963729858,
      "time_usec": 8372699936
    },
    {
      "x": -9.795019149780273,
      "y": 0.0011964113218709826,
      "z": 0.8159525394439697,
      "time_usec": 8372702200
    },
    {
      "x": -9.80937671661377,
      "y": -0.008374879136681557,
      "z": 0.8111668825149536,
      "time_usec": 8372704461
    },
    {
      "x": -9.804591178894043,
      "y": 0.0011964113218709826,
      "z": 0.8207381963729858,
      "time_usec": 8372706722
    },
    {
      "x": -9.804591178894043,
      "y": 0.010767702013254166,
      "z": 0.8303094506263733,
      "time_usec": 8372708975
    },
    {
      "x": -9.80937671661377,
      "y": 0.006580262444913387,
      "z": 0.8542376756668091,
      "time_usec": 8372711218
    },
    {
      "x": -9.790233612060547,
      "y": 0.03469592705368996,
      "z": 0.8590233325958252,
      "time_usec": 8372713476
    },
    {
      "x": -9.78126049041748,
      "y": 0.015553346835076809,
      "z": 0.882951557636261,
      "time_usec": 8372715735
    },
    {
      "x": -9.79083251953125,
