{
  "frames": [
    {
      "frame_id": 0,
      "sensor_timestamp": 4203329163487,
      "time_usec": 4203329163
    },
    {
      "frame_id": 1,
      "sensor_timestamp": 4203395656163,
      "time_usec": 4203395656
    },
    {
      "frame_id": 2,
      "sensor_timestamp": 4203428902745,
      "time_usec": 4203428902
    },
    {
      "frame_id": 3,
      "sensor_timestamp": 4203462149083,
      "time_usec": 4203462149
    },
    {
      "frame_id": 4,
      "sensor_timestamp": 4203495395421,
      "time_usec": 4203495395
    },
    {
      "frame_id": 5,
      "sensor_timestamp": 4203528641759,
      "time_usec": 4203528641
    },
    {
      "frame_id": 6,
      "sensor_timestamp": 4203561888341,
      "time_usec": 4203561888
    },
    {
      "frame_id": 7,
      "sensor_timestamp": 4203595134679,
      "time_usec": 4203595134
    },
    {
      "frame_id": 8,
      "sensor_timestamp": 4203628381017,
      "time_usec": 4203628381
    },
    {
      "frame_id": 9,
      "sensor_timestamp": 4203661627355,
      "time_usec": 4203661627
    },
    {
      "frame_id": 10,
      "sensor_timestamp": 4203694873937,
      "time_usec": 4203694873
    },
    {
      "frame_id": 11,
      "sensor_timestamp": 4203728120275,
      "time_usec": 4203728120
    },
    {
      "frame_id": 12,
      "sensor_timestamp": 4203761366612,
      "time_usec": 4203761366
    },
    {
      "frame_id": 13,
      "sensor_timestamp": 4203794612950,
      "time_usec": 4203794612
    },
    {
      "frame_id": 14,
      "sensor_timestamp": 4203827859532,
      "time_usec": 4203827859
    },
    {
      "frame_id": 15,
      "sensor_timestamp": 4203861105870,
      "time_usec": 4203861105
    },
    {
      "frame_id": 16,
      "sensor_timestamp": 4203894352208,
      "time_usec": 4203894352
    },
    {
      "frame_id": 17,
      "sensor_timestamp": 4203927598546,
      "time_usec": 4203927598
    },
    {
      "frame_id": 18,
      "sensor_timestamp": 4203960845128,
      "time_usec": 4203960845
    },
    {
      "frame_id": 19,
      "sensor_timestamp": 4203994091466,
      "time_usec": 4203994091
    },
    {
      "frame_id": 20,
      "sensor_timestamp": 4204030118435,
      "time_usec": 4204030118
    },
    {
      "frame_id": 21,
      "sensor_timestamp": 4204063364773,
      "time_usec": 4204063364
    },
    {
      "frame_id": 22,
      "sensor_timestamp": 4204096611355,
      "time_usec": 4204096611
    },
    {
      "frame_id": 23,
      "sensor_timestamp": 4204129857693,
      "time_usec": 4204129857
    },
    {
      "frame_id": 24,
      "sensor_timestamp": 4204163104031,
      "time_usec": 4204163104
    },
    {
      "frame_id": 25,
      "sensor_timestamp": 4204196350368,
      "time_usec": 4204196350
    },
    {
      "frame_id": 26,
      "sensor_timestamp": 4204229596950,
      "time_usec": 4204229596
    },
    {
      "frame_id": 27,
      "sensor_timestamp": 4204262843288,
      "time_usec": 4204262843
    },
    {
      "frame_id": 28,
      "sensor_timestamp": 4204296089626,
      "time_usec": 4204296089
    },
    {
      "frame_id": 29,
      "sensor_timestamp": 4204329335964,
      "time_usec": 4204329335
    },
    {
      "frame_id": 30,
      "sensor_timestamp": 4204362582546,
      "time_usec": 4204362582
    },
    {
      "frame_id": 31,
      "sensor_timestamp": 4204395828884,
      "time_usec": 4204395828
    },
    {
      "frame_id": 32,
      "sensor_timestamp": 4204429075222,
      "time_usec": 4204429075
    },
    {
      "frame_id": 33,
      "sensor_timestamp": 4204462321560,
      "time_usec": 4204462321
    },
    {
      "frame_id": 34,
      "sensor_timestamp": 4204495568142,
      "time_usec": 4204495568
    },
    {
      "frame_id": 35,
      "sensor_timestamp": 4204528814480,
      "time_usec": 4204528814
    },
    {
      "frame_id": 36,
      "sensor_timestamp": 4204562060818,
      "time_usec": 4204562060
    },
    {
      "frame_id": 37,
      "sensor_timestamp": 4204595307156,
      "time_usec": 4204595307
    },
    {
      "frame_id": 38,
      "sensor_timestamp": 4204628553493,
      "time_usec": 4204628553
    },
    {
      "frame_id": 39,
      "sensor_timestamp": 4204661800075,
      "time_usec": 4204661800
    },
    {
      "frame_id": 40,
      "sensor_timestamp": 4204695046413,
      "time_usec": 4204695046
    },
    {
      "frame_id": 41,
      "sensor_timestamp": 4204728292751,
      "time_usec": 4204728292
    },
    {
      "frame_id": 42,
      "sensor_timestamp": 4204761539089,
      "time_usec": 4204761539
    },
    {
      "frame_id": 43,
      "sensor_timestamp": 4204794785671,
      "time_usec": 4204794785
    },
    {
      "frame_id": 44,
      "sensor_timestamp": 4204828032009,
      "time_usec": 4204828032
    },
    {
      "frame_id": 45,
      "sensor_timestamp": 4204861278347,
      "time_usec": 4204861278
    },
    {
      "frame_id": 46,
      "sensor_timestamp": 4204894524685,
      "time_usec": 4204894524
    },
    {
      "frame_id": 47,
      "sensor_timestamp": 4204927771267,
      "time_usec": 4204927771
    },
    {
      "frame_id": 48,
      "sensor_timestamp": 4204961017605,
      "time_usec": 4204961017
    },
    {
      "frame_id": 49,
      "sensor_timestamp": 4204994263943,
      "time_usec": 4204994263
    },
    {
      "frame_id": 50,
      "sensor_timestamp": 4205027510281,
      "time_usec": 4205027510
    },
    {
      "frame_id": 51,
      "sensor_timestamp": 4205060756863,
      "time_usec": 4205060756
    },
    {
      "frame_id": 52,
      "sensor_timestamp": 4205094003200,
      "time_usec": 4205094003
    },
    {
      "frame_id": 53,
      "sensor_timestamp": 4205127249538,
      "time_usec": 4205127249
    },
    {
      "frame_id": 54,
      "sensor_timestamp": 4205160495876,
      "time_usec": 4205160495
    },
    {
      "frame_id": 55,
      "sensor_timestamp": 4205193742458,
      "time_usec": 4205193742
    },
    {
      "frame_id": 56,
      "sensor_timestamp": 4205226988796,
      "time_usec": 4205226988
    },
    {
      "frame_id": 57,
      "sensor_timestamp": 4205260235134,
      "time_usec": 4205260235
    },
    {
      "frame_id": 58,
      "sensor_timestamp": 4205293481472,
      "time_usec": 4205293481
    },
    {
      "frame_id": 59,
      "sensor_timestamp": 4205326728054,
      "time_usec": 4205326728
    },
    {
      "frame_id": 60,
      "sensor_timestamp": 4205359974392,
      "time_usec": 4205359974
    },
    {
      "frame_id": 61,
      "sensor_timestamp": 4205393220730,
      "time_usec": 4205393220
    },
    {
      "frame_id": 62,
      "sensor_timestamp": 4205426467068,
      "time_usec": 4205426467
    },
    {
      "frame_id": 63,
      "sensor_timestamp": 4205459713650,
      "time_usec": 4205459713
    },
    {
      "frame_id": 64,
      "sensor_timestamp": 4205492959988,
      "time_usec": 4205492959
    },
    {
      "frame_id": 65,
      "sensor_timestamp": 4205526206325,
      "time_usec": 4205526206
    },
    {
      "frame_id": 66,
      "sensor_timestamp": 4205559452663,
      "time_usec": 4205559452
    },
    {
      "frame_id": 67,
      "sensor_timestamp": 4205592699245,
      "time_usec": 4205592699
    },
    {
      "frame_id": 68,
      "sensor_timestamp": 4205625945583,
      "time_usec": 4205625945
    },
    {
      "frame_id": 69,
      "sensor_timestamp": 4205659191921,
      "time_usec": 4205659191
    },
    {
      "frame_id": 70,
      "sensor_timestamp": 4205692438259,
      "time_usec": 4205692438
    },
    {
      "frame_id": 71,
      "sensor_timestamp": 4205725684841,
      "time_usec": 4205725684
    },
    {
      "frame_id": 72,
      "sensor_timestamp": 4205758931179,
      "time_usec": 4205758931
    },
    {
      "frame_id": 73,
      "sensor_timestamp": 4205792177517,
      "time_usec": 4205792177
    },
    {
      "frame_id": 74,
      "sensor_timestamp": 4205825423855,
      "time_usec": 4205825423
    },
    {
      "frame_id": 75,
      "sensor_timestamp": 4205858670193,
      "time_usec": 4205858670
    },
    {
      "frame_id": 76,
      "sensor_timestamp": 4205891916775,
      "time_usec": 4205891916
    },
    {
      "frame_id": 77,
      "sensor_timestamp": 4205925163113,
      "time_usec": 4205925163
    },
    {
      "frame_id": 78,
      "sensor_timestamp": 4205958409450,
      "time_usec": 4205958409
    },
    {
      "frame_id": 79,
      "sensor_timestamp": 4205991655788,
      "time_usec": 4205991655
    },
    {
      "frame_id": 80,
      "sensor_timestamp": 4206024902370,
      "time_usec": 4206024902
    },
    {
      "frame_id": 81,
      "sensor_timestamp": 4206058148708,
      "time_usec": 4206058148
    },
    {
      "frame_id": 82,
      "sensor_timestamp": 4206091395046,
      "time_usec": 4206091395
    },
    {
      "frame_id": 83,
      "sensor_timestamp": 4206124641384,
      "time_usec": 4206124641
    },
    {
      "frame_id": 84,
      "sensor_timestamp": 4206157887966,
      "time_usec": 4206157887
    },
    {
      "frame_id": 85,
      "sensor_timestamp": 4206191134304,
      "time_usec": 4206191134
    },
    {
      "frame_id": 86,
      "sensor_timestamp": 4206224380642,
      "time_usec": 4206224380
    },
    {
      "frame_id": 87,
      "sensor_timestamp": 4206257626980,
      "time_usec": 4206257626
    },
    {
      "frame_id": 88,
      "sensor_timestamp": 4206290873562,
      "time_usec": 4206290873
    },
    {
      "frame_id": 89,
      "sensor_timestamp": 4206324119900,
      "time_usec": 4206324119
    },
    {
      "frame_id": 90,
      "sensor_timestamp": 4206357366238,
      "time_usec": 4206357366
    },
    {
      "frame_id": 91,
      "sensor_timestamp": 4206390612575,
      "time_usec": 4206390612
    },
    {
      "frame_id": 92,
      "sensor_timestamp": 4206423859158,
      "time_usec": 4206423859
    },
    {
      "frame_id": 93,
      "sensor_timestamp": 4206457105495,
      "time_usec": 4206457105
    },
    {
      "frame_id": 94,
      "sensor_timestamp": 4206490351833,
      "time_usec": 4206490351
    },
    {
      "frame_id": 95,
      "sensor_timestamp": 4206523598171,
      "time_usec": 4206523598
    },
    {
      "frame_id": 96,
      "sensor_timestamp": 4206554064122,
      "time_usec": 4206554064
    },
    {
      "frame_id": 97,
      "sensor_timestamp": 4206587310460,
      "time_usec": 4206587310
    },
    {
      "frame_id": 98,
      "sensor_timestamp": 4206620556798,
      "time_usec": 4206620556
    },
    {
      "frame_id": 99,
      "sensor_timestamp": 4206653803136,
      "time_usec": 4206653803
    },
    {
      "frame_id": 100,
      "sensor_timestamp": 4206687049718,
      "time_usec": 4206687049
    },
    {
      "frame_id": 101,
      "sensor_timestamp": 4206720296056,
      "time_usec": 4206720296
    },
    {
      "frame_id": 102,
      "sensor_timestamp": 4206753542394,
      "time_usec": 4206753542
    },
    {
      "frame_id": 103,
      "sensor_timestamp": 4206786788732,
      "time_usec": 4206786788
    },
    {
      "frame_id": 104,
      "sensor_timestamp": 4206820035314,
      "time_usec": 4206820035
    },
    {
      "frame_id": 105,
      "sensor_timestamp": 4206853281652,
      "time_usec": 4206853281
    },
    {
      "frame_id": 106,
      "sensor_timestamp": 4206886527989,
      "time_usec": 4206886527
    },
    {
      "frame_id": 107,
      "sensor_timestamp": 4206919774327,
      "time_usec": 4206919774
    },
    {
      "frame_id": 108,
      "sensor_timestamp": 4206953020909,
      "time_usec": 4206953020
    },
    {
      "frame_id": 109,
      "sensor_timestamp": 4206986267247,
      "time_usec": 4206986267
    },
    {
      "frame_id": 110,
      "sensor_timestamp": 4207019513585,
      "time_usec": 4207019513
    },
    {
      "frame_id": 111,
      "sensor_timestamp": 4207052759923,
      "time_usec": 4207052759
    },
    {
      "frame_id": 112,
      "sensor_timestamp": 4207086006261,
      "time_usec": 4207086006
    },
    {
      "frame_id": 113,
      "sensor_timestamp": 4207119252843,
      "time_usec": 4207119252
    },
    {
      "frame_id": 114,
      "sensor_timestamp": 4207152499181,
      "time_usec": 4207152499
    },
    {
      "frame_id": 115,
      "sensor_timestamp": 4207185745519,
      "time_usec": 4207185745
    },
    {
      "frame_id": 116,
      "sensor_timestamp": 4207218991857,
      "time_usec": 4207218991
    },
    {
      "frame_id": 117,
      "sensor_timestamp": 4207252238439,
      "time_usec": 4207252238
    },
    {
      "frame_id": 118,
      "sensor_timestamp": 4207285484777,
      "time_usec": 4207285484
    },
    {
      "frame_id": 119,
      "sensor_timestamp": 4207318731114,
      "time_usec": 4207318731
    },
    {
      "frame_id": 120,
      "sensor_timestamp": 4207351977452,
      "time_usec": 4207351977
    },
    {
      "frame_id": 121,
      "sensor_timestamp": 4207385224034,
      "time_usec": 4207385224
    },
    {
      "frame_id": 122,
      "sensor_timestamp": 4207418470372,
      "time_usec": 4207418470
    },
    {
      "frame_id": 123,
      "sensor_timestamp": 4207451716710,
      "time_usec": 4207451716
    },
    {
      "frame_id": 124,
      "sensor_timestamp": 4207484963048,
      "time_usec": 4207484963
    },
    {
      "frame_id": 125,
      "sensor_timestamp": 4207518209630,
      "time_usec": 4207518209
    },
    {
      "frame_id": 126,
      "sensor_timestamp": 4207551455968,
      "time_usec": 4207551455
    },
    {
      "frame_id": 127,
      "sensor_timestamp": 4207584702306,
      "time_usec": 4207584702
    },
    {
      "frame_id": 128,
      "sensor_timestamp": 4207617948644,
      "time_usec": 4207617948
    },
    {
      "frame_id": 129,
      "sensor_timestamp": 4207651195226,
      "time_usec": 4207651195
    },
    {
      "frame_id": 130,
      "sensor_timestamp": 4207684441564,
      "time_usec": 4207684441
    },
    {
      "frame_id": 131,
      "sensor_timestamp": 4207717687902,
      "time_usec": 4207717687
    },
    {
      "frame_id": 132,
      "sensor_timestamp": 4207750934239,
      "time_usec": 4207750934
    },
    {
      "frame_id": 133,
      "sensor_timestamp": 4207784180821,
      "time_usec": 4207784180
    },
    {
      "frame_id": 134,
      "sensor_timestamp": 4207817427159,
      "time_usec": 4207817427
    },
    {
      "frame_id": 135,
      "sensor_timestamp": 4207850673497,
      "time_usec": 4207850673
    },
    {
      "frame_id": 136,
      "sensor_timestamp": 4207883919835,
      "time_usec": 4207883919
    },
    {
      "frame_id": 137,
      "sensor_timestamp": 4207917166417,
      "time_usec": 4207917166
    },
    {
      "frame_id": 138,
      "sensor_timestamp": 4207950412755,
      "time_usec": 4207950412
    },
    {
      "frame_id": 139,
      "sensor_timestamp": 4207983659093,
      "time_usec": 4207983659
    },
    {
      "frame_id": 140,
      "sensor_timestamp": 4208016905431,
      "time_usec": 4208016905
    },
    {
      "frame_id": 141,
      "sensor_timestamp": 4208050152013,
      "time_usec": 4208050152
    },
    {
      "frame_id": 142,
      "sensor_timestamp": 4208083398351,
      "time_usec": 4208083398
    },
    {
      "frame_id": 143,
      "sensor_timestamp": 4208116644689,
      "time_usec": 4208116644
    },
    {
      "frame_id": 144,
      "sensor_timestamp": 4208149891027,
      "time_usec": 4208149891
    },
    {
      "frame_id": 145,
      "sensor_timestamp": 4208183137364,
      "time_usec": 4208183137
    },
    {
      "frame_id": 146,
      "sensor_timestamp": 4208216383946,
      "time_usec": 4208216383
    },
    {
      "frame_id": 147,
      "sensor_timestamp": 4208249630284,
      "time_usec": 4208249630
    },
    {
      "frame_id": 148,
      "sensor_timestamp": 4208282876622,
      "time_usec": 4208282876
    },
    {
      "frame_id": 149,
      "sensor_timestamp": 4208316122960,
      "time_usec": 4208316122
    },
    {
      "frame_id": 150,
      "sensor_timestamp": 4208349369542,
      "time_usec": 4208349369
    },
    {
      "frame_id": 151,
      "sensor_timestamp": 4208382615880,
      "time_usec": 4208382615
    },
    {
      "frame_id": 152,
      "sensor_timestamp": 4208415862218,
      "time_usec": 4208415862
    },
    {
      "frame_id": 153,
      "sensor_timestamp": 4208449108556,
      "time_usec": 4208449108
    },
    {
      "frame_id": 154,
      "sensor_timestamp": 4208482355138,
      "time_usec": 4208482355
    },
    {
      "frame_id": 155,
      "sensor_timestamp": 4208515601476,
      "time_usec": 4208515601
    },
    {
      "frame_id": 156,
      "sensor_timestamp": 4208548847814,
      "time_usec": 4208548847
    },
    {
      "frame_id": 157,
      "sensor_timestamp": 4208582094152,
      "time_usec": 4208582094
    },
    {
      "frame_id": 158,
      "sensor_timestamp": 4208615340734,
      "time_usec": 4208615340
    },
    {
      "frame_id": 159,
      "sensor_timestamp": 4208648587071,
      "time_usec": 4208648587
    },
    {
      "frame_id": 160,
      "sensor_timestamp": 4208681833409,
      "time_usec": 4208681833
    },
    {
      "frame_id": 161,
      "sensor_timestamp": 4208715079747,
      "time_usec": 4208715079
    },
    {
      "frame_id": 162,
      "sensor_timestamp": 4208748326329,
      "time_usec": 4208748326
    },
    {
      "frame_id": 163,
      "sensor_timestamp": 4208781572667,
      "time_usec": 4208781572
    },
    {
      "frame_id": 164,
      "sensor_timestamp": 4208814819005,
      "time_usec": 4208814819
    },
    {
      "frame_id": 165,
      "sensor_timestamp": 4208848065343,
      "time_usec": 4208848065
    },
    {
      "frame_id": 166,
      "sensor_timestamp": 4208881311925,
      "time_usec": 4208881311
    },
    {
      "frame_id": 167,
      "sensor_timestamp": 4208914558263,
      "time_usec": 4208914558
    },
    {
      "frame_id": 168,
      "sensor_timestamp": 4208947804601,
      "time_usec": 4208947804
    },
    {
      "frame_id": 169,
      "sensor_timestamp": 4208981050939,
      "time_usec": 4208981050
    },
    {
      "frame_id": 170,
      "sensor_timestamp": 4209014297521,
      "time_usec": 4209014297
    },
    {
      "frame_id": 171,
      "sensor_timestamp": 4209047543859,
      "time_usec": 4209047543
    },
    {
      "frame_id": 172,
      "sensor_timestamp": 4209080790196,
      "time_usec": 4209080790
    },
    {
      "frame_id": 173,
      "sensor_timestamp": 4209114036534,
      "time_usec": 4209114036
    },
    {
      "frame_id": 174,
      "sensor_timestamp": 4209147283116,
      "time_usec": 4209147283
    },
    {
      "frame_id": 175,
      "sensor_timestamp": 4209180529454,
      "time_usec": 4209180529
    },
    {
      "frame_id": 176,
      "sensor_timestamp": 4209213775792,
      "time_usec": 4209213775
    },
    {
      "frame_id": 177,
      "sensor_timestamp": 4209247022130,
      "time_usec": 4209247022
    },
    {
      "frame_id": 178,
      "sensor_timestamp": 4209280268712,
      "time_usec": 4209280268
    },
    {
      "frame_id": 179,
      "sensor_timestamp": 4209313515050,
      "time_usec": 4209313515
    },
    {
      "frame_id": 180,
      "sensor_timestamp": 4209346761388,
      "time_usec": 4209346761
    },
    {
      "frame_id": 181,
      "sensor_timestamp": 4209380007726,
      "time_usec": 4209380007
    },
    {
      "frame_id": 182,
      "sensor_timestamp": 4209413254064,
      "time_usec": 4209413254
    },
    {
      "frame_id": 183,
      "sensor_timestamp": 4209446500646,
      "time_usec": 4209446500
    },
    {
      "frame_id": 184,
      "sensor_timestamp": 4209479746984,
      "time_usec": 4209479746
    },
    {
      "frame_id": 185,
      "sensor_timestamp": 4209512993321,
      "time_usec": 4209512993
    },
    {
      "frame_id": 186,
      "sensor_timestamp": 4209546239659,
      "time_usec": 4209546239
    },
    {
      "frame_id": 187,
      "sensor_timestamp": 4209579486241,
      "time_usec": 4209579486
    },
    {
      "frame_id": 188,
      "sensor_timestamp": 4209612732579,
      "time_usec": 4209612732
    },
    {
      "frame_id": 189,
      "sensor_timestamp": 4209645978917,
      "time_usec": 4209645978
    },
    {
      "frame_id": 190,
      "sensor_timestamp": 4209679225255,
      "time_usec": 4209679225
    },
    {
      "frame_id": 191,
      "sensor_timestamp": 4209712471837,
      "time_usec": 4209712471
    },
    {
      "frame_id": 192,
      "sensor_timestamp": 4209745718175,
      "time_usec": 4209745718
    },
    {
      "frame_id": 193,
      "sensor_timestamp": 4209778964513,
      "time_usec": 4209778964
    },
    {
      "frame_id": 194,
      "sensor_timestamp": 4209812210851,
      "time_usec": 4209812210
    },
    {
      "frame_id": 195,
      "sensor_timestamp": 4209845457433,
      "time_usec": 4209845457
    },
    {
      "frame_id": 196,
      "sensor_timestamp": 4209878703771,
      "time_usec": 4209878703
    },
    {
      "frame_id": 197,
      "sensor_timestamp": 4209911950109,
      "time_usec": 4209911950
    },
    {
      "frame_id": 198,
      "sensor_timestamp": 4209945196446,
      "time_usec": 4209945196
    },
    {
      "frame_id": 199,
      "sensor_timestamp": 4209978443028,
      "time_usec": 4209978443
    },
    {
      "frame_id": 200,
      "sensor_timestamp": 4210011689366,
      "time_usec": 4210011689
    },
    {
      "frame_id": 201,
      "sensor_timestamp": 4210044935704,
      "time_usec": 4210044935
    },
    {
      "frame_id": 202,
      "sensor_timestamp": 4210078182042,
      "time_usec": 4210078182
    },
    {
      "frame_id": 203,
      "sensor_timestamp": 4210111428624,
      "time_usec": 4210111428
    },
    {
      "frame_id": 204,
      "sensor_timestamp": 4210144674962,
      "time_usec": 4210144674
    },
    {
      "frame_id": 205,
      "sensor_timestamp": 4210177921300,
      "time_usec": 4210177921
    },
    {
      "frame_id": 206,
      "sensor_timestamp": 4210211167638,
      "time_usec": 4210211167
    },
    {
      "frame_id": 207,
      "sensor_timestamp": 4210244414220,
      "time_usec": 4210244414
    },
    {
      "frame_id": 208,
      "sensor_timestamp": 4210277660558,
      "time_usec": 4210277660
    },
    {
      "frame_id": 209,
      "sensor_timestamp": 4210310906896,
      "time_usec": 4210310906
    },
    {
      "frame_id": 210,
      "sensor_timestamp": 4210344097221,
      "time_usec": 4210344097
    },
    {
      "frame_id": 211,
      "sensor_timestamp": 4210377399816,
      "time_usec": 4210377399
    },
    {
      "frame_id": 212,
      "sensor_timestamp": 4210410646153,
      "time_usec": 4210410646
    },
    {
      "frame_id": 213,
      "sensor_timestamp": 4210443892491,
      "time_usec": 4210443892
    },
    {
      "frame_id": 214,
      "sensor_timestamp": 4210477138829,
      "time_usec": 4210477138
    },
    {
      "frame_id": 215,
      "sensor_timestamp": 4210510385411,
      "time_usec": 4210510385
    },
    {
      "frame_id": 216,
      "sensor_timestamp": 4210543631749,
      "time_usec": 4210543631
    },
    {
      "frame_id": 217,
      "sensor_timestamp": 4210576878087,
      "time_usec": 4210576878
    },
    {
      "frame_id": 218,
      "sensor_timestamp": 4210610124425,
      "time_usec": 4210610124
    },
    {
      "frame_id": 219,
      "sensor_timestamp": 4210643370763,
      "time_usec": 4210643370
    },
    {
      "frame_id": 220,
      "sensor_timestamp": 4210676617345,
      "time_usec": 4210676617
    },
    {
      "frame_id": 221,
      "sensor_timestamp": 4210709863683,
      "time_usec": 4210709863
    },
    {
      "frame_id": 222,
      "sensor_timestamp": 4210743110021,
      "time_usec": 4210743110
    },
    {
      "frame_id": 223,
      "sensor_timestamp": 4210776356359,
      "time_usec": 4210776356
    },
    {
      "frame_id": 224,
      "sensor_timestamp": 4210809602941,
      "time_usec": 4210809602
    },
    {
      "frame_id": 225,
      "sensor_timestamp": 4210842849278,
      "time_usec": 4210842849
    },
    {
      "frame_id": 226,
      "sensor_timestamp": 4210876095616,
      "time_usec": 4210876095
    },
    {
      "frame_id": 227,
      "sensor_timestamp": 4210909341954,
      "time_usec": 4210909341
    },
    {
      "frame_id": 228,
      "sensor_timestamp": 4210942588536,
      "time_usec": 4210942588
    },
    {
      "frame_id": 229,
      "sensor_timestamp": 4210975834874,
      "time_usec": 4210975834
    },
    {
      "frame_id": 230,
      "sensor_timestamp": 4211009081212,
      "time_usec": 4211009081
    },
    {
      "frame_id": 231,
      "sensor_timestamp": 4211042327550,
      "time_usec": 4211042327
    },
    {
      "frame_id": 232,
      "sensor_timestamp": 4211075574132,
      "time_usec": 4211075574
    },
    {
      "frame_id": 233,
      "sensor_timestamp": 4211108820470,
      "time_usec": 4211108820
    },
    {
      "frame_id": 234,
      "sensor_timestamp": 4211142066808,
      "time_usec": 4211142066
    },
    {
      "frame_id": 235,
      "sensor_timestamp": 4211175313146,
      "time_usec": 4211175313
    },
    {
      "frame_id": 236,
      "sensor_timestamp": 4211208559728,
      "time_usec": 4211208559
    },
    {
      "frame_id": 237,
      "sensor_timestamp": 4211241806066,
      "time_usec": 4211241806
    },
    {
      "frame_id": 238,
      "sensor_timestamp": 4211275052403,
      "time_usec": 4211275052
    },
    {
      "frame_id": 239,
      "sensor_timestamp": 4211308298741,
      "time_usec": 4211308298
    },
    {
      "frame_id": 240,
      "sensor_timestamp": 4211341545323,
      "time_usec": 4211341545
    },
    {
      "frame_id": 241,
      "sensor_timestamp": 4211374791661,
      "time_usec": 4211374791
    },
    {
      "frame_id": 242,
      "sensor_timestamp": 4211408037999,
      "time_usec": 4211408037
    },
    {
      "frame_id": 243,
      "sensor_timestamp": 4211441284337,
      "time_usec": 4211441284
    },
    {
      "frame_id": 244,
      "sensor_timestamp": 4211474530919,
      "time_usec": 4211474530
    },
    {
      "frame_id": 245,
      "sensor_timestamp": 4211507777257,
      "time_usec": 4211507777
    },
    {
      "frame_id": 246,
      "sensor_timestamp": 4211541023595,
      "time_usec": 4211541023
    },
    {
      "frame_id": 247,
      "sensor_timestamp": 4211574269933,
      "time_usec": 4211574269
    },
    {
      "frame_id": 248,
      "sensor_timestamp": 4211607516515,
      "time_usec": 4211607516
    },
    {
      "frame_id": 249,
      "sensor_timestamp": 4211640762853,
      "time_usec": 4211640762
    },
    {
      "frame_id": 250,
      "sensor_timestamp": 4211674009191,
      "time_usec": 4211674009
    },
    {
      "frame_id": 251,
      "sensor_timestamp": 4211707255528,
      "time_usec": 4211707255
    },
    {
      "frame_id": 252,
      "sensor_timestamp": 4211740502111,
      "time_usec": 4211740502
    },
    {
      "frame_id": 253,
      "sensor_timestamp": 4211773687757,
      "time_usec": 4211773687
    },
    {
      "frame_id": 254,
      "sensor_timestamp": 4211806994786,
      "time_usec": 4211806994
    },
    {
      "frame_id": 255,
      "sensor_timestamp": 4211840241124,
      "time_usec": 4211840241
    },
    {
      "frame_id": 256,
      "sensor_timestamp": 4211873487462,
      "time_usec": 4211873487
    },
    {
      "frame_id": 257,
      "sensor_timestamp": 4211906734044,
      "time_usec": 4211906734
    },
    {
      "frame_id": 258,
      "sensor_timestamp": 4211939980382,
      "time_usec": 4211939980
    },
    {
      "frame_id": 259,
      "sensor_timestamp": 4211973226720,
      "time_usec": 4211973226
    },
    {
      "frame_id": 260,
      "sensor_timestamp": 4212006473058,
      "time_usec": 4212006473
    },
    {
      "frame_id": 261,
      "sensor_timestamp": 4212039719640,
      "time_usec": 4212039719
    },
    {
      "frame_id": 262,
      "sensor_timestamp": 4212072965978,
      "time_usec": 4212072965
    },
    {
      "frame_id": 263,
      "sensor_timestamp": 4212106212316,
      "time_usec": 4212106212
    },
    {
      "frame_id": 264,
      "sensor_timestamp": 4212139458653,
      "time_usec": 4212139458
    },
    {
      "frame_id": 265,
      "sensor_timestamp": 4212172705236,
      "time_usec": 4212172705
    },
    {
      "frame_id": 266,
      "sensor_timestamp": 4212205951573,
      "time_usec": 4212205951
    },
    {
      "frame_id": 267,
      "sensor_timestamp": 4212239197911,
      "time_usec": 4212239197
    },
    {
      "frame_id": 268,
      "sensor_timestamp": 4212272444249,
      "time_usec": 4212272444
    },
    {
      "frame_id": 269,
      "sensor_timestamp": 4212305690831,
      "time_usec": 4212305690
    },
    {
      "frame_id": 270,
      "sensor_timestamp": 4212338937169,
      "time_usec": 4212338937
    },
    {
      "frame_id": 271,
      "sensor_timestamp": 4212372183507,
      "time_usec": 4212372183
    },
    {
      "frame_id": 272,
      "sensor_timestamp": 4212405429845,
      "time_usec": 4212405429
    },
    {
      "frame_id": 273,
      "sensor_timestamp": 4212438676427,
      "time_usec": 4212438676
    },
    {
      "frame_id": 274,
      "sensor_timestamp": 4212471922765,
      "time_usec": 4212471922
    },
    {
      "frame_id": 275,
      "sensor_timestamp": 4212505169103,
      "time_usec": 4212505169
    },
    {
      "frame_id": 276,
      "sensor_timestamp": 4212538415441,
      "time_usec": 4212538415
    },
    {
      "frame_id": 277,
      "sensor_timestamp": 4212571662023,
      "time_usec": 4212571662
    },
    {
      "frame_id": 278,
      "sensor_timestamp": 4212604908361,
      "time_usec": 4212604908
    },
    {
      "frame_id": 279,
      "sensor_timestamp": 4212638154698,
      "time_usec": 4212638154
    },
    {
      "frame_id": 280,
      "sensor_timestamp": 4212671401036,
      "time_usec": 4212671401
    },
    {
      "frame_id": 281,
      "sensor_timestamp": 4212704647618,
      "time_usec": 4212704647
    },
    {
      "frame_id": 282,
      "sensor_timestamp": 4212737893956,
      "time_usec": 4212737893
    },
    {
      "frame_id": 283,
      "sensor_timestamp": 4212771140294,
      "time_usec": 4212771140
    },
    {
      "frame_id": 284,
      "sensor_timestamp": 4212804386632,
      "time_usec": 4212804386
    },
    {
      "frame_id": 285,
      "sensor_timestamp": 4212837633214,
      "time_usec": 4212837633
    },
    {
      "frame_id": 286,
      "sensor_timestamp": 4212870879552,
      "time_usec": 4212870879
    },
    {
      "frame_id": 287,
      "sensor_timestamp": 4212904125890,
      "time_usec": 4212904125
    },
    {
      "frame_id": 288,
      "sensor_timestamp": 4212937372228,
      "time_usec": 4212937372
    },
    {
      "frame_id": 289,
      "sensor_timestamp": 4212970618810,
      "time_usec": 4212970618
    },
    {
      "frame_id": 290,
      "sensor_timestamp": 4213003865148,
      "time_usec": 4213003865
    },
    {
      "frame_id": 291,
      "sensor_timestamp": 4213037111486,
      "time_usec": 4213037111
    },
    {
      "frame_id": 292,
      "sensor_timestamp": 4213070357823,
      "time_usec": 4213070357
    },
    {
      "frame_id": 293,
      "sensor_timestamp": 4213103604161,
      "time_usec": 4213103604
    },
    {
      "frame_id": 294,
      "sensor_timestamp": 4213136850743,
      "time_usec": 4213136850
    },
    {
      "frame_id": 295,
      "sensor_timestamp": 4213170097081,
      "time_usec": 4213170097
    },
    {
      "frame_id": 296,
      "sensor_timestamp": 4213203343419,
      "time_usec": 4213203343
    },
    {
      "frame_id": 297,
      "sensor_timestamp": 4213236589757,
      "time_usec": 4213236589
    },
    {
      "frame_id": 298,
      "sensor_timestamp": 4213269836339,
      "time_usec": 4213269836
    },
    {
      "frame_id": 299,
      "sensor_timestamp": 4213303082677,
      "time_usec": 4213303082
    },
    {
      "frame_id": 300,
      "sensor_timestamp": 4213336329015,
      "time_usec": 4213336329
    },
    {
      "frame_id": 301,
      "sensor_timestamp": 4213369575353,
      "time_usec": 4213369575
    },
    {
      "frame_id": 302,
      "sensor_timestamp": 4213402821935,
      "time_usec": 4213402821
    },
    {
      "frame_id": 303,
      "sensor_timestamp": 4213436068273,
      "time_usec": 4213436068
    },
    {
      "frame_id": 304,
      "sensor_timestamp": 4213469314611,
      "time_usec": 4213469314
    },
    {
      "frame_id": 305,
      "sensor_timestamp": 4213502560948,
      "time_usec": 4213502560
    },
    {
      "frame_id": 306,
      "sensor_timestamp": 4213535807530,
      "time_usec": 4213535807
    },
    {
      "frame_id": 307,
      "sensor_timestamp": 4213569053868,
      "time_usec": 4213569053
    },
    {
      "frame_id": 308,
      "sensor_timestamp": 4213602300206,
      "time_usec": 4213602300
    },
    {
      "frame_id": 309,
      "sensor_timestamp": 4213635546544,
      "time_usec": 4213635546
    },
    {
      "frame_id": 310,
      "sensor_timestamp": 4213668793126,
      "time_usec": 4213668793
    },
    {
      "frame_id": 311,
      "sensor_timestamp": 4213702039464,
      "time_usec": 4213702039
    },
    {
      "frame_id": 312,
      "sensor_timestamp": 4213735285802,
      "time_usec": 4213735285
    },
    {
      "frame_id": 313,
      "sensor_timestamp": 4213768532140,
      "time_usec": 4213768532
    },
    {
      "frame_id": 314,
      "sensor_timestamp": 4213801778722,
      "time_usec": 4213801778
    },
    {
      "frame_id": 315,
      "sensor_timestamp": 4213835025060,
      "time_usec": 4213835025
    },
    {
      "frame_id": 316,
      "sensor_timestamp": 4213868271398,
      "time_usec": 4213868271
    },
    {
      "frame_id": 317,
      "sensor_timestamp": 4213901517736,
      "time_usec": 4213901517
    },
    {
      "frame_id": 318,
      "sensor_timestamp": 4213934764318,
      "time_usec": 4213934764
    },
    {
      "frame_id": 319,
      "sensor_timestamp": 4213968010655,
      "time_usec": 4213968010
    },
    {
      "frame_id": 320,
      "sensor_timestamp": 4214001256993,
      "time_usec": 4214001256
    },
    {
      "frame_id": 321,
      "sensor_timestamp": 4214034503331,
      "time_usec": 4214034503
    },
    {
      "frame_id": 322,
      "sensor_timestamp": 4214067749913,
      "time_usec": 4214067749
    },
    {
      "frame_id": 323,
      "sensor_timestamp": 4214100996251,
      "time_usec": 4214100996
    },
    {
      "frame_id": 324,
      "sensor_timestamp": 4214134242589,
      "time_usec": 4214134242
    },
    {
      "frame_id": 325,
      "sensor_timestamp": 4214167488927,
      "time_usec": 4214167488
    },
    {
      "frame_id": 326,
      "sensor_timestamp": 4214200735509,
      "time_usec": 4214200735
    },
    {
      "frame_id": 327,
      "sensor_timestamp": 4214233981847,
      "time_usec": 4214233981
    },
    {
      "frame_id": 328,
      "sensor_timestamp": 4214267228185,
      "time_usec": 4214267228
    },
    {
      "frame_id": 329,
      "sensor_timestamp": 4214300474523,
      "time_usec": 4214300474
    },
    {
      "frame_id": 330,
      "sensor_timestamp": 4214333720861,
      "time_usec": 4214333720
    },
    {
      "frame_id": 331,
      "sensor_timestamp": 4214366967443,
      "time_usec": 4214366967
    },
    {
      "frame_id": 332,
      "sensor_timestamp": 4214400213780,
      "time_usec": 4214400213
    },
    {
      "frame_id": 333,
      "sensor_timestamp": 4214433460118,
      "time_usec": 4214433460
    },
    {
      "frame_id": 334,
      "sensor_timestamp": 4214466706456,
      "time_usec": 4214466706
    },
    {
      "frame_id": 335,
      "sensor_timestamp": 4214499953038,
      "time_usec": 4214499953
    },
    {
      "frame_id": 336,
      "sensor_timestamp": 4214533199376,
      "time_usec": 4214533199
    },
    {
      "frame_id": 337,
      "sensor_timestamp": 4214566445714,
      "time_usec": 4214566445
    },
    {
      "frame_id": 338,
      "sensor_timestamp": 4214599692052,
      "time_usec": 4214599692
    },
    {
      "frame_id": 339,
      "sensor_timestamp": 4214632938634,
      "time_usec": 4214632938
    },
    {
      "frame_id": 340,
      "sensor_timestamp": 4214666184972,
      "time_usec": 4214666184
    },
    {
      "frame_id": 341,
      "sensor_timestamp": 4214699431310,
      "time_usec": 4214699431
    },
    {
      "frame_id": 342,
      "sensor_timestamp": 4214732677648,
      "time_usec": 4214732677
    },
    {
      "frame_id": 343,
      "sensor_timestamp": 4214765924230,
      "time_usec": 4214765924
    },
    {
      "frame_id": 344,
      "sensor_timestamp": 4214799170568,
      "time_usec": 4214799170
    },
    {
      "frame_id": 345,
      "sensor_timestamp": 4214832416905,
      "time_usec": 4214832416
    },
    {
      "frame_id": 346,
      "sensor_timestamp": 4214865663243,
      "time_usec": 4214865663
    },
    {
      "frame_id": 347,
      "sensor_timestamp": 4214898909825,
      "time_usec": 4214898909
    },
    {
      "frame_id": 348,
      "sensor_timestamp": 4214932156163,
      "time_usec": 4214932156
    },
    {
      "frame_id": 349,
      "sensor_timestamp": 4214965402501,
      "time_usec": 4214965402
    },
    {
      "frame_id": 350,
      "sensor_timestamp": 4214998648839,
      "time_usec": 4214998648
    },
    {
      "frame_id": 351,
      "sensor_timestamp": 4215031895421,
      "time_usec": 4215031895
    },
    {
      "frame_id": 352,
      "sensor_timestamp": 4215065141759,
      "time_usec": 4215065141
    },
    {
      "frame_id": 353,
      "sensor_timestamp": 4215098388097,
      "time_usec": 4215098388
    },
    {
      "frame_id": 354,
      "sensor_timestamp": 4215131634435,
      "time_usec": 4215131634
    },
    {
      "frame_id": 355,
      "sensor_timestamp": 4215164881017,
      "time_usec": 4215164881
    },
    {
      "frame_id": 356,
      "sensor_timestamp": 4215198127355,
      "time_usec": 4215198127
    },
    {
      "frame_id": 357,
      "sensor_timestamp": 4215231373693,
      "time_usec": 4215231373
    },
    {
      "frame_id": 358,
      "sensor_timestamp": 4215264620030,
      "time_usec": 4215264620
    },
    {
      "frame_id": 359,
      "sensor_timestamp": 4215297866612,
      "time_usec": 4215297866
    },
    {
      "frame_id": 360,
      "sensor_timestamp": 4215331112950,
      "time_usec": 4215331112
    },
    {
      "frame_id": 361,
      "sensor_timestamp": 4215364359288,
      "time_usec": 4215364359
    },
    {
      "frame_id": 362,
      "sensor_timestamp": 4215397605626,
      "time_usec": 4215397605
    },
    {
      "frame_id": 363,
      "sensor_timestamp": 4215430851964,
      "time_usec": 4215430851
    },
    {
      "frame_id": 364,
      "sensor_timestamp": 4215464098546,
      "time_usec": 4215464098
    },
    {
      "frame_id": 365,
      "sensor_timestamp": 4215497344884,
      "time_usec": 4215497344
    },
    {
      "frame_id": 366,
      "sensor_timestamp": 4215530591222,
      "time_usec": 4215530591
    },
    {
      "frame_id": 367,
      "sensor_timestamp": 4215563837560,
      "time_usec": 4215563837
    },
    {
      "frame_id": 368,
      "sensor_timestamp": 4215597084142,
      "time_usec": 4215597084
    },
    {
      "frame_id": 369,
      "sensor_timestamp": 4215630330480,
      "time_usec": 4215630330
    },
    {
      "frame_id": 370,
      "sensor_timestamp": 4215663576818,
      "time_usec": 4215663576
    },
    {
      "frame_id": 371,
      "sensor_timestamp": 4215696823155,
      "time_usec": 4215696823
    },
    {
      "frame_id": 372,
      "sensor_timestamp": 4215730069737,
      "time_usec": 4215730069
    },
    {
      "frame_id": 373,
      "sensor_timestamp": 4215763316075,
      "time_usec": 4215763316
    },
    {
      "frame_id": 374,
      "sensor_timestamp": 4215796562413,
      "time_usec": 4215796562
    },
    {
      "frame_id": 375,
      "sensor_timestamp": 4215829808751,
      "time_usec": 4215829808
    },
    {
      "frame_id": 376,
      "sensor_timestamp": 4215863055333,
      "time_usec": 4215863055
    },
    {
      "frame_id": 377,
      "sensor_timestamp": 4215896301671,
      "time_usec": 4215896301
    },
    {
      "frame_id": 378,
      "sensor_timestamp": 4215929548009,
      "time_usec": 4215929548
    },
    {
      "frame_id": 379,
      "sensor_timestamp": 4215962794347,
      "time_usec": 4215962794
    },
    {
      "frame_id": 380,
      "sensor_timestamp": 4215996040929,
      "time_usec": 4215996040
    },
    {
      "frame_id": 381,
      "sensor_timestamp": 4216029287267,
      "time_usec": 4216029287
    },
    {
      "frame_id": 382,
      "sensor_timestamp": 4216062533605,
      "time_usec": 4216062533
    },
    {
      "frame_id": 383,
      "sensor_timestamp": 4216095779943,
      "time_usec": 4216095779
    },
    {
      "frame_id": 384,
      "sensor_timestamp": 4216129026525,
      "time_usec": 4216129026
    },
    {
      "frame_id": 385,
      "sensor_timestamp": 4216162272862,
      "time_usec": 4216162272
    },
    {
      "frame_id": 386,
      "sensor_timestamp": 4216195519200,
      "time_usec": 4216195519
    },
    {
      "frame_id": 387,
      "sensor_timestamp": 4216228765538,
      "time_usec": 4216228765
    },
    {
      "frame_id": 388,
      "sensor_timestamp": 4216262012120,
      "time_usec": 4216262012
    },
    {
      "frame_id": 389,
      "sensor_timestamp": 4216295258458,
      "time_usec": 4216295258
    },
    {
      "frame_id": 390,
      "sensor_timestamp": 4216328504796,
      "time_usec": 4216328504
    },
    {
      "frame_id": 391,
      "sensor_timestamp": 4216361751134,
      "time_usec": 4216361751
    },
    {
      "frame_id": 392,
      "sensor_timestamp": 4216394997716,
      "time_usec": 4216394997
    },
    {
      "frame_id": 393,
      "sensor_timestamp": 4216428244054,
      "time_usec": 4216428244
    },
    {
      "frame_id": 394,
      "sensor_timestamp": 4216461490392,
      "time_usec": 4216461490
    },
    {
      "frame_id": 395,
      "sensor_timestamp": 4216494736730,
      "time_usec": 4216494736
    },
    {
      "frame_id": 396,
      "sensor_timestamp": 4216527983312,
      "time_usec": 4216527983
    },
    {
      "frame_id": 397,
      "sensor_timestamp": 4216561229650,
      "time_usec": 4216561229
    },
    {
      "frame_id": 398,
      "sensor_timestamp": 4216594475987,
      "time_usec": 4216594475
    },
    {
      "frame_id": 399,
      "sensor_timestamp": 4216627722325,
      "time_usec": 4216627722
    },
    {
      "frame_id": 400,
      "sensor_timestamp": 4216660968663,
      "time_usec": 4216660968
    },
    {
      "frame_id": 401,
      "sensor_timestamp": 4216694215245,
      "time_usec": 4216694215
    },
    {
      "frame_id": 402,
      "sensor_timestamp": 4216727461583,
      "time_usec": 4216727461
    },
    {
      "frame_id": 403,
      "sensor_timestamp": 4216760707921,
      "time_usec": 4216760707
    },
    {
      "frame_id": 404,
      "sensor_timestamp": 4216793954259,
      "time_usec": 4216793954
    },
    {
      "frame_id": 405,
      "sensor_timestamp": 4216827200841,
      "time_usec": 4216827200
    },
    {
      "frame_id": 406,
      "sensor_timestamp": 4216860447179,
      "time_usec": 4216860447
    },
    {
      "frame_id": 407,
      "sensor_timestamp": 4216893693517,
      "time_usec": 4216893693
    },
    {
      "frame_id": 408,
      "sensor_timestamp": 4216926939855,
      "time_usec": 4216926939
    },
    {
      "frame_id": 409,
      "sensor_timestamp": 4216960186437,
      "time_usec": 4216960186
    },
    {
      "frame_id": 410,
      "sensor_timestamp": 4216993432775,
      "time_usec": 4216993432
    },
    {
      "frame_id": 411,
      "sensor_timestamp": 4217026679112,
      "time_usec": 4217026679
    },
    {
      "frame_id": 412,
      "sensor_timestamp": 4217059925450,
      "time_usec": 4217059925
    },
    {
      "frame_id": 413,
      "sensor_timestamp": 4217093172032,
      "time_usec": 4217093172
    },
    {
      "frame_id": 414,
      "sensor_timestamp": 4217126418370,
      "time_usec": 4217126418
    },
    {
      "frame_id": 415,
      "sensor_timestamp": 4217159664708,
      "time_usec": 4217159664
    },
    {
      "frame_id": 416,
      "sensor_timestamp": 4217192911046,
      "time_usec": 4217192911
    },
    {
      "frame_id": 417,
      "sensor_timestamp": 4217226157628,
      "time_usec": 4217226157
    },
    {
      "frame_id": 418,
      "sensor_timestamp": 4217259403966,
      "time_usec": 4217259403
    },
    {
      "frame_id": 419,
      "sensor_timestamp": 4217292650304,
      "time_usec": 4217292650
    },
    {
      "frame_id": 420,
      "sensor_timestamp": 4217325896642,
      "time_usec": 4217325896
    },
    {
      "frame_id": 421,
      "sensor_timestamp": 4217359143224,
      "time_usec": 4217359143
    },
    {
      "frame_id": 422,
      "sensor_timestamp": 4217392389562,
      "time_usec": 4217392389
    },
    {
      "frame_id": 423,
      "sensor_timestamp": 4217425635900,
      "time_usec": 4217425635
    },
    {
      "frame_id": 424,
      "sensor_timestamp": 4217458882237,
      "time_usec": 4217458882
    },
    {
      "frame_id": 425,
      "sensor_timestamp": 4217492128819,
      "time_usec": 4217492128
    },
    {
      "frame_id": 426,
      "sensor_timestamp": 4217525375157,
      "time_usec": 4217525375
    },
    {
      "frame_id": 427,
      "sensor_timestamp": 4217558621495,
      "time_usec": 4217558621
    },
    {
      "frame_id": 428,
      "sensor_timestamp": 4217591867833,
      "time_usec": 4217591867
    },
    {
      "frame_id": 429,
      "sensor_timestamp": 4217625114415,
      "time_usec": 4217625114
    },
    {
      "frame_id": 430,
      "sensor_timestamp": 4217658360753,
      "time_usec": 4217658360
    },
    {
      "frame_id": 431,
      "sensor_timestamp": 4217691607091,
      "time_usec": 4217691607
    },
    {
      "frame_id": 432,
      "sensor_timestamp": 4217724853429,
      "time_usec": 4217724853
    },
    {
      "frame_id": 433,
      "sensor_timestamp": 4217758100011,
      "time_usec": 4217758100
    },
    {
      "frame_id": 434,
      "sensor_timestamp": 4217791346349,
      "time_usec": 4217791346
    },
    {
      "frame_id": 435,
      "sensor_timestamp": 4217824592687,
      "time_usec": 4217824592
    },
    {
      "frame_id": 436,
      "sensor_timestamp": 4217857839025,
      "time_usec": 4217857839
    },
    {
      "frame_id": 437,
      "sensor_timestamp": 4217891085362,
      "time_usec": 4217891085
    },
    {
      "frame_id": 438,
      "sensor_timestamp": 4217924331944,
      "time_usec": 4217924331
    },
    {
      "frame_id": 439,
      "sensor_timestamp": 4217957578282,
      "time_usec": 4217957578
    },
    {
      "frame_id": 440,
      "sensor_timestamp": 4217990824620,
      "time_usec": 4217990824
    },
    {
      "frame_id": 441,
      "sensor_timestamp": 4218024070958,
      "time_usec": 4218024070
    },
    {
      "frame_id": 442,
      "sensor_timestamp": 4218057317540,
      "time_usec": 4218057317
    },
    {
      "frame_id": 443,
      "sensor_timestamp": 4218090563878,
      "time_usec": 4218090563
    },
    {
      "frame_id": 444,
      "sensor_timestamp": 4218123810216,
      "time_usec": 4218123810
    },
    {
      "frame_id": 445,
      "sensor_timestamp": 4218157056554,
      "time_usec": 4218157056
    },
    {
      "frame_id": 446,
      "sensor_timestamp": 4218190303136,
      "time_usec": 4218190303
    },
    {
      "frame_id": 447,
      "sensor_timestamp": 4218223549474,
      "time_usec": 4218223549
    },
    {
      "frame_id": 448,
      "sensor_timestamp": 4218256795812,
      "time_usec": 4218256795
    },
    {
      "frame_id": 449,
      "sensor_timestamp": 4218290042150,
      "time_usec": 4218290042
    },
    {
      "frame_id": 450,
      "sensor_timestamp": 4218323288732,
      "time_usec": 4218323288
    },
    {
      "frame_id": 451,
      "sensor_timestamp": 4218356535069,
      "time_usec": 4218356535
    },
    {
      "frame_id": 452,
      "sensor_timestamp": 4218389781407,
      "time_usec": 4218389781
    },
    {
      "frame_id": 453,
      "sensor_timestamp": 4218423027745,
      "time_usec": 4218423027
    },
    {
      "frame_id": 454,
      "sensor_timestamp": 4218456274327,
      "time_usec": 4218456274
    },
    {
      "frame_id": 455,
      "sensor_timestamp": 4218489520665,
      "time_usec": 4218489520
    },
    {
      "frame_id": 456,
      "sensor_timestamp": 4218522767003,
      "time_usec": 4218522767
    },
    {
      "frame_id": 457,
      "sensor_timestamp": 4218556013341,
      "time_usec": 4218556013
    },
    {
      "frame_id": 458,
      "sensor_timestamp": 4218589259923,
      "time_usec": 4218589259
    },
    {
      "frame_id": 459,
      "sensor_timestamp": 4218622506261,
      "time_usec": 4218622506
    },
    {
      "frame_id": 460,
      "sensor_timestamp": 4218655752599,
      "time_usec": 4218655752
    },
    {
      "frame_id": 461,
      "sensor_timestamp": 4218688998937,
      "time_usec": 4218688998
    },
    {
      "frame_id": 462,
      "sensor_timestamp": 4218722245519,
      "time_usec": 4218722245
    },
    {
      "frame_id": 463,
      "sensor_timestamp": 4218755491857,
      "time_usec": 4218755491
    },
    {
      "frame_id": 464,
      "sensor_timestamp": 4218788738194,
      "time_usec": 4218788738
    },
    {
      "frame_id": 465,
      "sensor_timestamp": 4218821984532,
      "time_usec": 4218821984
    },
    {
      "frame_id": 466,
      "sensor_timestamp": 4218855231114,
      "time_usec": 4218855231
    },
    {
      "frame_id": 467,
      "sensor_timestamp": 4218888477452,
      "time_usec": 4218888477
    },
    {
      "frame_id": 468,
      "sensor_timestamp": 4218921723790,
      "time_usec": 4218921723
    },
    {
      "frame_id": 469,
      "sensor_timestamp": 4218954970128,
      "time_usec": 4218954970
    },
    {
      "frame_id": 470,
      "sensor_timestamp": 4218988216710,
      "time_usec": 4218988216
    },
    {
      "frame_id": 471,
      "sensor_timestamp": 4219021463048,
      "time_usec": 4219021463
    },
    {
      "frame_id": 472,
      "sensor_timestamp": 4219054709386,
      "time_usec": 4219054709
    },
    {
      "frame_id": 473,
      "sensor_timestamp": 4219087901628,
      "time_usec": 4219087901
    },
    {
      "frame_id": 474,
      "sensor_timestamp": 4219121202062,
      "time_usec": 4219121202
    },
    {
      "frame_id": 475,
      "sensor_timestamp": 4219154448644,
      "time_usec": 4219154448
    },
    {
      "frame_id": 476,
      "sensor_timestamp": 4219187694982,
      "time_usec": 4219187694
    },
    {
      "frame_id": 477,
      "sensor_timestamp": 4219220941319,
      "time_usec": 4219220941
    },
    {
      "frame_id": 478,
      "sensor_timestamp": 4219254187657,
      "time_usec": 4219254187
    },
    {
      "frame_id": 479,
      "sensor_timestamp": 4219287434239,
      "time_usec": 4219287434
    },
    {
      "frame_id": 480,
      "sensor_timestamp": 4219320680577,
      "time_usec": 4219320680
    },
    {
      "frame_id": 481,
      "sensor_timestamp": 4219353926915,
      "time_usec": 4219353926
    },
    {
      "frame_id": 482,
      "sensor_timestamp": 4219387173253,
      "time_usec": 4219387173
    },
    {
      "frame_id": 483,
      "sensor_timestamp": 4219420419835,
      "time_usec": 4219420419
    },
    {
      "frame_id": 484,
      "sensor_timestamp": 4219453666173,
      "time_usec": 4219453666
    },
    {
      "frame_id": 485,
      "sensor_timestamp": 4219486912511,
      "time_usec": 4219486912
    },
    {
      "frame_id": 486,
      "sensor_timestamp": 4219520158849,
      "time_usec": 4219520158
    },
    {
      "frame_id": 487,
      "sensor_timestamp": 4219553405431,
      "time_usec": 4219553405
    },
    {
      "frame_id": 488,
      "sensor_timestamp": 4219586651769,
      "time_usec": 4219586651
    },
    {
      "frame_id": 489,
      "sensor_timestamp": 4219619898107,
      "time_usec": 4219619898
    },
    {
      "frame_id": 490,
      "sensor_timestamp": 4219653144444,
      "time_usec": 4219653144
    },
    {
      "frame_id": 491,
      "sensor_timestamp": 4219686391027,
      "time_usec": 4219686391
    },
    {
      "frame_id": 492,
      "sensor_timestamp": 4219719637364,
      "time_usec": 4219719637
    },
    {
      "frame_id": 493,
      "sensor_timestamp": 4219752883702,
      "time_usec": 4219752883
    },
    {
      "frame_id": 494,
      "sensor_timestamp": 4219786130040,
      "time_usec": 4219786130
    },
    {
      "frame_id": 495,
      "sensor_timestamp": 4219819376622,
      "time_usec": 4219819376
    },
    {
      "frame_id": 496,
      "sensor_timestamp": 4219852622960,
      "time_usec": 4219852622
    },
    {
      "frame_id": 497,
      "sensor_timestamp": 4219885869298,
      "time_usec": 4219885869
    },
    {
      "frame_id": 498,
      "sensor_timestamp": 4219919115636,
      "time_usec": 4219919115
    },
    {
      "frame_id": 499,
      "sensor_timestamp": 4219952362218,
      "time_usec": 4219952362
    },
    {
      "frame_id": 500,
      "sensor_timestamp": 4219985608556,
      "time_usec": 4219985608
    },
    {
      "frame_id": 501,
      "sensor_timestamp": 4220018854894,
      "time_usec": 4220018854
    },
    {
      "frame_id": 502,
      "sensor_timestamp": 4220052101232,
      "time_usec": 4220052101
    },
    {
      "frame_id": 503,
      "sensor_timestamp": 4220085347814,
      "time_usec": 4220085347
    },
    {
      "frame_id": 504,
      "sensor_timestamp": 4220118594152,
      "time_usec": 4220118594
    },
    {
      "frame_id": 505,
      "sensor_timestamp": 4220151840489,
      "time_usec": 4220151840
    },
    {
      "frame_id": 506,
      "sensor_timestamp": 4220185086827,
      "time_usec": 4220185086
    },
    {
      "frame_id": 507,
      "sensor_timestamp": 4220218333409,
      "time_usec": 4220218333
    },
    {
      "frame_id": 508,
      "sensor_timestamp": 4220251579747,
      "time_usec": 4220251579
    },
    {
      "frame_id": 509,
      "sensor_timestamp": 4220284826085,
      "time_usec": 4220284826
    },
    {
      "frame_id": 510,
      "sensor_timestamp": 4220318072423,
      "time_usec": 4220318072
    },
    {
      "frame_id": 511,
      "sensor_timestamp": 4220351318761,
      "time_usec": 4220351318
    },
    {
      "frame_id": 512,
      "sensor_timestamp": 4220384565343,
      "time_usec": 4220384565
    },
    {
      "frame_id": 513,
      "sensor_timestamp": 4220417811681,
      "time_usec": 4220417811
    },
    {
      "frame_id": 514,
      "sensor_timestamp": 4220451058019,
      "time_usec": 4220451058
    },
    {
      "frame_id": 515,
      "sensor_timestamp": 4220484304357,
      "time_usec": 4220484304
    },
    {
      "frame_id": 516,
      "sensor_timestamp": 4220517550939,
      "time_usec": 4220517550
    },
    {
      "frame_id": 517,
      "sensor_timestamp": 4220550797277,
      "time_usec": 4220550797
    },
    {
      "frame_id": 518,
      "sensor_timestamp": 4220584043614,
      "time_usec": 4220584043
    },
    {
      "frame_id": 519,
      "sensor_timestamp": 4220617289952,
      "time_usec": 4220617289
    },
    {
      "frame_id": 520,
      "sensor_timestamp": 4220650536534,
      "time_usec": 4220650536
    },
    {
      "frame_id": 521,
      "sensor_timestamp": 4220683782872,
      "time_usec": 4220683782
    },
    {
      "frame_id": 522,
      "sensor_timestamp": 4220717029210,
      "time_usec": 4220717029
    },
    {
      "frame_id": 523,
      "sensor_timestamp": 4220750275548,
      "time_usec": 4220750275
    },
    {
      "frame_id": 524,
      "sensor_timestamp": 4220783522130,
      "time_usec": 4220783522
    },
    {
      "frame_id": 525,
      "sensor_timestamp": 4220819549099,
      "time_usec": 4220819549
    },
    {
      "frame_id": 526,
      "sensor_timestamp": 4220852795437,
      "time_usec": 4220852795
    },
    {
      "frame_id": 527,
      "sensor_timestamp": 4220886041775,
      "time_usec": 4220886041
    },
    {
      "frame_id": 528,
      "sensor_timestamp": 4220919288357,
      "time_usec": 4220919288
    },
    {
      "frame_id": 529,
      "sensor_timestamp": 4220952534695,
      "time_usec": 4220952534
    },
    {
      "frame_id": 530,
      "sensor_timestamp": 4220985781033,
      "time_usec": 4220985781
    },
    {
      "frame_id": 531,
      "sensor_timestamp": 4221019027370,
      "time_usec": 4221019027
    },
    {
      "frame_id": 532,
      "sensor_timestamp": 4221052273952,
      "time_usec": 4221052273
    },
    {
      "frame_id": 533,
      "sensor_timestamp": 4221085520290,
      "time_usec": 4221085520
    },
    {
      "frame_id": 534,
      "sensor_timestamp": 4221118766628,
      "time_usec": 4221118766
    },
    {
      "frame_id": 535,
      "sensor_timestamp": 4221152012966,
      "time_usec": 4221152012
    },
    {
      "frame_id": 536,
      "sensor_timestamp": 4221185259548,
      "time_usec": 4221185259
    },
    {
      "frame_id": 537,
      "sensor_timestamp": 4221218505886,
      "time_usec": 4221218505
    },
    {
      "frame_id": 538,
      "sensor_timestamp": 4221251752224,
      "time_usec": 4221251752
    },
    {
      "frame_id": 539,
      "sensor_timestamp": 4221284998562,
      "time_usec": 4221284998
    },
    {
      "frame_id": 540,
      "sensor_timestamp": 4221318245144,
      "time_usec": 4221318245
    },
    {
      "frame_id": 541,
      "sensor_timestamp": 4221351491482,
      "time_usec": 4221351491
    },
    {
      "frame_id": 542,
      "sensor_timestamp": 4221384737820,
      "time_usec": 4221384737
    },
    {
      "frame_id": 543,
      "sensor_timestamp": 4221417984158,
      "time_usec": 4221417984
    },
    {
      "frame_id": 544,
      "sensor_timestamp": 4221451230495,
      "time_usec": 4221451230
    },
    {
      "frame_id": 545,
      "sensor_timestamp": 4221484477077,
      "time_usec": 4221484477
    },
    {
      "frame_id": 546,
      "sensor_timestamp": 4221517723415,
      "time_usec": 4221517723
    },
    {
      "frame_id": 547,
      "sensor_timestamp": 4221550969753,
      "time_usec": 4221550969
    },
    {
      "frame_id": 548,
      "sensor_timestamp": 4221584216091,
      "time_usec": 4221584216
    },
    {
      "frame_id": 549,
      "sensor_timestamp": 4221617462673,
      "time_usec": 4221617462
    },
    {
      "frame_id": 550,
      "sensor_timestamp": 4221650709011,
      "time_usec": 4221650709
    },
    {
      "frame_id": 551,
      "sensor_timestamp": 4221683955349,
      "time_usec": 4221683955
    },
    {
      "frame_id": 552,
      "sensor_timestamp": 4221717201687,
      "time_usec": 4221717201
    },
    {
      "frame_id": 553,
      "sensor_timestamp": 4221750448269,
      "time_usec": 4221750448
    },
    {
      "frame_id": 554,
      "sensor_timestamp": 4221783694607,
      "time_usec": 4221783694
    },
    {
      "frame_id": 555,
      "sensor_timestamp": 4221816940945,
      "time_usec": 4221816940
    },
    {
      "frame_id": 556,
      "sensor_timestamp": 4221850187283,
      "time_usec": 4221850187
    },
    {
      "frame_id": 557,
      "sensor_timestamp": 4221883433865,
      "time_usec": 4221883433
    },
    {
      "frame_id": 558,
      "sensor_timestamp": 4221916680202,
      "time_usec": 4221916680
    },
    {
      "frame_id": 559,
      "sensor_timestamp": 4221949926540,
      "time_usec": 4221949926
    },
    {
      "frame_id": 560,
      "sensor_timestamp": 4221983172878,
      "time_usec": 4221983172
    },
    {
      "frame_id": 561,
