{
  "frames": [
    {
      "frame_id": 0,
      "sensor_timestamp": 8372154425694,
      "time_usec": 8372154425
    },
    {
      "frame_id": 1,
      "sensor_timestamp": 8372220918370,
      "time_usec": 8372220918
    },
    {
      "frame_id": 2,
      "sensor_timestamp": 8372254164952,
      "time_usec": 8372254164
    },
    {
      "frame_id": 3,
      "sensor_timestamp": 8372287411290,
      "time_usec": 8372287411
    },
    {
      "frame_id": 4,
      "sensor_timestamp": 8372320657628,
      "time_usec": 8372320657
    },
    {
      "frame_id": 5,
      "sensor_timestamp": 8372353903966,
      "time_usec": 8372353903
    },
    {
      "frame_id": 6,
      "sensor_timestamp": 8372387150548,
      "time_usec": 8372387150
    },
    {
      "frame_id": 7,
      "sensor_timestamp": 8372420396886,
      "time_usec": 8372420396
    },
    {
      "frame_id": 8,
      "sensor_timestamp": 8372453643224,
      "time_usec": 8372453643
    },
    {
      "frame_id": 9,
      "sensor_timestamp": 8372486889562,
      "time_usec": 8372486889
    },
    {
      "frame_id": 10,
      "sensor_timestamp": 8372520136144,
      "time_usec": 8372520136
    },
    {
      "frame_id": 11,
      "sensor_timestamp": 8372553382482,
      "time_usec": 8372553382
    },
    {
      "frame_id": 12,
      "sensor_timestamp": 8372586628819,
      "time_usec": 8372586628
    },
    {
      "frame_id": 13,
      "sensor_timestamp": 8372619875157,
      "time_usec": 8372619875
    },
    {
      "frame_id": 14,
      "sensor_timestamp": 8372653121739,
      "time_usec": 8372653121
    },
    {
      "frame_id": 15,
      "sensor_timestamp": 8372686368077,
      "time_usec": 8372686368
    },
    {
      "frame_id": 16,
      "sensor_timestamp": 8372719614415,
      "time_usec": 8372719614
    },
    {
      "frame_id": 17,
      "sensor_timestamp": 8372752860753,
      "time_usec": 8372752860
    },
    {
      "frame_id": 18,
      "sensor_timestamp": 8372786107335,
      "time_usec": 8372786107
    },
    {
      "frame_id": 19,
      "sensor_timestamp": 8372819353673,
      "time_usec": 8372819353
    },
    {
      "frame_id": 20,
      "sensor_timestamp": 8372852600011,
      "time_usec": 8372852600
    },
    {
      "frame_id": 21,
      "sensor_timestamp": 8372885846349,
      "time_usec": 8372885846
    },
    {
      "frame_id": 22,
      "sensor_timestamp": 8372919092931,
      "time_usec": 8372919092
    },
    {
      "frame_id": 23,
      "sensor_timestamp": 8372952339269,
      "time_usec": 8372952339
    },
    {
      "frame_id": 24,
      "sensor_timestamp": 8372985585607,
      "time_usec": 8372985585
    },
    {
      "frame_id": 25,
      "sensor_timestamp": 8373018831944,
      "time_usec": 8373018831
    },
    {
      "frame_id": 26,
      "sensor_timestamp": 8373052078527,
      "time_usec": 8373052078
    },
    {
      "frame_id": 27,
      "sensor_timestamp": 8373085324864,
      "time_usec": 8373085324
    },
    {
      "frame_id": 28,
      "sensor_timestamp": 8373118571202,
      "time_usec": 8373118571
    },
    {
      "frame_id": 29,
      "sensor_timestamp": 8373151817540,
      "time_usec": 8373151817
    },
    {
      "frame_id": 30,
      "sensor_timestamp": 8373185064122,
      "time_usec": 8373185064
    },
    {
      "frame_id": 31,
      "sensor_timestamp": 8373218310460,
      "time_usec": 8373218310
    },
    {
      "frame_id": 32,
      "sensor_timestamp": 8373251556798,
      "time_usec": 8373251556
    },
    {
      "frame_id": 33,
      "sensor_timestamp": 8373284803136,
      "time_usec": 8373284803
    },
    {
      "frame_id": 34,
      "sensor_timestamp": 8373318049718,
      "time_usec": 8373318049
    },
    {
      "frame_id": 35,
      "sensor_timestamp": 8373351296056,
      "time_usec": 8373351296
    },
    {
      "frame_id": 36,
      "sensor_timestamp": 8373384542394,
      "time_usec": 8373384542
    },
    {
      "frame_id": 37,
      "sensor_timestamp": 8373417788732,
      "time_usec": 8373417788
    },
    {
      "frame_id": 38,
      "sensor_timestamp": 8373451035069,
      "time_usec": 8373451035
    },
    {
      "frame_id": 39,
      "sensor_timestamp": 8373484281652,
      "time_usec": 8373484281
    },
    {
      "frame_id": 40,
      "sensor_timestamp": 8373517527989,
      "time_usec": 8373517527
    },
    {
      "frame_id": 41,
      "sensor_timestamp": 8373550774327,
      "time_usec": 8373550774
    },
    {
      "frame_id": 42,
      "sensor_timestamp": 8373584020665,
      "time_usec": 8373584020
    },
    {
      "frame_id": 43,
      "sensor_timestamp": 8373617267247,
      "time_usec": 8373617267
    },
    {
      "frame_id": 44,
      "sensor_timestamp": 8373650513585,
      "time_usec": 8373650513
    },
    {
      "frame_id": 45,
      "sensor_timestamp": 8373683759923,
      "time_usec": 8373683759
    },
    {
      "frame_id": 46,
      "sensor_timestamp": 8373717006261,
      "time_usec": 8373717006
    },
    {
      "frame_id": 47,
      "sensor_timestamp": 8373750252843,
      "time_usec": 8373750252
    },
    {
      "frame_id": 48,
      "sensor_timestamp": 8373783499181,
      "time_usec": 8373783499
    },
    {
      "frame_id": 49,
      "sensor_timestamp": 8373816745519,
      "time_usec": 8373816745
    },
    {
      "frame_id": 50,
      "sensor_timestamp": 8373849991857,
      "time_usec": 8373849991
    },
    {
      "frame_id": 51,
      "sensor_timestamp": 8373883238439,
      "time_usec": 8373883238
    },
    {
      "frame_id": 52,
      "sensor_timestamp": 8373916484777,
      "time_usec": 8373916484
    },
    {
      "frame_id": 53,
      "sensor_timestamp": 8373949731114,
      "time_usec": 8373949731
    },
    {
      "frame_id": 54,
      "sensor_timestamp": 8373982977452,
      "time_usec": 8373982977
    },
    {
      "frame_id": 55,
      "sensor_timestamp": 8374016224034,
      "time_usec": 8374016224
    },
    {
      "frame_id": 56,
      "sensor_timestamp": 8374049470372,
      "time_usec": 8374049470
    },
    {
      "frame_id": 57,
      "sensor_timestamp": 8374082716710,
      "time_usec": 8374082716
    },
    {
      "frame_id": 58,
      "sensor_timestamp": 8374115963048,
      "time_usec": 8374115963
    },
    {
      "frame_id": 59,
      "sensor_timestamp": 8374149209630,
      "time_usec": 8374149209
    },
    {
      "frame_id": 60,
      "sensor_timestamp": 8374182455968,
      "time_usec": 8374182455
    },
    {
      "frame_id": 61,
      "sensor_timestamp": 8374215702306,
      "time_usec": 8374215702
    },
    {
      "frame_id": 62,
      "sensor_timestamp": 8374248948644,
      "time_usec": 8374248948
    },
    {
      "frame_id": 63,
      "sensor_timestamp": 8374282195226,
      "time_usec": 8374282195
    },
    {
      "frame_id": 64,
      "sensor_timestamp": 8374315441564,
      "time_usec": 8374315441
    },
    {
      "frame_id": 65,
      "sensor_timestamp": 8374348687902,
      "time_usec": 8374348687
    },
    {
      "frame_id": 66,
      "sensor_timestamp": 8374381934239,
      "time_usec": 8374381934
    },
    {
      "frame_id": 67,
      "sensor_timestamp": 8374415180821,
      "time_usec": 8374415180
    },
    {
      "frame_id": 68,
      "sensor_timestamp": 8374448427159,
      "time_usec": 8374448427
    },
    {
      "frame_id": 69,
      "sensor_timestamp": 8374481673497,
      "time_usec": 8374481673
    },
    {
      "frame_id": 70,
      "sensor_timestamp": 8374514919835,
      "time_usec": 8374514919
    },
    {
      "frame_id": 71,
      "sensor_timestamp": 8374548166173,
      "time_usec": 8374548166
    },
    {
      "frame_id": 72,
      "sensor_timestamp": 8374581412755,
      "time_usec": 8374581412
    },
    {
      "frame_id": 73,
      "sensor_timestamp": 8374614659093,
      "time_usec": 8374614659
    },
    {
      "frame_id": 74,
      "sensor_timestamp": 8374647905431,
      "time_usec": 8374647905
    },
    {
      "frame_id": 75,
      "sensor_timestamp": 8374681151769,
      "time_usec": 8374681151
    },
    {
      "frame_id": 76,
      "sensor_timestamp": 8374714398351,
      "time_usec": 8374714398
    },
    {
      "frame_id": 77,
      "sensor_timestamp": 8374747644689,
      "time_usec": 8374747644
    },
    {
      "frame_id": 78,
      "sensor_timestamp": 8374780891027,
      "time_usec": 8374780891
    },
    {
      "frame_id": 79,
      "sensor_timestamp": 8374814137364,
      "time_usec": 8374814137
    },
    {
      "frame_id": 80,
      "sensor_timestamp": 8374847383946,
      "time_usec": 8374847383
    },
    {
      "frame_id": 81,
      "sensor_timestamp": 8374880630284,
      "time_usec": 8374880630
    },
    {
      "frame_id": 82,
      "sensor_timestamp": 8374913876622,
      "time_usec": 8374913876
    },
    {
      "frame_id": 83,
      "sensor_timestamp": 8374947122960,
      "time_usec": 8374947122
    },
    {
      "frame_id": 84,
      "sensor_timestamp": 8374980369542,
      "time_usec": 8374980369
    },
    {
      "frame_id": 85,
      "sensor_timestamp": 8375013615880,
      "time_usec": 8375013615
    },
    {
      "frame_id": 86,
      "sensor_timestamp": 8375046862218,
      "time_usec": 8375046862
    },
    {
      "frame_id": 87,
      "sensor_timestamp": 8375080108556,
      "time_usec": 8375080108
    },
    {
      "frame_id": 88,
      "sensor_timestamp": 8375113355138,
      "time_usec": 8375113355
    },
    {
      "frame_id": 89,
      "sensor_timestamp": 8375146601476,
      "time_usec": 8375146601
    },
    {
      "frame_id": 90,
      "sensor_timestamp": 8375179847814,
      "time_usec": 8375179847
    },
    {
      "frame_id": 91,
      "sensor_timestamp": 8375213094152,
      "time_usec": 8375213094
    },
    {
      "frame_id": 92,
      "sensor_timestamp": 8375246340734,
      "time_usec": 8375246340
    },
    {
      "frame_id": 93,
      "sensor_timestamp": 8375279587071,
      "time_usec": 8375279587
    },
    {
      "frame_id": 94,
      "sensor_timestamp": 8375312833409,
      "time_usec": 8375312833
    },
    {
      "frame_id": 95,
      "sensor_timestamp": 8375346079747,
      "time_usec": 8375346079
    },
    {
      "frame_id": 96,
      "sensor_timestamp": 8375379326329,
      "time_usec": 8375379326
    },
    {
      "frame_id": 97,
      "sensor_timestamp": 8375412572667,
      "time_usec": 8375412572
    },
    {
      "frame_id": 98,
      "sensor_timestamp": 8375445819005,
      "time_usec": 8375445819
    },
    {
      "frame_id": 99,
      "sensor_timestamp": 8375479065343,
      "time_usec": 8375479065
    },
    {
      "frame_id": 100,
      "sensor_timestamp": 8375512311925,
      "time_usec": 8375512311
    },
    {
      "frame_id": 101,
      "sensor_timestamp": 8375545558263,
      "time_usec": 8375545558
    },
    {
      "frame_id": 102,
      "sensor_timestamp": 8375578804601,
      "time_usec": 8375578804
    },
    {
      "frame_id": 103,
      "sensor_timestamp": 8375612050939,
      "time_usec": 8375612050
    },
    {
      "frame_id": 104,
      "sensor_timestamp": 8375645297521,
      "time_usec": 8375645297
    },
    {
      "frame_id": 105,
      "sensor_timestamp": 8375678543859,
      "time_usec": 8375678543
    },
    {
      "frame_id": 106,
      "sensor_timestamp": 8375711790196,
      "time_usec": 8375711790
    },
    {
      "frame_id": 107,
      "sensor_timestamp": 8375745036534,
      "time_usec": 8375745036
    },
    {
      "frame_id": 108,
      "sensor_timestamp": 8375778282872,
      "time_usec": 8375778282
    },
    {
      "frame_id": 109,
      "sensor_timestamp": 8375811529454,
      "time_usec": 8375811529
    },
    {
      "frame_id": 110,
      "sensor_timestamp": 8375844775792,
      "time_usec": 8375844775
    },
    {
      "frame_id": 111,
      "sensor_timestamp": 8375878022130,
      "time_usec": 8375878022
    },
    {
      "frame_id": 112,
      "sensor_timestamp": 8375911268468,
      "time_usec": 8375911268
    },
    {
      "frame_id": 113,
      "sensor_timestamp": 8375944515050,
      "time_usec": 8375944515
    },
    {
      "frame_id": 114,
      "sensor_timestamp": 8375977761388,
      "time_usec": 8375977761
    },
    {
      "frame_id": 115,
      "sensor_timestamp": 8376011007726,
      "time_usec": 8376011007
    },
    {
      "frame_id": 116,
      "sensor_timestamp": 8376044254064,
      "time_usec": 8376044254
    },
    {
      "frame_id": 117,
      "sensor_timestamp": 8376077500646,
      "time_usec": 8376077500
    },
    {
      "frame_id": 118,
      "sensor_timestamp": 8376110746984,
      "time_usec": 8376110746
    },
    {
      "frame_id": 119,
      "sensor_timestamp": 8376143993321,
      "time_usec": 8376143993
    },
    {
      "frame_id": 120,
      "sensor_timestamp": 8376177239659,
      "time_usec": 8376177239
    },
    {
      "frame_id": 121,
      "sensor_timestamp": 8376210486241,
      "time_usec": 8376210486
    },
    {
      "frame_id": 122,
      "sensor_timestamp": 8376243732579,
      "time_usec": 8376243732
    },
    {
      "frame_id": 123,
      "sensor_timestamp": 8376276978917,
      "time_usec": 8376276978
    },
    {
      "frame_id": 124,
      "sensor_timestamp": 8376310225255,
      "time_usec": 8376310225
    },
    {
      "frame_id": 125,
      "sensor_timestamp": 8376343471837,
      "time_usec": 8376343471
    },
    {
      "frame_id": 126,
      "sensor_timestamp": 8376376718175,
      "time_usec": 8376376718
    },
    {
      "frame_id": 127,
      "sensor_timestamp": 8376409964513,
      "time_usec": 8376409964
    },
    {
      "frame_id": 128,
      "sensor_timestamp": 8376443210851,
      "time_usec": 8376443210
    },
    {
      "frame_id": 129,
      "sensor_timestamp": 8376476457433,
      "time_usec": 8376476457
    },
    {
      "frame_id": 130,
      "sensor_timestamp": 8376509703771,
      "time_usec": 8376509703
    },
    {
      "frame_id": 131,
      "sensor_timestamp": 8376542950109,
      "time_usec": 8376542950
    },
    {
      "frame_id": 132,
      "sensor_timestamp": 8376576196446,
      "time_usec": 8376576196
    },
    {
      "frame_id": 133,
      "sensor_timestamp": 8376609443028,
      "time_usec": 8376609443
    },
    {
      "frame_id": 134,
      "sensor_timestamp": 8376642689366,
      "time_usec": 8376642689
    },
    {
      "frame_id": 135,
      "sensor_timestamp": 8376675935704,
      "time_usec": 8376675935
    },
    {
      "frame_id": 136,
      "sensor_timestamp": 8376709182042,
      "time_usec": 8376709182
    },
    {
      "frame_id": 137,
      "sensor_timestamp": 8376742428624,
      "time_usec": 8376742428
    },
    {
      "frame_id": 138,
      "sensor_timestamp": 8376775674962,
      "time_usec": 8376775674
    },
    {
      "frame_id": 139,
      "sensor_timestamp": 8376808921300,
      "time_usec": 8376808921
    },
    {
      "frame_id": 140,
      "sensor_timestamp": 8376842167638,
      "time_usec": 8376842167
    },
    {
      "frame_id": 141,
      "sensor_timestamp": 8376875414220,
      "time_usec": 8376875414
    },
    {
      "frame_id": 142,
      "sensor_timestamp": 8376908660558,
      "time_usec": 8376908660
    },
    {
      "frame_id": 143,
      "sensor_timestamp": 8376941906896,
      "time_usec": 8376941906
    },
    {
      "frame_id": 144,
      "sensor_timestamp": 8376975153234,
      "time_usec": 8376975153
    },
    {
      "frame_id": 145,
      "sensor_timestamp": 8377008399571,
      "time_usec": 8377008399
    },
    {
      "frame_id": 146,
      "sensor_timestamp": 8377041646153,
      "time_usec": 8377041646
    },
    {
      "frame_id": 147,
      "sensor_timestamp": 8377074892491,
      "time_usec": 8377074892
    },
    {
      "frame_id": 148,
      "sensor_timestamp": 8377108138829,
      "time_usec": 8377108138
    },
    {
      "frame_id": 149,
      "sensor_timestamp": 8377141385167,
      "time_usec": 8377141385
    },
    {
      "frame_id": 150,
      "sensor_timestamp": 8377174631749,
      "time_usec": 8377174631
    },
    {
      "frame_id": 151,
      "sensor_timestamp": 8377207878087,
      "time_usec": 8377207878
    },
    {
      "frame_id": 152,
      "sensor_timestamp": 8377241124425,
      "time_usec": 8377241124
    },
    {
      "frame_id": 153,
      "sensor_timestamp": 8377274370763,
      "time_usec": 8377274370
    },
    {
      "frame_id": 154,
      "sensor_timestamp": 8377307617345,
      "time_usec": 8377307617
    },
    {
      "frame_id": 155,
      "sensor_timestamp": 8377340863683,
      "time_usec": 8377340863
    },
    {
      "frame_id": 156,
      "sensor_timestamp": 8377374110021,
      "time_usec": 8377374110
    },
    {
      "frame_id": 157,
      "sensor_timestamp": 8377407356359,
      "time_usec": 8377407356
    },
    {
      "frame_id": 158,
      "sensor_timestamp": 8377440602941,
      "time_usec": 8377440602
    },
    {
      "frame_id": 159,
      "sensor_timestamp": 8377473849278,
      "time_usec": 8377473849
    },
    {
      "frame_id": 160,
      "sensor_timestamp": 8377507095616,
      "time_usec": 8377507095
    },
    {
      "frame_id": 161,
      "sensor_timestamp": 8377540341954,
      "time_usec": 8377540341
    },
    {
      "frame_id": 162,
      "sensor_timestamp": 8377573588536,
      "time_usec": 8377573588
    },
    {
      "frame_id": 163,
      "sensor_timestamp": 8377606834874,
      "time_usec": 8377606834
    },
    {
      "frame_id": 164,
      "sensor_timestamp": 8377640081212,
      "time_usec": 8377640081
    },
    {
      "frame_id": 165,
      "sensor_timestamp": 8377673327550,
      "time_usec": 8377673327
    },
    {
      "frame_id": 166,
      "sensor_timestamp": 8377706574132,
      "time_usec": 8377706574
    },
    {
      "frame_id": 167,
      "sensor_timestamp": 8377739820470,
      "time_usec": 8377739820
    },
    {
      "frame_id": 168,
      "sensor_timestamp": 8377773066808,
      "time_usec": 8377773066
    },
    {
      "frame_id": 169,
      "sensor_timestamp": 8377806313146,
      "time_usec": 8377806313
    },
    {
      "frame_id": 170,
      "sensor_timestamp": 8377839559728,
      "time_usec": 8377839559
    },
    {
      "frame_id": 171,
      "sensor_timestamp": 8377872806066,
      "time_usec": 8377872806
    },
    {
      "frame_id": 172,
      "sensor_timestamp": 8377906052403,
      "time_usec": 8377906052
    },
    {
      "frame_id": 173,
      "sensor_timestamp": 8377939298741,
      "time_usec": 8377939298
    },
    {
      "frame_id": 174,
      "sensor_timestamp": 8377972545323,
      "time_usec": 8377972545
    },
    {
      "frame_id": 175,
      "sensor_timestamp": 8378005791661,
      "time_usec": 8378005791
    },
    {
      "frame_id": 176,
      "sensor_timestamp": 8378039037999,
      "time_usec": 8378039037
    },
    {
      "frame_id": 177,
      "sensor_timestamp": 8378072284337,
      "time_usec": 8378072284
    },
    {
      "frame_id": 178,
      "sensor_timestamp": 8378105843756,
      "time_usec": 8378105843
    },
    {
      "frame_id": 179,
      "sensor_timestamp": 8378138777257,
      "time_usec": 8378138777
    },
    {
      "frame_id": 180,
      "sensor_timestamp": 8378172023595,
      "time_usec": 8378172023
    },
    {
      "frame_id": 181,
      "sensor_timestamp": 8378205269933,
      "time_usec": 8378205269
    },
    {
      "frame_id": 182,
      "sensor_timestamp": 8378238516271,
      "time_usec": 8378238516
    },
    {
      "frame_id": 183,
      "sensor_timestamp": 8378271762853,
      "time_usec": 8378271762
    },
    {
      "frame_id": 184,
      "sensor_timestamp": 8378305009191,
      "time_usec": 8378305009
    },
    {
      "frame_id": 185,
      "sensor_timestamp": 8378338255528,
      "time_usec": 8378338255
    },
    {
      "frame_id": 186,
      "sensor_timestamp": 8378371501866,
      "time_usec": 8378371501
    },
    {
      "frame_id": 187,
      "sensor_timestamp": 8378404748448,
      "time_usec": 8378404748
    },
    {
      "frame_id": 188,
      "sensor_timestamp": 8378437994786,
      "time_usec": 8378437994
    },
    {
      "frame_id": 189,
      "sensor_timestamp": 8378471241124,
      "time_usec": 8378471241
    },
    {
      "frame_id": 190,
      "sensor_timestamp": 8378504487462,
      "time_usec": 8378504487
    },
    {
      "frame_id": 191,
      "sensor_timestamp": 8378537734044,
      "time_usec": 8378537734
    },
    {
      "frame_id": 192,
      "sensor_timestamp": 8378570980382,
      "time_usec": 8378570980
    },
    {
      "frame_id": 193,
      "sensor_timestamp": 8378604226720,
      "time_usec": 8378604226
    },
    {
      "frame_id": 194,
      "sensor_timestamp": 8378637473058,
      "time_usec": 8378637473
    },
    {
      "frame_id": 195,
      "sensor_timestamp": 8378670719640,
      "time_usec": 8378670719
    },
    {
      "frame_id": 196,
      "sensor_timestamp": 8378703930833,
      "time_usec": 8378703930
    },
    {
      "frame_id": 197,
      "sensor_timestamp": 8378737212316,
      "time_usec": 8378737212
    },
    {
      "frame_id": 198,
      "sensor_timestamp": 8378770458653,
      "time_usec": 8378770458
    },
    {
      "frame_id": 199,
      "sensor_timestamp": 8378803705236,
      "time_usec": 8378803705
    },
    {
      "frame_id": 200,
      "sensor_timestamp": 8378836951573,
      "time_usec": 8378836951
    },
    {
      "frame_id": 201,
      "sensor_timestamp": 8378870197911,
      "time_usec": 8378870197
    },
    {
      "frame_id": 202,
      "sensor_timestamp": 8378903444249,
      "time_usec": 8378903444
    },
    {
      "frame_id": 203,
      "sensor_timestamp": 8378936690831,
      "time_usec": 8378936690
    },
    {
      "frame_id": 204,
      "sensor_timestamp": 8378969937169,
      "time_usec": 8378969937
    },
    {
      "frame_id": 205,
      "sensor_timestamp": 8379003183507,
      "time_usec": 8379003183
    },
    {
      "frame_id": 206,
      "sensor_timestamp": 8379036429845,
      "time_usec": 8379036429
    },
    {
      "frame_id": 207,
      "sensor_timestamp": 8379069676427,
      "time_usec": 8379069676
    },
    {
      "frame_id": 208,
      "sensor_timestamp": 8379102922765,
      "time_usec": 8379102922
    },
    {
      "frame_id": 209,
      "sensor_timestamp": 8379136169103,
      "time_usec": 8379136169
    },
    {
      "frame_id": 210,
      "sensor_timestamp": 8379169415441,
      "time_usec": 8379169415
    },
    {
      "frame_id": 211,
      "sensor_timestamp": 8379202662023,
      "time_usec": 8379202662
    },
    {
      "frame_id": 212,
      "sensor_timestamp": 8379235908361,
      "time_usec": 8379235908
    },
    {
      "frame_id": 213,
      "sensor_timestamp": 8379269154698,
      "time_usec": 8379269154
    },
    {
      "frame_id": 214,
      "sensor_timestamp": 8379302401036,
      "time_usec": 8379302401
    },
    {
      "frame_id": 215,
      "sensor_timestamp": 8379335647618,
      "time_usec": 8379335647
    },
    {
      "frame_id": 216,
      "sensor_timestamp": 8379368893956,
      "time_usec": 8379368893
    },
    {
      "frame_id": 217,
      "sensor_timestamp": 8379402140294,
      "time_usec": 8379402140
    },
    {
      "frame_id": 218,
      "sensor_timestamp": 8379435386632,
      "time_usec": 8379435386
    },
    {
      "frame_id": 219,
      "sensor_timestamp": 8379468632970,
      "time_usec": 8379468632
    },
    {
      "frame_id": 220,
      "sensor_timestamp": 8379501879552,
      "time_usec": 8379501879
    },
    {
      "frame_id": 221,
      "sensor_timestamp": 8379535125890,
      "time_usec": 8379535125
    },
    {
      "frame_id": 222,
      "sensor_timestamp": 8379568372228,
      "time_usec": 8379568372
    },
    {
      "frame_id": 223,
      "sensor_timestamp": 8379601618566,
      "time_usec": 8379601618
    },
    {
      "frame_id": 224,
      "sensor_timestamp": 8379634865148,
      "time_usec": 8379634865
    },
    {
      "frame_id": 225,
      "sensor_timestamp": 8379668111486,
      "time_usec": 8379668111
    },
    {
      "frame_id": 226,
      "sensor_timestamp": 8379701357823,
      "time_usec": 8379701357
    },
    {
      "frame_id": 227,
      "sensor_timestamp": 8379734604161,
      "time_usec": 8379734604
    },
    {
      "frame_id": 228,
      "sensor_timestamp": 8379767850743,
      "time_usec": 8379767850
    },
    {
      "frame_id": 229,
      "sensor_timestamp": 8379801097081,
      "time_usec": 8379801097
    },
    {
      "frame_id": 230,
      "sensor_timestamp": 8379834343419,
      "time_usec": 8379834343
    },
    {
      "frame_id": 231,
      "sensor_timestamp": 8379867589757,
      "time_usec": 8379867589
    },
    {
      "frame_id": 232,
      "sensor_timestamp": 8379900836339,
      "time_usec": 8379900836
    },
    {
      "frame_id": 233,
      "sensor_timestamp": 8379934082677,
      "time_usec": 8379934082
    },
    {
      "frame_id": 234,
      "sensor_timestamp": 8379967329015,
      "time_usec": 8379967329
    },
    {
      "frame_id": 235,
      "sensor_timestamp": 8380000575353,
      "time_usec": 8380000575
    },
    {
      "frame_id": 236,
      "sensor_timestamp": 8380033821935,
      "time_usec": 8380033821
    },
    {
      "frame_id": 237,
      "sensor_timestamp": 8380067068273,
      "time_usec": 8380067068
    },
    {
      "frame_id": 238,
      "sensor_timestamp": 8380100314611,
      "time_usec": 8380100314
    },
    {
      "frame_id": 239,
      "sensor_timestamp": 8380133560948,
      "time_usec": 8380133560
    },
    {
      "frame_id": 240,
      "sensor_timestamp": 8380166807530,
      "time_usec": 8380166807
    },
    {
      "frame_id": 241,
      "sensor_timestamp": 8380200053868,
      "time_usec": 8380200053
    },
    {
      "frame_id": 242,
      "sensor_timestamp": 8380233300206,
      "time_usec": 8380233300
    },
    {
      "frame_id": 243,
      "sensor_timestamp": 8380266546544,
      "time_usec": 8380266546
    },
    {
      "frame_id": 244,
      "sensor_timestamp": 8380299793126,
      "time_usec": 8380299793
    },
    {
      "frame_id": 245,
      "sensor_timestamp": 8380333039464,
      "time_usec": 8380333039
    },
    {
      "frame_id": 246,
      "sensor_timestamp": 8380366285802,
      "time_usec": 8380366285
    },
    {
      "frame_id": 247,
      "sensor_timestamp": 8380399532140,
      "time_usec": 8380399532
    },
    {
      "frame_id": 248,
      "sensor_timestamp": 8380432778722,
      "time_usec": 8380432778
    },
    {
      "frame_id": 249,
      "sensor_timestamp": 8380466025060,
      "time_usec": 8380466025
    },
    {
      "frame_id": 250,
      "sensor_timestamp": 8380499271398,
      "time_usec": 8380499271
    },
    {
      "frame_id": 251,
      "sensor_timestamp": 8380532517736,
      "time_usec": 8380532517
    },
    {
      "frame_id": 252,
      "sensor_timestamp": 8380565764073,
      "time_usec": 8380565764
    },
    {
      "frame_id": 253,
      "sensor_timestamp": 8380599010655,
      "time_usec": 8380599010
    },
    {
      "frame_id": 254,
      "sensor_timestamp": 8380632256993,
      "time_usec": 8380632256
    },
    {
      "frame_id": 255,
      "sensor_timestamp": 8380665503331,
      "time_usec": 8380665503
    },
    {
      "frame_id": 256,
      "sensor_timestamp": 8380698749669,
      "time_usec": 8380698749
    },
    {
      "frame_id": 257,
      "sensor_timestamp": 8380731996251,
      "time_usec": 8380731996
    },
    {
      "frame_id": 258,
      "sensor_timestamp": 8380765242589,
      "time_usec": 8380765242
    },
    {
      "frame_id": 259,
      "sensor_timestamp": 8380798488927,
      "time_usec": 8380798488
    },
    {
      "frame_id": 260,
      "sensor_timestamp": 8380831735265,
      "time_usec": 8380831735
    },
    {
      "frame_id": 261,
      "sensor_timestamp": 8380864981847,
      "time_usec": 8380864981
    },
    {
      "frame_id": 262,
      "sensor_timestamp": 8380898228185,
      "time_usec": 8380898228
    },
    {
      "frame_id": 263,
      "sensor_timestamp": 8380931474523,
      "time_usec": 8380931474
    },
    {
      "frame_id": 264,
      "sensor_timestamp": 8380964720861,
      "time_usec": 8380964720
    },
    {
      "frame_id": 265,
      "sensor_timestamp": 8380997967443,
      "time_usec": 8380997967
    },
    {
      "frame_id": 266,
      "sensor_timestamp": 8381031213780,
      "time_usec": 8381031213
    },
    {
      "frame_id": 267,
      "sensor_timestamp": 8381064460118,
      "time_usec": 8381064460
    },
    {
      "frame_id": 268,
      "sensor_timestamp": 8381097706456,
      "time_usec": 8381097706
    },
    {
      "frame_id": 269,
      "sensor_timestamp": 8381130953038,
      "time_usec": 8381130953
    },
    {
      "frame_id": 270,
      "sensor_timestamp": 8381164199376,
      "time_usec": 8381164199
    },
    {
      "frame_id": 271,
      "sensor_timestamp": 8381197445714,
      "time_usec": 8381197445
    },
    {
      "frame_id": 272,
      "sensor_timestamp": 8381230692052,
      "time_usec": 8381230692
    },
    {
      "frame_id": 273,
      "sensor_timestamp": 8381263938634,
      "time_usec": 8381263938
    },
    {
      "frame_id": 274,
      "sensor_timestamp": 8381297184972,
      "time_usec": 8381297184
    },
    {
      "frame_id": 275,
      "sensor_timestamp": 8381330431310,
      "time_usec": 8381330431
    },
    {
      "frame_id": 276,
      "sensor_timestamp": 8381363677648,
      "time_usec": 8381363677
    },
    {
      "frame_id": 277,
      "sensor_timestamp": 8381396924230,
      "time_usec": 8381396924
    },
    {
      "frame_id": 278,
      "sensor_timestamp": 8381430170568,
      "time_usec": 8381430170
    },
    {
      "frame_id": 279,
      "sensor_timestamp": 8381463416905,
      "time_usec": 8381463416
    },
    {
      "frame_id": 280,
      "sensor_timestamp": 8381496663243,
      "time_usec": 8381496663
    },
    {
      "frame_id": 281,
      "sensor_timestamp": 8381529909825,
      "time_usec": 8381529909
    },
    {
      "frame_id": 282,
      "sensor_timestamp": 8381563156163,
      "time_usec": 8381563156
    },
    {
      "frame_id": 283,
      "sensor_timestamp": 8381596402501,
      "time_usec": 8381596402
    },
    {
      "frame_id": 284,
      "sensor_timestamp": 8381629648839,
      "time_usec": 8381629648
    },
    {
      "frame_id": 285,
      "sensor_timestamp": 8381662895421,
      "time_usec": 8381662895
    },
    {
      "frame_id": 286,
      "sensor_timestamp": 8381696141759,
      "time_usec": 8381696141
    },
    {
      "frame_id": 287,
      "sensor_timestamp": 8381729388097,
      "time_usec": 8381729388
    },
    {
      "frame_id": 288,
      "sensor_timestamp": 8381762634435,
      "time_usec": 8381762634
    },
    {
      "frame_id": 289,
      "sensor_timestamp": 8381795880773,
      "time_usec": 8381795880
    },
    {
      "frame_id": 290,
      "sensor_timestamp": 8381829127355,
      "time_usec": 8381829127
    },
    {
      "frame_id": 291,
      "sensor_timestamp": 8381862373693,
      "time_usec": 8381862373
    },
    {
      "frame_id": 292,
      "sensor_timestamp": 8381895620030,
      "time_usec": 8381895620
    },
    {
      "frame_id": 293,
      "sensor_timestamp": 8381928866368,
      "time_usec": 8381928866
    },
    {
      "frame_id": 294,
      "sensor_timestamp": 8381962112950,
      "time_usec": 8381962112
    },
    {
      "frame_id": 295,
      "sensor_timestamp": 8381995359288,
      "time_usec": 8381995359
    },
    {
      "frame_id": 296,
      "sensor_timestamp": 8382028605626,
      "time_usec": 8382028605
    },
    {
      "frame_id": 297,
      "sensor_timestamp": 8382061851964,
      "time_usec": 8382061851
    },
    {
      "frame_id": 298,
      "sensor_timestamp": 8382095098546,
      "time_usec": 8382095098
    },
    {
      "frame_id": 299,
      "sensor_timestamp": 8382128344884,
      "time_usec": 8382128344
    },
    {
      "frame_id": 300,
      "sensor_timestamp": 8382161591222,
      "time_usec": 8382161591
    },
    {
      "frame_id": 301,
      "sensor_timestamp": 8382194837560,
      "time_usec": 8382194837
    },
    {
      "frame_id": 302,
      "sensor_timestamp": 8382228084142,
      "time_usec": 8382228084
    },
    {
      "frame_id": 303,
      "sensor_timestamp": 8382261330480,
      "time_usec": 8382261330
    },
    {
      "frame_id": 304,
      "sensor_timestamp": 8382294576818,
      "time_usec": 8382294576
    },
    {
      "frame_id": 305,
      "sensor_timestamp": 8382327823155,
      "time_usec": 8382327823
    },
    {
      "frame_id": 306,
      "sensor_timestamp": 8382361069737,
      "time_usec": 8382361069
    },
    {
      "frame_id": 307,
      "sensor_timestamp": 8382394316075,
      "time_usec": 8382394316
    },
    {
      "frame_id": 308,
      "sensor_timestamp": 8382427562413,
      "time_usec": 8382427562
    },
    {
      "frame_id": 309,
      "sensor_timestamp": 8382460808751,
      "time_usec": 8382460808
    },
    {
      "frame_id": 310,
      "sensor_timestamp": 8382494055333,
      "time_usec": 8382494055
    },
    {
      "frame_id": 311,
      "sensor_timestamp": 8382527301671,
      "time_usec": 8382527301
    },
    {
      "frame_id": 312,
      "sensor_timestamp": 8382560548009,
      "time_usec": 8382560548
    },
    {
      "frame_id": 313,
      "sensor_timestamp": 8382593794347,
      "time_usec": 8382593794
    },
    {
      "frame_id": 314,
      "sensor_timestamp": 8382627040929,
      "time_usec": 8382627040
    },
    {
      "frame_id": 315,
      "sensor_timestamp": 8382660287267,
      "time_usec": 8382660287
    },
    {
      "frame_id": 316,
      "sensor_timestamp": 8382693478972,
      "time_usec": 8382693478
    },
    {
      "frame_id": 317,
      "sensor_timestamp": 8382726779943,
      "time_usec": 8382726779
    },
    {
      "frame_id": 318,
      "sensor_timestamp": 8382760026525,
      "time_usec": 8382760026
    },
    {
      "frame_id": 319,
      "sensor_timestamp": 8382793272862,
      "time_usec": 8382793272
    },
    {
      "frame_id": 320,
      "sensor_timestamp": 8382826519200,
      "time_usec": 8382826519
    },
    {
      "frame_id": 321,
      "sensor_timestamp": 8382859765538,
      "time_usec": 8382859765
    },
    {
      "frame_id": 322,
      "sensor_timestamp": 8382893012120,
      "time_usec": 8382893012
    },
    {
      "frame_id": 323,
      "sensor_timestamp": 8382926258458,
      "time_usec": 8382926258
    },
    {
      "frame_id": 324,
      "sensor_timestamp": 8382959504796,
      "time_usec": 8382959504
    },
    {
      "frame_id": 325,
      "sensor_timestamp": 8382992751134,
      "time_usec": 8382992751
    },
    {
      "frame_id": 326,
      "sensor_timestamp": 8383025997472,
      "time_usec": 8383025997
    },
    {
      "frame_id": 327,
      "sensor_timestamp": 8383059231779,
      "time_usec": 8383059231
    },
    {
      "frame_id": 328,
      "sensor_timestamp": 8383092490392,
      "time_usec": 8383092490
    },
    {
      "frame_id": 329,
      "sensor_timestamp": 8383125736730,
      "time_usec": 8383125736
    },
    {
      "frame_id": 330,
      "sensor_timestamp": 8383158983068,
      "time_usec": 8383158983
    },
    {
      "frame_id": 331,
      "sensor_timestamp": 8383192229650,
      "time_usec": 8383192229
    },
    {
      "frame_id": 332,
      "sensor_timestamp": 8383225475987,
      "time_usec": 8383225475
    },
    {
      "frame_id": 333,
      "sensor_timestamp": 8383258722325,
      "time_usec": 8383258722
    },
    {
      "frame_id": 334,
      "sensor_timestamp": 8383291968663,
      "time_usec": 8383291968
    },
    {
      "frame_id": 335,
      "sensor_timestamp": 8383325215245,
      "time_usec": 8383325215
    },
    {
      "frame_id": 336,
      "sensor_timestamp": 8383358461583,
      "time_usec": 8383358461
    },
    {
      "frame_id": 337,
      "sensor_timestamp": 8383391707921,
      "time_usec": 8383391707
    },
    {
      "frame_id": 338,
      "sensor_timestamp": 8383424954259,
      "time_usec": 8383424954
    },
    {
      "frame_id": 339,
      "sensor_timestamp": 8383458200841,
      "time_usec": 8383458200
    },
    {
      "frame_id": 340,
      "sensor_timestamp": 8383491447179,
      "time_usec": 8383491447
    },
    {
      "frame_id": 341,
      "sensor_timestamp": 8383524693517,
      "time_usec": 8383524693
    },
    {
      "frame_id": 342,
      "sensor_timestamp": 8383557939855,
      "time_usec": 8383557939
    },
    {
      "frame_id": 343,
      "sensor_timestamp": 8383591186437,
      "time_usec": 8383591186
    },
    {
      "frame_id": 344,
      "sensor_timestamp": 8383624432775,
      "time_usec": 8383624432
    },
    {
      "frame_id": 345,
      "sensor_timestamp": 8383657679112,
      "time_usec": 8383657679
    },
    {
      "frame_id": 346,
      "sensor_timestamp": 8383690925450,
      "time_usec": 8383690925
    },
    {
      "frame_id": 347,
      "sensor_timestamp": 8383724172032,
      "time_usec": 8383724172
    },
    {
      "frame_id": 348,
      "sensor_timestamp": 8383757418370,
      "time_usec": 8383757418
    },
    {
      "frame_id": 349,
      "sensor_timestamp": 8383790664708,
      "time_usec": 8383790664
    },
    {
      "frame_id": 350,
      "sensor_timestamp": 8383823911046,
      "time_usec": 8383823911
    },
    {
      "frame_id": 351,
      "sensor_timestamp": 8383857157628,
      "time_usec": 8383857157
    },
    {
      "frame_id": 352,
      "sensor_timestamp": 8383890403966,
      "time_usec": 8383890403
    },
    {
      "frame_id": 353,
      "sensor_timestamp": 8383923650304,
      "time_usec": 8383923650
    },
    {
      "frame_id": 354,
      "sensor_timestamp": 8383956896642,
      "time_usec": 8383956896
    },
    {
      "frame_id": 355,
      "sensor_timestamp": 8383990143224,
      "time_usec": 8383990143
    },
    {
      "frame_id": 356,
      "sensor_timestamp": 8384023389562,
      "time_usec": 8384023389
    },
    {
      "frame_id": 357,
      "sensor_timestamp": 8384056635900,
      "time_usec": 8384056635
    },
    {
      "frame_id": 358,
      "sensor_timestamp": 8384089882237,
      "time_usec": 8384089882
    },
    {
      "frame_id": 359,
      "sensor_timestamp": 8384123128819,
      "time_usec": 8384123128
    },
    {
      "frame_id": 360,
      "sensor_timestamp": 8384156375157,
      "time_usec": 8384156375
    },
    {
      "frame_id": 361,
      "sensor_timestamp": 8384189621495,
      "time_usec": 8384189621
    },
    {
      "frame_id": 362,
      "sensor_timestamp": 8384222867833,
      "time_usec": 8384222867
    },
    {
      "frame_id": 363,
      "sensor_timestamp": 8384256114171,
      "time_usec": 8384256114
    },
    {
      "frame_id": 364,
      "sensor_timestamp": 8384289360753,
      "time_usec": 8384289360
    },
    {
      "frame_id": 365,
      "sensor_timestamp": 8384322607091,
      "time_usec": 8384322607
    },
    {
      "frame_id": 366,
      "sensor_timestamp": 8384355853429,
      "time_usec": 8384355853
    },
    {
      "frame_id": 367,
      "sensor_timestamp": 8384389099767,
      "time_usec": 8384389099
    },
    {
      "frame_id": 368,
      "sensor_timestamp": 8384422346349,
      "time_usec": 8384422346
    },
    {
      "frame_id": 369,
      "sensor_timestamp": 8384455592687,
      "time_usec": 8384455592
    },
    {
      "frame_id": 370,
      "sensor_timestamp": 8384488839025,
      "time_usec": 8384488839
    },
    {
      "frame_id": 371,
      "sensor_timestamp": 8384522085362,
      "time_usec": 8384522085
    },
    {
      "frame_id": 372,
      "sensor_timestamp": 8384555331944,
      "time_usec": 8384555331
    },
    {
      "frame_id": 373,
      "sensor_timestamp": 8384588578282,
      "time_usec": 8384588578
    },
    {
      "frame_id": 374,
      "sensor_timestamp": 8384621824620,
      "time_usec": 8384621824
    },
    {
      "frame_id": 375,
      "sensor_timestamp": 8384655070958,
      "time_usec": 8384655070
    },
    {
      "frame_id": 376,
      "sensor_timestamp": 8384688317540,
      "time_usec": 8384688317
    },
    {
      "frame_id": 377,
      "sensor_timestamp": 8384721563878,
      "time_usec": 8384721563
    },
    {
      "frame_id": 378,
      "sensor_timestamp": 8384754810216,
      "time_usec": 8384754810
    },
    {
      "frame_id": 379,
      "sensor_timestamp": 8384788056554,
      "time_usec": 8384788056
    },
    {
      "frame_id": 380,
      "sensor_timestamp": 8384821303136,
      "time_usec": 8384821303
    },
    {
      "frame_id": 381,
      "sensor_timestamp": 8384854549474,
      "time_usec": 8384854549
    },
    {
      "frame_id": 382,
      "sensor_timestamp": 8384887795812,
      "time_usec": 8384887795
    },
    {
      "frame_id": 383,
      "sensor_timestamp": 8384921042150,
      "time_usec": 8384921042
    },
    {
      "frame_id": 384,
      "sensor_timestamp": 8384954288732,
      "time_usec": 8384954288
    },
    {
      "frame_id": 385,
      "sensor_timestamp": 8384987535069,
      "time_usec": 8384987535
    },
    {
      "frame_id": 386,
      "sensor_timestamp": 8385020781407,
      "time_usec": 8385020781
    },
    {
      "frame_id": 387,
      "sensor_timestamp": 8385054027745,
      "time_usec": 8385054027
    },
    {
      "frame_id": 388,
      "sensor_timestamp": 8385087274327,
      "time_usec": 8385087274
    },
    {
      "frame_id": 389,
      "sensor_timestamp": 8385120520665,
      "time_usec": 8385120520
    },
    {
      "frame_id": 390,
      "sensor_timestamp": 8385153767003,
      "time_usec": 8385153767
    },
    {
      "frame_id": 391,
      "sensor_timestamp": 8385187013341,
      "time_usec": 8385187013
    },
    {
      "frame_id": 392,
      "sensor_timestamp": 8385220259923,
      "time_usec": 8385220259
    },
    {
      "frame_id": 393,
      "sensor_timestamp": 8385253506261,
      "time_usec": 8385253506
    },
    {
      "frame_id": 394,
      "sensor_timestamp": 8385286752599,
      "time_usec": 8385286752
    },
    {
      "frame_id": 395,
      "sensor_timestamp": 8385319998937,
      "time_usec": 8385319998
    },
    {
      "frame_id": 396,
      "sensor_timestamp": 8385353245519,
      "time_usec": 8385353245
    },
    {
      "frame_id": 397,
      "sensor_timestamp": 8385386491857,
      "time_usec": 8385386491
    },
    {
      "frame_id": 398,
      "sensor_timestamp": 8385419738194,
      "time_usec": 8385419738
    },
    {
      "frame_id": 399,
      "sensor_timestamp": 8385452984532,
      "time_usec": 8385452984
    },
    {
      "frame_id": 400,
      "sensor_timestamp": 8385486230870,
      "time_usec": 8385486230
    },
    {
      "frame_id": 401,
      "sensor_timestamp": 8385519477452,
      "time_usec": 8385519477
    },
    {
      "frame_id": 402,
      "sensor_timestamp": 8385552762827,
      "time_usec": 8385552762
    },
    {
      "frame_id": 403,
      "sensor_timestamp": 8385585970128,
      "time_usec": 8385585970
    },
    {
      "frame_id": 404,
      "sensor_timestamp": 8385619216466,
      "time_usec": 8385619216
    },
    {
      "frame_id": 405,
      "sensor_timestamp": 8385652463048,
      "time_usec": 8385652463
    },
    {
      "frame_id": 406,
      "sensor_timestamp": 8385685709386,
      "time_usec": 8385685709
    },
    {
      "frame_id": 407,
      "sensor_timestamp": 8385718955724,
      "time_usec": 8385718955
    },
    {
      "frame_id": 408,
      "sensor_timestamp": 8385752202062,
      "time_usec": 8385752202
    },
    {
      "frame_id": 409,
      "sensor_timestamp": 8385785448644,
      "time_usec": 8385785448
    },
    {
      "frame_id": 410,
      "sensor_timestamp": 8385818694982,
      "time_usec": 8385818694
    },
    {
      "frame_id": 411,
      "sensor_timestamp": 8385851941319,
      "time_usec": 8385851941
    },
    {
      "frame_id": 412,
      "sensor_timestamp": 8385885187657,
      "time_usec": 8385885187
    },
    {
      "frame_id": 413,
      "sensor_timestamp": 8385918434239,
      "time_usec": 8385918434
    },
    {
      "frame_id": 414,
      "sensor_timestamp": 8385951680577,
      "time_usec": 8385951680
    },
    {
      "frame_id": 415,
      "sensor_timestamp": 8385984926915,
      "time_usec": 8385984926
    },
    {
      "frame_id": 416,
      "sensor_timestamp": 8386018173253,
      "time_usec": 8386018173
    },
    {
      "frame_id": 417,
      "sensor_timestamp": 8386051419835,
      "time_usec": 8386051419
    },
    {
      "frame_id": 418,
      "sensor_timestamp": 8386084666173,
      "time_usec": 8386084666
    },
    {
      "frame_id": 419,
      "sensor_timestamp": 8386117912511,
      "time_usec": 8386117912
    },
    {
      "frame_id": 420,
      "sensor_timestamp": 8386151158849,
      "time_usec": 8386151158
    },
    {
      "frame_id": 421,
      "sensor_timestamp": 8386184405431,
      "time_usec": 8386184405
    },
    {
      "frame_id": 422,
      "sensor_timestamp": 8386217651769,
      "time_usec": 8386217651
    },
    {
      "frame_id": 423,
      "sensor_timestamp": 8386250898107,
      "time_usec": 8386250898
    },
    {
      "frame_id": 424,
      "sensor_timestamp": 8386284144444,
      "time_usec": 8386284144
    },
    {
      "frame_id": 425,
      "sensor_timestamp": 8386317391027,
      "time_usec": 8386317391
    },
    {
      "frame_id": 426,
      "sensor_timestamp": 8386350637364,
      "time_usec": 8386350637
    },
    {
      "frame_id": 427,
      "sensor_timestamp": 8386383883702,
      "time_usec": 8386383883
    },
    {
      "frame_id": 428,
      "sensor_timestamp": 8386417130040,
      "time_usec": 8386417130
    },
    {
      "frame_id": 429,
      "sensor_timestamp": 8386450376622,
      "time_usec": 8386450376
    },
    {
      "frame_id": 430,
      "sensor_timestamp": 8386483622960,
      "time_usec": 8386483622
    },
    {
      "frame_id": 431,
      "sensor_timestamp": 8386516869298,
      "time_usec": 8386516869
    },
    {
      "frame_id": 432,
      "sensor_timestamp": 8386550115636,
      "time_usec": 8386550115
    },
    {
      "frame_id": 433,
      "sensor_timestamp": 8386583362218,
      "time_usec": 8386583362
    },
    {
      "frame_id": 434,
      "sensor_timestamp": 8386616583873,
      "time_usec": 8386616583
    },
    {
      "frame_id": 435,
      "sensor_timestamp": 8386649854894,
      "time_usec": 8386649854
    },
    {
      "frame_id": 436,
      "sensor_timestamp": 8386683101232,
      "time_usec": 8386683101
    },
    {
      "frame_id": 437,
      "sensor_timestamp": 8386716347569,
      "time_usec": 8386716347
    },
    {
      "frame_id": 438,
      "sensor_timestamp": 8386749594152,
      "time_usec": 8386749594
    },
    {
      "frame_id": 439,
      "sensor_timestamp": 8386782840489,
      "time_usec": 8386782840
    },
    {
      "frame_id": 440,
      "sensor_timestamp": 8386816086827,
      "time_usec": 8386816086
    },
    {
      "frame_id": 441,
      "sensor_timestamp": 8386849333165,
      "time_usec": 8386849333
    },
    {
      "frame_id": 442,
      "sensor_timestamp": 8386882579747,
      "time_usec": 8386882579
    },
    {
      "frame_id": 443,
      "sensor_timestamp": 8386915826085,
      "time_usec": 8386915826
    },
    {
      "frame_id": 444,
      "sensor_timestamp": 8386949072423,
      "time_usec": 8386949072
    },
    {
      "frame_id": 445,
      "sensor_timestamp": 8386982318761,
      "time_usec": 8386982318
    },
    {
      "frame_id": 446,
      "sensor_timestamp": 8387015565343,
      "time_usec": 8387015565
    },
    {
      "frame_id": 447,
      "sensor_timestamp": 8387048811681,
      "time_usec": 8387048811
    },
    {
      "frame_id": 448,
      "sensor_timestamp": 8387082058019,
      "time_usec": 8387082058
    },
    {
      "frame_id": 449,
      "sensor_timestamp": 8387115304357,
      "time_usec": 8387115304
    },
    {
      "frame_id": 450,
      "sensor_timestamp": 8387148550939,
      "time_usec": 8387148550
    },
    {
      "frame_id": 451,
      "sensor_timestamp": 8387181797277,
      "time_usec": 8387181797
    },
    {
      "frame_id": 452,
      "sensor_timestamp": 8387215043614,
      "time_usec": 8387215043
    },
    {
      "frame_id": 453,
      "sensor_timestamp": 8387248289952,
      "time_usec": 8387248289
    },
    {
      "frame_id": 454,
      "sensor_timestamp": 8387281536534,
      "time_usec": 8387281536
    },
    {
      "frame_id": 455,
      "sensor_timestamp": 8387314782872,
      "time_usec": 8387314782
    },
    {
      "frame_id": 456,
      "sensor_timestamp": 8387348029210,
      "time_usec": 8387348029
    },
    {
      "frame_id": 457,
      "sensor_timestamp": 8387381275548,
      "time_usec": 8387381275
    },
    {
      "frame_id": 458,
      "sensor_timestamp": 8387414522130,
      "time_usec": 8387414522
    },
    {
      "frame_id": 459,
      "sensor_timestamp": 8387447768468,
      "time_usec": 8387447768
    },
    {
      "frame_id": 460,
      "sensor_timestamp": 8387481014806,
      "time_usec": 8387481014
    },
    {
      "frame_id": 461,
      "sensor_timestamp": 8387514261144,
      "time_usec": 8387514261
    },
    {
      "frame_id": 462,
      "sensor_timestamp": 8387547507726,
      "time_usec": 8387547507
    },
    {
      "frame_id": 463,
      "sensor_timestamp": 8387580754064,
      "time_usec": 8387580754
    },
    {
      "frame_id": 464,
      "sensor_timestamp": 8387614000402,
      "time_usec": 8387614000
    },
    {
      "frame_id": 465,
      "sensor_timestamp": 8387647246739,
      "time_usec": 8387647246
    },
    {
      "frame_id": 466,
      "sensor_timestamp": 8387680493321,
      "time_usec": 8387680493
    },
    {
      "frame_id": 467,
      "sensor_timestamp": 8387713739659,
      "time_usec": 8387713739
    },
    {
      "frame_id": 468,
      "sensor_timestamp": 8387746985997,
      "time_usec": 8387746985
    },
    {
      "frame_id": 469,
      "sensor_timestamp": 8387780232335,
      "time_usec": 8387780232
    },
    {
      "frame_id": 470,
      "sensor_timestamp": 8387813478673,
      "time_usec": 8387813478
    },
    {
      "frame_id": 471,
      "sensor_timestamp": 8387846725255,
      "time_usec": 8387846725
    },
    {
      "frame_id": 472,
      "sensor_timestamp": 8387879971593,
      "time_usec": 8387879971
    },
    {
      "frame_id": 473,
      "sensor_timestamp": 8387913217931,
      "time_usec": 8387913217
    },
    {
      "frame_id": 474,
      "sensor_timestamp": 8387946464269,
      "time_usec": 8387946464
    },
    {
      "frame_id": 475,
      "sensor_timestamp": 8387979710851,
      "time_usec": 8387979710
    },
    {
      "frame_id": 476,
      "sensor_timestamp": 8388012957189,
      "time_usec": 8388012957
    },
    {
      "frame_id": 477,
      "sensor_timestamp": 8388046203527,
      "time_usec": 8388046203
    },
    {
      "frame_id": 478,
      "sensor_timestamp": 8388079449864,
      "time_usec": 8388079449
    },
    {
      "frame_id": 479,
      "sensor_timestamp": 8388112696446,
      "time_usec": 8388112696
    },
    {
      "frame_id": 480,
      "sensor_timestamp": 8388145942784,
      "time_usec": 8388145942
    },
    {
      "frame_id": 481,
      "sensor_timestamp": 8388179189122,
      "time_usec": 8388179189
    },
    {
      "frame_id": 482,
      "sensor_timestamp": 8388212435460,
      "time_usec": 8388212435
    },
    {
      "frame_id": 483,
      "sensor_timestamp": 8388245682042,
      "time_usec": 8388245682
    },
    {
      "frame_id": 484,
      "sensor_timestamp": 8388278928380,
      "time_usec": 8388278928
    },
    {
      "frame_id": 485,
      "sensor_timestamp": 8388312174718,
      "time_usec": 8388312174
    },
    {
      "frame_id": 486,
      "sensor_timestamp": 8388345421056,
      "time_usec": 8388345421
    },
    {
      "frame_id": 487,
      "sensor_timestamp": 8388378667638,
      "time_usec": 8388378667
    },
    {
      "frame_id": 488,
      "sensor_timestamp": 8388411913976,
      "time_usec": 8388411913
    },
    {
      "frame_id": 489,
      "sensor_timestamp": 8388445160314,
      "time_usec": 8388445160
    },
    {
      "frame_id": 490,
      "sensor_timestamp": 8388478406652,
      "time_usec": 8388478406
    },
    {
      "frame_id": 491,
      "sensor_timestamp": 8388511653234,
      "time_usec": 8388511653
    },
    {
      "frame_id": 492,
      "sensor_timestamp": 8388544899571,
      "time_usec": 8388544899
    },
    {
      "frame_id": 493,
      "sensor_timestamp": 8388578145909,
      "time_usec": 8388578145
    },
    {
      "frame_id": 494,
      "sensor_timestamp": 8388611392247,
      "time_usec": 8388611392
    },
    {
      "frame_id": 495,
      "sensor_timestamp": 8388644638829,
      "time_usec": 8388644638
    },
    {
      "frame_id": 496,
      "sensor_timestamp": 8388677885167,
      "time_usec": 8388677885
    },
    {
      "frame_id": 497,
      "sensor_timestamp": 8388711131505,
      "time_usec": 8388711131
    },
    {
      "frame_id": 498,
      "sensor_timestamp": 8388744377843,
      "time_usec": 8388744377
    },
    {
      "frame_id": 499,
      "sensor_timestamp": 8388777624425,
      "time_usec": 8388777624
    },
    {
      "frame_id": 500,
      "sensor_timestamp": 8388810870763,
      "time_usec": 8388810870
    },
    {
      "frame_id": 501,
      "sensor_timestamp": 8388844117101,
      "time_usec": 8388844117
    },
    {
      "frame_id": 502,
      "sensor_timestamp": 8388877363439,
      "time_usec": 8388877363
    },
    {
      "frame_id": 503,
      "sensor_timestamp": 8388910610021,
      "time_usec": 8388910610
    },
    {
      "frame_id": 504,
      "sensor_timestamp": 8388943856359,
      "time_usec": 8388943856
    },
    {
      "frame_id": 505,
      "sensor_timestamp": 8388977102696,
      "time_usec": 8388977102
    },
    {
      "frame_id": 506,
      "sensor_timestamp": 8389010349034,
      "time_usec": 8389010349
    },
    {
      "frame_id": 507,
      "sensor_timestamp": 8389043595372,
      "time_usec": 8389043595
    },
    {
      "frame_id": 508,
      "sensor_timestamp": 8389076841954,
      "time_usec": 8389076841
    },
    {
      "frame_id": 509,
      "sensor_timestamp": 8389110088292,
      "time_usec": 8389110088
    },
    {
      "frame_id": 510,
      "sensor_timestamp": 8389143334630,
      "time_usec": 8389143334
    },
    {
      "frame_id": 511,
      "sensor_timestamp": 8389176580968,
      "time_usec": 8389176580
    },
    {
      "frame_id": 512,
      "sensor_timestamp": 8389209827550,
      "time_usec": 8389209827
    },
    {
      "frame_id": 513,
      "sensor_timestamp": 8389243073888,
      "time_usec": 8389243073
    },
    {
      "frame_id": 514,
      "sensor_timestamp": 8389276320226,
      "time_usec": 8389276320
    },
    {
      "frame_id": 515,
      "sensor_timestamp": 8389309566564,
      "time_usec": 8389309566
    },
    {
      "frame_id": 516,
      "sensor_timestamp": 8389342813146,
      "time_usec": 8389342813
    },
    {
      "frame_id": 517,
      "sensor_timestamp": 8389376059484,
      "time_usec": 8389376059
    },
    {
      "frame_id": 518,
      "sensor_timestamp": 8389409305821,
      "time_usec": 8389409305
    },
    {
      "frame_id": 519,
      "sensor_timestamp": 8389442552159,
      "time_usec": 8389442552
    },
    {
      "frame_id": 520,
      "sensor_timestamp": 8389475798741,
      "time_usec": 8389475798
    },
    {
      "frame_id": 521,
      "sensor_timestamp": 8389509045079,
      "time_usec": 8389509045
    },
    {
      "frame_id": 522,
      "sensor_timestamp": 8389542291417,
      "time_usec": 8389542291
    },
    {
      "frame_id": 523,
      "sensor_timestamp": 8389575537755,
      "time_usec": 8389575537
    },
    {
      "frame_id": 524,
      "sensor_timestamp": 8389608784337,
      "time_usec": 8389608784
    },
    {
      "frame_id": 525,
      "sensor_timestamp": 8389642030675,
      "time_usec": 8389642030
    },
    {
      "frame_id": 526,
      "sensor_timestamp": 8389675277013,
      "time_usec": 8389675277
    },
    {
      "frame_id": 527,
      "sensor_timestamp": 8389708471366,
      "time_usec": 8389708471
    },
    {
      "frame_id": 528,
      "sensor_timestamp": 8389741769933,
      "time_usec": 8389741769
    },
    {
      "frame_id": 529,
      "sensor_timestamp": 8389775016271,
      "time_usec": 8389775016
    },
    {
      "frame_id": 530,
      "sensor_timestamp": 8389808262609,
      "time_usec": 8389808262
    },
    {
      "frame_id": 531,
      "sensor_timestamp": 8389841508946,
      "time_usec": 8389841508
    },
    {
      "frame_id": 532,
      "sensor_timestamp": 8389874755528,
      "time_usec": 8389874755
    },
    {
      "frame_id": 533,
      "sensor_timestamp": 8389908001866,
      "time_usec": 8389908001
    },
    {
      "frame_id": 534,
      "sensor_timestamp": 8389941248204,
      "time_usec": 8389941248
    },
    {
      "frame_id": 535,
      "sensor_timestamp": 8389974494542,
      "time_usec": 8389974494
    },
    {
      "frame_id": 536,
      "sensor_timestamp": 8390007741124,
      "time_usec": 8390007741
    },
    {
      "frame_id": 537,
      "sensor_timestamp": 8390040987462,
      "time_usec": 8390040987
    },
    {
      "frame_id": 538,
      "sensor_timestamp": 8390074233800,
      "time_usec": 8390074233
    },
    {
      "frame_id": 539,
      "sensor_timestamp": 8390107480138,
      "time_usec": 8390107480
    },
    {
      "frame_id": 540,
      "sensor_timestamp": 8390140726720,
      "time_usec": 8390140726
    },
    {
      "frame_id": 541,
      "sensor_timestamp": 8390173973058,
      "time_usec": 8390173973
    },
    {
      "frame_id": 542,
      "sensor_timestamp": 8390207219396,
      "time_usec": 8390207219
    },
    {
      "frame_id": 543,
      "sensor_timestamp": 8390240465734,
      "time_usec": 8390240465
    },
    {
      "frame_id": 544,
      "sensor_timestamp": 8390273712071,
      "time_usec": 8390273712
    },
    {
      "frame_id": 545,
      "sensor_timestamp": 8390306958653,
      "time_usec": 8390306958
    },
    {
      "frame_id": 546,
      "sensor_timestamp": 8390340204991,
      "time_usec": 8390340204
    },
    {
      "frame_id": 547,
      "sensor_timestamp": 8390373451329,
      "time_usec": 8390373451
    },
    {
      "frame_id": 548,
      "sensor_timestamp": 8390406697667,
      "time_usec": 8390406697
    },
    {
      "frame_id": 549,
      "sensor_timestamp": 8390439944249,
      "time_usec": 8390439944
    },
    {
      "frame_id": 550,
      "sensor_timestamp": 8390473190587,
      "time_usec": 8390473190
    },
    {
      "frame_id": 551,
      "sensor_timestamp": 8390506436925,
      "time_usec": 8390506436
    },
    {
      "frame_id": 552,
      "sensor_timestamp": 8390539683263,
      "time_usec": 8390539683
    },
    {
      "frame_id": 553,
      "sensor_timestamp": 8390572929845,
      "time_usec": 8390572929
    },
    {
      "frame_id": 554,
      "sensor_timestamp": 8390606176183,
      "time_usec": 8390606176
    },
    {
      "frame_id": 555,
      "sensor_timestamp": 8390639422521,
      "time_usec": 8390639422
    },
    {
      "frame_id": 556,
      "sensor_timestamp": 8390672668859,
      "time_usec": 8390672668
    },
    {
      "frame_id": 557,
      "sensor_timestamp": 8390705915441,
      "time_usec": 8390705915
    },
    {
      "frame_id": 558,
      "sensor_timestamp": 8390739161778,
      "time_usec": 8390739161
    },
    {
      "frame_id": 559,
      "sensor_timestamp": 8390772408116,
      "time_usec": 8390772408
    },
    {
      "frame_id": 560,
      "sensor_timestamp": 8390805654454,
      "time_usec": 8390805654
    },
    {
      "frame_id": 561,
