{
  "frames": [
    {
      "frame_id": 0,
      "sensor_timestamp": 12415947116857,
      "time_usec": 12415947116
    },
    {
      "frame_id": 1,
      "sensor_timestamp": 12416013609532,
      "time_usec": 12416013609
    },
    {
      "frame_id": 2,
      "sensor_timestamp": 12416046856114,
      "time_usec": 12416046856
    },
    {
      "frame_id": 3,
      "sensor_timestamp": 12416080102452,
      "time_usec": 12416080102
    },
    {
      "frame_id": 4,
      "sensor_timestamp": 12416113348790,
      "time_usec": 12416113348
    },
    {
      "frame_id": 5,
      "sensor_timestamp": 12416146595128,
      "time_usec": 12416146595
    },
    {
      "frame_id": 6,
      "sensor_timestamp": 12416179841710,
      "time_usec": 12416179841
    },
    {
      "frame_id": 7,
      "sensor_timestamp": 12416213088048,
      "time_usec": 12416213088
    },
    {
      "frame_id": 8,
      "sensor_timestamp": 12416246334386,
      "time_usec": 12416246334
    },
    {
      "frame_id": 9,
      "sensor_timestamp": 12416279580724,
      "time_usec": 12416279580
    },
    {
      "frame_id": 10,
      "sensor_timestamp": 12416312827062,
      "time_usec": 12416312827
    },
    {
      "frame_id": 11,
      "sensor_timestamp": 12416346073644,
      "time_usec": 12416346073
    },
    {
      "frame_id": 12,
      "sensor_timestamp": 12416379319982,
      "time_usec": 12416379319
    },
    {
      "frame_id": 13,
      "sensor_timestamp": 12416412566319,
      "time_usec": 12416412566
    },
    {
      "frame_id": 14,
      "sensor_timestamp": 12416445812657,
      "time_usec": 12416445812
    },
    {
      "frame_id": 15,
      "sensor_timestamp": 12416479059239,
      "time_usec": 12416479059
    },
    {
      "frame_id": 16,
      "sensor_timestamp": 12416512305577,
      "time_usec": 12416512305
    },
    {
      "frame_id": 17,
      "sensor_timestamp": 12416545551915,
      "time_usec": 12416545551
    },
    {
      "frame_id": 18,
      "sensor_timestamp": 12416578798253,
      "time_usec": 12416578798
    },
    {
      "frame_id": 19,
      "sensor_timestamp": 12416612044835,
      "time_usec": 12416612044
    },
    {
      "frame_id": 20,
      "sensor_timestamp": 12416645291173,
      "time_usec": 12416645291
    },
    {
      "frame_id": 21,
      "sensor_timestamp": 12416678537511,
      "time_usec": 12416678537
    },
    {
      "frame_id": 22,
      "sensor_timestamp": 12416711783849,
      "time_usec": 12416711783
    },
    {
      "frame_id": 23,
      "sensor_timestamp": 12416745030431,
      "time_usec": 12416745030
    },
    {
      "frame_id": 24,
      "sensor_timestamp": 12416778276769,
      "time_usec": 12416778276
    },
    {
      "frame_id": 25,
      "sensor_timestamp": 12416811523107,
      "time_usec": 12416811523
    },
    {
      "frame_id": 26,
      "sensor_timestamp": 12416844769444,
      "time_usec": 12416844769
    },
    {
      "frame_id": 27,
      "sensor_timestamp": 12416878016027,
      "time_usec": 12416878016
    },
    {
      "frame_id": 28,
      "sensor_timestamp": 12416911262364,
      "time_usec": 12416911262
    },
    {
      "frame_id": 29,
      "sensor_timestamp": 12416944508702,
      "time_usec": 12416944508
    },
    {
      "frame_id": 30,
      "sensor_timestamp": 12416977755040,
      "time_usec": 12416977755
    },
    {
      "frame_id": 31,
      "sensor_timestamp": 12417011001622,
      "time_usec": 12417011001
    },
    {
      "frame_id": 32,
      "sensor_timestamp": 12417044247960,
      "time_usec": 12417044247
    },
    {
      "frame_id": 33,
      "sensor_timestamp": 12417077494298,
      "time_usec": 12417077494
    },
    {
      "frame_id": 34,
      "sensor_timestamp": 12417110740636,
      "time_usec": 12417110740
    },
    {
      "frame_id": 35,
      "sensor_timestamp": 12417143987218,
      "time_usec": 12417143987
    },
    {
      "frame_id": 36,
      "sensor_timestamp": 12417177233556,
      "time_usec": 12417177233
    },
    {
      "frame_id": 37,
      "sensor_timestamp": 12417210479894,
      "time_usec": 12417210479
    },
    {
      "frame_id": 38,
      "sensor_timestamp": 12417243726232,
      "time_usec": 12417243726
    },
    {
      "frame_id": 39,
      "sensor_timestamp": 12417276972814,
      "time_usec": 12417276972
    },
    {
      "frame_id": 40,
      "sensor_timestamp": 12417310219152,
      "time_usec": 12417310219
    },
    {
      "frame_id": 41,
      "sensor_timestamp": 12417343465489,
      "time_usec": 12417343465
    },
    {
      "frame_id": 42,
      "sensor_timestamp": 12417376711827,
      "time_usec": 12417376711
    },
    {
      "frame_id": 43,
      "sensor_timestamp": 12417409958409,
      "time_usec": 12417409958
    },
    {
      "frame_id": 44,
      "sensor_timestamp": 12417443204747,
      "time_usec": 12417443204
    },
    {
      "frame_id": 45,
      "sensor_timestamp": 12417476451085,
      "time_usec": 12417476451
    },
    {
      "frame_id": 46,
      "sensor_timestamp": 12417509697423,
      "time_usec": 12417509697
    },
    {
      "frame_id": 47,
      "sensor_timestamp": 12417542944005,
      "time_usec": 12417542944
    },
    {
      "frame_id": 48,
      "sensor_timestamp": 12417576190343,
      "time_usec": 12417576190
    },
    {
      "frame_id": 49,
      "sensor_timestamp": 12417609436681,
      "time_usec": 12417609436
    },
    {
      "frame_id": 50,
      "sensor_timestamp": 12417642683019,
      "time_usec": 12417642683
    },
    {
      "frame_id": 51,
      "sensor_timestamp": 12417675929357,
      "time_usec": 12417675929
    },
    {
      "frame_id": 52,
      "sensor_timestamp": 12417709175939,
      "time_usec": 12417709175
    },
    {
      "frame_id": 53,
      "sensor_timestamp": 12417742422277,
      "time_usec": 12417742422
    },
    {
      "frame_id": 54,
      "sensor_timestamp": 12417775668614,
      "time_usec": 12417775668
    },
    {
      "frame_id": 55,
      "sensor_timestamp": 12417808914952,
      "time_usec": 12417808914
    },
    {
      "frame_id": 56,
      "sensor_timestamp": 12417842161534,
      "time_usec": 12417842161
    },
    {
      "frame_id": 57,
      "sensor_timestamp": 12417875407872,
      "time_usec": 12417875407
    },
    {
      "frame_id": 58,
      "sensor_timestamp": 12417908654210,
      "time_usec": 12417908654
    },
    {
      "frame_id": 59,
      "sensor_timestamp": 12417941900548,
      "time_usec": 12417941900
    },
    {
      "frame_id": 60,
      "sensor_timestamp": 12417975147130,
      "time_usec": 12417975147
    },
    {
      "frame_id": 61,
      "sensor_timestamp": 12418008393468,
      "time_usec": 12418008393
    },
    {
      "frame_id": 62,
      "sensor_timestamp": 12418041639806,
      "time_usec": 12418041639
    },
    {
      "frame_id": 63,
      "sensor_timestamp": 12418074886144,
      "time_usec": 12418074886
    },
    {
      "frame_id": 64,
      "sensor_timestamp": 12418108132726,
      "time_usec": 12418108132
    },
    {
      "frame_id": 65,
      "sensor_timestamp": 12418141379064,
      "time_usec": 12418141379
    },
    {
      "frame_id": 66,
      "sensor_timestamp": 12418174625402,
      "time_usec": 12418174625
    },
    {
      "frame_id": 67,
      "sensor_timestamp": 12418207871739,
      "time_usec": 12418207871
    },
    {
      "frame_id": 68,
      "sensor_timestamp": 12418241118321,
      "time_usec": 12418241118
    },
    {
      "frame_id": 69,
      "sensor_timestamp": 12418274364659,
      "time_usec": 12418274364
    },
    {
      "frame_id": 70,
      "sensor_timestamp": 12418307610997,
      "time_usec": 12418307610
    },
    {
      "frame_id": 71,
      "sensor_timestamp": 12418340857335,
      "time_usec": 12418340857
    },
    {
      "frame_id": 72,
      "sensor_timestamp": 12418374103917,
      "time_usec": 12418374103
    },
    {
      "frame_id": 73,
      "sensor_timestamp": 12418407350255,
      "time_usec": 12418407350
    },
    {
      "frame_id": 74,
      "sensor_timestamp": 12418440596593,
      "time_usec": 12418440596
    },
    {
      "frame_id": 75,
      "sensor_timestamp": 12418473842931,
      "time_usec": 12418473842
    },
    {
      "frame_id": 76,
      "sensor_timestamp": 12418507089513,
      "time_usec": 12418507089
    },
    {
      "frame_id": 77,
      "sensor_timestamp": 12418540335851,
      "time_usec": 12418540335
    },
    {
      "frame_id": 78,
      "sensor_timestamp": 12418573582189,
      "time_usec": 12418573582
    },
    {
      "frame_id": 79,
      "sensor_timestamp": 12418606828527,
      "time_usec": 12418606828
    },
    {
      "frame_id": 80,
      "sensor_timestamp": 12418640075109,
      "time_usec": 12418640075
    },
    {
      "frame_id": 81,
      "sensor_timestamp": 12418673321446,
      "time_usec": 12418673321
    },
    {
      "frame_id": 82,
      "sensor_timestamp": 12418706567784,
      "time_usec": 12418706567
    },
    {
      "frame_id": 83,
      "sensor_timestamp": 12418739814122,
      "time_usec": 12418739814
    },
    {
      "frame_id": 84,
      "sensor_timestamp": 12418773060704,
      "time_usec": 12418773060
    },
    {
      "frame_id": 85,
      "sensor_timestamp": 12418806307042,
      "time_usec": 12418806307
    },
    {
      "frame_id": 86,
      "sensor_timestamp": 12418839553380,
      "time_usec": 12418839553
    },
    {
      "frame_id": 87,
      "sensor_timestamp": 12418872799718,
      "time_usec": 12418872799
    },
    {
      "frame_id": 88,
      "sensor_timestamp": 12418906046056,
      "time_usec": 12418906046
    },
    {
      "frame_id": 89,
      "sensor_timestamp": 12418939292638,
      "time_usec": 12418939292
    },
    {
      "frame_id": 90,
      "sensor_timestamp": 12418972538976,
      "time_usec": 12418972538
    },
    {
      "frame_id": 91,
      "sensor_timestamp": 12419005785314,
      "time_usec": 12419005785
    },
    {
      "frame_id": 92,
      "sensor_timestamp": 12419039031652,
      "time_usec": 12419039031
    },
    {
      "frame_id": 93,
      "sensor_timestamp": 12419072278234,
      "time_usec": 12419072278
    },
    {
      "frame_id": 94,
      "sensor_timestamp": 12419105524571,
      "time_usec": 12419105524
    },
    {
      "frame_id": 95,
      "sensor_timestamp": 12419138770909,
      "time_usec": 12419138770
    },
    {
      "frame_id": 96,
      "sensor_timestamp": 12419172017247,
      "time_usec": 12419172017
    },
    {
      "frame_id": 97,
      "sensor_timestamp": 12419205263829,
      "time_usec": 12419205263
    },
    {
      "frame_id": 98,
      "sensor_timestamp": 12419238510167,
      "time_usec": 12419238510
    },
    {
      "frame_id": 99,
      "sensor_timestamp": 12419271756505,
      "time_usec": 12419271756
    },
    {
      "frame_id": 100,
      "sensor_timestamp": 12419305002843,
      "time_usec": 12419305002
    },
    {
      "frame_id": 101,
      "sensor_timestamp": 12419338249425,
      "time_usec": 12419338249
    },
    {
      "frame_id": 102,
      "sensor_timestamp": 12419371495763,
      "time_usec": 12419371495
    },
    {
      "frame_id": 103,
      "sensor_timestamp": 12419404742101,
      "time_usec": 12419404742
    },
    {
      "frame_id": 104,
      "sensor_timestamp": 12419437988439,
      "time_usec": 12419437988
    },
    {
      "frame_id": 105,
      "sensor_timestamp": 12419471235021,
      "time_usec": 12419471235
    },
    {
      "frame_id": 106,
      "sensor_timestamp": 12419504481359,
      "time_usec": 12419504481
    },
    {
      "frame_id": 107,
      "sensor_timestamp": 12419537727696,
      "time_usec": 12419537727
    },
    {
      "frame_id": 108,
      "sensor_timestamp": 12419570974034,
      "time_usec": 12419570974
    },
    {
      "frame_id": 109,
      "sensor_timestamp": 12419604220616,
      "time_usec": 12419604220
    },
    {
      "frame_id": 110,
      "sensor_timestamp": 12419637466954,
      "time_usec": 12419637466
    },
    {
      "frame_id": 111,
      "sensor_timestamp": 12419670713292,
      "time_usec": 12419670713
    },
    {
      "frame_id": 112,
      "sensor_timestamp": 12419703959630,
      "time_usec": 12419703959
    },
    {
      "frame_id": 113,
      "sensor_timestamp": 12419737206212,
      "time_usec": 12419737206
    },
    {
      "frame_id": 114,
      "sensor_timestamp": 12419770452550,
      "time_usec": 12419770452
    },
    {
      "frame_id": 115,
      "sensor_timestamp": 12419803698888,
      "time_usec": 12419803698
    },
    {
      "frame_id": 116,
      "sensor_timestamp": 12419836945226,
      "time_usec": 12419836945
    },
    {
      "frame_id": 117,
      "sensor_timestamp": 12419870191808,
      "time_usec": 12419870191
    },
    {
      "frame_id": 118,
      "sensor_timestamp": 12419903438146,
      "time_usec": 12419903438
    },
    {
      "frame_id": 119,
      "sensor_timestamp": 12419936684484,
      "time_usec": 12419936684
    },
    {
      "frame_id": 120,
      "sensor_timestamp": 12419969930821,
      "time_usec": 12419969930
    },
    {
      "frame_id": 121,
      "sensor_timestamp": 12420003177159,
      "time_usec": 12420003177
    },
    {
      "frame_id": 122,
      "sensor_timestamp": 12420036423741,
      "time_usec": 12420036423
    },
    {
      "frame_id": 123,
      "sensor_timestamp": 12420069670079,
      "time_usec": 12420069670
    },
    {
      "frame_id": 124,
      "sensor_timestamp": 12420102916417,
      "time_usec": 12420102916
    },
    {
      "frame_id": 125,
      "sensor_timestamp": 12420136162755,
      "time_usec": 12420136162
    },
    {
      "frame_id": 126,
      "sensor_timestamp": 12420169409337,
      "time_usec": 12420169409
    },
    {
      "frame_id": 127,
      "sensor_timestamp": 12420202655675,
      "time_usec": 12420202655
    },
    {
      "frame_id": 128,
      "sensor_timestamp": 12420235902013,
      "time_usec": 12420235902
    },
    {
      "frame_id": 129,
      "sensor_timestamp": 12420269148351,
      "time_usec": 12420269148
    },
    {
      "frame_id": 130,
      "sensor_timestamp": 12420302394933,
      "time_usec": 12420302394
    },
    {
      "frame_id": 131,
      "sensor_timestamp": 12420335641271,
      "time_usec": 12420335641
    },
    {
      "frame_id": 132,
      "sensor_timestamp": 12420368887609,
      "time_usec": 12420368887
    },
    {
      "frame_id": 133,
      "sensor_timestamp": 12420402133946,
      "time_usec": 12420402133
    },
    {
      "frame_id": 134,
      "sensor_timestamp": 12420435380528,
      "time_usec": 12420435380
    },
    {
      "frame_id": 135,
      "sensor_timestamp": 12420468626866,
      "time_usec": 12420468626
    },
    {
      "frame_id": 136,
      "sensor_timestamp": 12420501873204,
      "time_usec": 12420501873
    },
    {
      "frame_id": 137,
      "sensor_timestamp": 12420535119542,
      "time_usec": 12420535119
    },
    {
      "frame_id": 138,
      "sensor_timestamp": 12420568366124,
      "time_usec": 12420568366
    },
    {
      "frame_id": 139,
      "sensor_timestamp": 12420601612462,
      "time_usec": 12420601612
    },
    {
      "frame_id": 140,
      "sensor_timestamp": 12420634858800,
      "time_usec": 12420634858
    },
    {
      "frame_id": 141,
      "sensor_timestamp": 12420668105138,
      "time_usec": 12420668105
    },
    {
      "frame_id": 142,
      "sensor_timestamp": 12420701351720,
      "time_usec": 12420701351
    },
    {
      "frame_id": 143,
      "sensor_timestamp": 12420734598058,
      "time_usec": 12420734598
    },
    {
      "frame_id": 144,
      "sensor_timestamp": 12420767844396,
      "time_usec": 12420767844
    },
    {
      "frame_id": 145,
      "sensor_timestamp": 12420801090734,
      "time_usec": 12420801090
    },
    {
      "frame_id": 146,
      "sensor_timestamp": 12420834337316,
      "time_usec": 12420834337
    },
    {
      "frame_id": 147,
      "sensor_timestamp": 12420867583653,
      "time_usec": 12420867583
    },
    {
      "frame_id": 148,
      "sensor_timestamp": 12420900829991,
      "time_usec": 12420900829
    },
    {
      "frame_id": 149,
      "sensor_timestamp": 12420934076329,
      "time_usec": 12420934076
    },
    {
      "frame_id": 150,
      "sensor_timestamp": 12420967322911,
      "time_usec": 12420967322
    },
    {
      "frame_id": 151,
      "sensor_timestamp": 12421000569249,
      "time_usec": 12421000569
    },
    {
      "frame_id": 152,
      "sensor_timestamp": 12421033815587,
      "time_usec": 12421033815
    },
    {
      "frame_id": 153,
      "sensor_timestamp": 12421067061925,
      "time_usec": 12421067061
    },
    {
      "frame_id": 154,
      "sensor_timestamp": 12421100308507,
      "time_usec": 12421100308
    },
    {
      "frame_id": 155,
      "sensor_timestamp": 12421133554845,
      "time_usec": 12421133554
    },
    {
      "frame_id": 156,
      "sensor_timestamp": 12421166801183,
      "time_usec": 12421166801
    },
    {
      "frame_id": 157,
      "sensor_timestamp": 12421200047521,
      "time_usec": 12421200047
    },
    {
      "frame_id": 158,
      "sensor_timestamp": 12421233293859,
      "time_usec": 12421233293
    },
    {
      "frame_id": 159,
      "sensor_timestamp": 12421266540441,
      "time_usec": 12421266540
    },
    {
      "frame_id": 160,
      "sensor_timestamp": 12421299786778,
      "time_usec": 12421299786
    },
    {
      "frame_id": 161,
      "sensor_timestamp": 12421333033116,
      "time_usec": 12421333033
    },
    {
      "frame_id": 162,
      "sensor_timestamp": 12421366279454,
      "time_usec": 12421366279
    },
    {
      "frame_id": 163,
      "sensor_timestamp": 12421399526036,
      "time_usec": 12421399526
    },
    {
      "frame_id": 164,
      "sensor_timestamp": 12421432772374,
      "time_usec": 12421432772
    },
    {
      "frame_id": 165,
      "sensor_timestamp": 12421466018712,
      "time_usec": 12421466018
    },
    {
      "frame_id": 166,
      "sensor_timestamp": 12421499265050,
      "time_usec": 12421499265
    },
    {
      "frame_id": 167,
      "sensor_timestamp": 12421532511632,
      "time_usec": 12421532511
    },
    {
      "frame_id": 168,
      "sensor_timestamp": 12421565757970,
      "time_usec": 12421565757
    },
    {
      "frame_id": 169,
      "sensor_timestamp": 12421599004308,
      "time_usec": 12421599004
    },
    {
      "frame_id": 170,
      "sensor_timestamp": 12421632250646,
      "time_usec": 12421632250
    },
    {
      "frame_id": 171,
      "sensor_timestamp": 12421665497228,
      "time_usec": 12421665497
    },
    {
      "frame_id": 172,
      "sensor_timestamp": 12421698743566,
      "time_usec": 12421698743
    },
    {
      "frame_id": 173,
      "sensor_timestamp": 12421731989903,
      "time_usec": 12421731989
    },
    {
      "frame_id": 174,
      "sensor_timestamp": 12421765236241,
      "time_usec": 12421765236
    },
    {
      "frame_id": 175,
      "sensor_timestamp": 12421798482823,
      "time_usec": 12421798482
    },
    {
      "frame_id": 176,
      "sensor_timestamp": 12421831729161,
      "time_usec": 12421831729
    },
    {
      "frame_id": 177,
      "sensor_timestamp": 12421864975499,
      "time_usec": 12421864975
    },
    {
      "frame_id": 178,
      "sensor_timestamp": 12421898221837,
      "time_usec": 12421898221
    },
    {
      "frame_id": 179,
      "sensor_timestamp": 12421931468419,
      "time_usec": 12421931468
    },
    {
      "frame_id": 180,
      "sensor_timestamp": 12421964714757,
      "time_usec": 12421964714
    },
    {
      "frame_id": 181,
      "sensor_timestamp": 12421997961095,
      "time_usec": 12421997961
    },
    {
      "frame_id": 182,
      "sensor_timestamp": 12422031207433,
      "time_usec": 12422031207
    },
    {
      "frame_id": 183,
      "sensor_timestamp": 12422064454015,
      "time_usec": 12422064454
    },
    {
      "frame_id": 184,
      "sensor_timestamp": 12422097700353,
      "time_usec": 12422097700
    },
    {
      "frame_id": 185,
      "sensor_timestamp": 12422130946691,
      "time_usec": 12422130946
    },
    {
      "frame_id": 186,
      "sensor_timestamp": 12422164148121,
      "time_usec": 12422164148
    },
    {
      "frame_id": 187,
      "sensor_timestamp": 12422197439611,
      "time_usec": 12422197439
    },
    {
      "frame_id": 188,
      "sensor_timestamp": 12422230685948,
      "time_usec": 12422230685
    },
    {
      "frame_id": 189,
      "sensor_timestamp": 12422263932286,
      "time_usec": 12422263932
    },
    {
      "frame_id": 190,
      "sensor_timestamp": 12422297178624,
      "time_usec": 12422297178
    },
    {
      "frame_id": 191,
      "sensor_timestamp": 12422330425206,
      "time_usec": 12422330425
    },
    {
      "frame_id": 192,
      "sensor_timestamp": 12422363671544,
      "time_usec": 12422363671
    },
    {
      "frame_id": 193,
      "sensor_timestamp": 12422396917882,
      "time_usec": 12422396917
    },
    {
      "frame_id": 194,
      "sensor_timestamp": 12422430164220,
      "time_usec": 12422430164
    },
    {
      "frame_id": 195,
      "sensor_timestamp": 12422463410558,
      "time_usec": 12422463410
    },
    {
      "frame_id": 196,
      "sensor_timestamp": 12422496657140,
      "time_usec": 12422496657
    },
    {
      "frame_id": 197,
      "sensor_timestamp": 12422529903478,
      "time_usec": 12422529903
    },
    {
      "frame_id": 198,
      "sensor_timestamp": 12422563149816,
      "time_usec": 12422563149
    },
    {
      "frame_id": 199,
      "sensor_timestamp": 12422596396153,
      "time_usec": 12422596396
    },
    {
      "frame_id": 200,
      "sensor_timestamp": 12422629642736,
      "time_usec": 12422629642
    },
    {
      "frame_id": 201,
      "sensor_timestamp": 12422662889073,
      "time_usec": 12422662889
    },
    {
      "frame_id": 202,
      "sensor_timestamp": 12422696135411,
      "time_usec": 12422696135
    },
    {
      "frame_id": 203,
      "sensor_timestamp": 12422729381749,
      "time_usec": 12422729381
    },
    {
      "frame_id": 204,
      "sensor_timestamp": 12422762628331,
      "time_usec": 12422762628
    },
    {
      "frame_id": 205,
      "sensor_timestamp": 12422795874669,
      "time_usec": 12422795874
    },
    {
      "frame_id": 206,
      "sensor_timestamp": 12422829121007,
      "time_usec": 12422829121
    },
    {
      "frame_id": 207,
      "sensor_timestamp": 12422862367345,
      "time_usec": 12422862367
    },
    {
      "frame_id": 208,
      "sensor_timestamp": 12422895613927,
      "time_usec": 12422895613
    },
    {
      "frame_id": 209,
      "sensor_timestamp": 12422928860265,
      "time_usec": 12422928860
    },
    {
      "frame_id": 210,
      "sensor_timestamp": 12422962106603,
      "time_usec": 12422962106
    },
    {
      "frame_id": 211,
      "sensor_timestamp": 12422995352941,
      "time_usec": 12422995352
    },
    {
      "frame_id": 212,
      "sensor_timestamp": 12423028599523,
      "time_usec": 12423028599
    },
    {
      "frame_id": 213,
      "sensor_timestamp": 12423061845861,
      "time_usec": 12423061845
    },
    {
      "frame_id": 214,
      "sensor_timestamp": 12423095092198,
      "time_usec": 12423095092
    },
    {
      "frame_id": 215,
      "sensor_timestamp": 12423128338536,
      "time_usec": 12423128338
    },
    {
      "frame_id": 216,
      "sensor_timestamp": 12423161585118,
      "time_usec": 12423161585
    },
    {
      "frame_id": 217,
      "sensor_timestamp": 12423194831456,
      "time_usec": 12423194831
    },
    {
      "frame_id": 218,
      "sensor_timestamp": 12423228077794,
      "time_usec": 12423228077
    },
    {
      "frame_id": 219,
      "sensor_timestamp": 12423261324132,
      "time_usec": 12423261324
    },
    {
      "frame_id": 220,
      "sensor_timestamp": 12423294570714,
      "time_usec": 12423294570
    },
    {
      "frame_id": 221,
      "sensor_timestamp": 12423327817052,
      "time_usec": 12423327817
    },
    {
      "frame_id": 222,
      "sensor_timestamp": 12423361063390,
      "time_usec": 12423361063
    },
    {
      "frame_id": 223,
      "sensor_timestamp": 12423394309728,
      "time_usec": 12423394309
    },
    {
      "frame_id": 224,
      "sensor_timestamp": 12423427556310,
      "time_usec": 12423427556
    },
    {
      "frame_id": 225,
      "sensor_timestamp": 12423460802648,
      "time_usec": 12423460802
    },
    {
      "frame_id": 226,
      "sensor_timestamp": 12423494048986,
      "time_usec": 12423494048
    },
    {
      "frame_id": 227,
      "sensor_timestamp": 12423527295323,
      "time_usec": 12423527295
    },
    {
      "frame_id": 228,
      "sensor_timestamp": 12423560541905,
      "time_usec": 12423560541
    },
    {
      "frame_id": 229,
      "sensor_timestamp": 12423593788243,
      "time_usec": 12423593788
    },
    {
      "frame_id": 230,
      "sensor_timestamp": 12423627034581,
      "time_usec": 12423627034
    },
    {
      "frame_id": 231,
      "sensor_timestamp": 12423660280919,
      "time_usec": 12423660280
    },
    {
      "frame_id": 232,
      "sensor_timestamp": 12423693527257,
      "time_usec": 12423693527
    },
    {
      "frame_id": 233,
      "sensor_timestamp": 12423726773839,
      "time_usec": 12423726773
    },
    {
      "frame_id": 234,
      "sensor_timestamp": 12423760020177,
      "time_usec": 12423760020
    },
    {
      "frame_id": 235,
      "sensor_timestamp": 12423793266515,
      "time_usec": 12423793266
    },
    {
      "frame_id": 236,
      "sensor_timestamp": 12423826512853,
      "time_usec": 12423826512
    },
    {
      "frame_id": 237,
      "sensor_timestamp": 12423859759435,
      "time_usec": 12423859759
    },
    {
      "frame_id": 238,
      "sensor_timestamp": 12423893005773,
      "time_usec": 12423893005
    },
    {
      "frame_id": 239,
      "sensor_timestamp": 12423926252111,
      "time_usec": 12423926252
    },
    {
      "frame_id": 240,
      "sensor_timestamp": 12423959498448,
      "time_usec": 12423959498
    },
    {
      "frame_id": 241,
      "sensor_timestamp": 12423992745030,
      "time_usec": 12423992745
    },
    {
      "frame_id": 242,
      "sensor_timestamp": 12424025991368,
      "time_usec": 12424025991
    },
    {
      "frame_id": 243,
      "sensor_timestamp": 12424059237706,
      "time_usec": 12424059237
    },
    {
      "frame_id": 244,
      "sensor_timestamp": 12424092484044,
      "time_usec": 12424092484
    },
    {
      "frame_id": 245,
      "sensor_timestamp": 12424125730626,
      "time_usec": 12424125730
    },
    {
      "frame_id": 246,
      "sensor_timestamp": 12424158976964,
      "time_usec": 12424158976
    },
    {
      "frame_id": 247,
      "sensor_timestamp": 12424192223302,
      "time_usec": 12424192223
    },
    {
      "frame_id": 248,
      "sensor_timestamp": 12424225469640,
      "time_usec": 12424225469
    },
    {
      "frame_id": 249,
      "sensor_timestamp": 12424258716222,
      "time_usec": 12424258716
    },
    {
      "frame_id": 250,
      "sensor_timestamp": 12424291962560,
      "time_usec": 12424291962
    },
    {
      "frame_id": 251,
      "sensor_timestamp": 12424325161632,
      "time_usec": 12424325161
    },
    {
      "frame_id": 252,
      "sensor_timestamp": 12424358455236,
      "time_usec": 12424358455
    },
    {
      "frame_id": 253,
      "sensor_timestamp": 12424391701818,
      "time_usec": 12424391701
    },
    {
      "frame_id": 254,
      "sensor_timestamp": 12424424948155,
      "time_usec": 12424424948
    },
    {
      "frame_id": 255,
      "sensor_timestamp": 12424458194493,
      "time_usec": 12424458194
    },
    {
      "frame_id": 256,
      "sensor_timestamp": 12424491394135,
      "time_usec": 12424491394
    },
    {
      "frame_id": 257,
      "sensor_timestamp": 12424524687413,
      "time_usec": 12424524687
    },
    {
      "frame_id": 258,
      "sensor_timestamp": 12424557933751,
      "time_usec": 12424557933
    },
    {
      "frame_id": 259,
      "sensor_timestamp": 12424591180089,
      "time_usec": 12424591180
    },
    {
      "frame_id": 260,
      "sensor_timestamp": 12424624426427,
      "time_usec": 12424624426
    },
    {
      "frame_id": 261,
      "sensor_timestamp": 12424657673009,
      "time_usec": 12424657673
    },
    {
      "frame_id": 262,
      "sensor_timestamp": 12424690919347,
      "time_usec": 12424690919
    },
    {
      "frame_id": 263,
      "sensor_timestamp": 12424724165685,
      "time_usec": 12424724165
    },
    {
      "frame_id": 264,
      "sensor_timestamp": 12424757412023,
      "time_usec": 12424757412
    },
    {
      "frame_id": 265,
      "sensor_timestamp": 12424790658605,
      "time_usec": 12424790658
    },
    {
      "frame_id": 266,
      "sensor_timestamp": 12424823904943,
      "time_usec": 12424823904
    },
    {
      "frame_id": 267,
      "sensor_timestamp": 12424857151280,
      "time_usec": 12424857151
    },
    {
      "frame_id": 268,
      "sensor_timestamp": 12424890397618,
      "time_usec": 12424890397
    },
    {
      "frame_id": 269,
      "sensor_timestamp": 12424923643956,
      "time_usec": 12424923643
    },
    {
      "frame_id": 270,
      "sensor_timestamp": 12424956890538,
      "time_usec": 12424956890
    },
    {
      "frame_id": 271,
      "sensor_timestamp": 12424990136876,
      "time_usec": 12424990136
    },
    {
      "frame_id": 272,
      "sensor_timestamp": 12425023383214,
      "time_usec": 12425023383
    },
    {
      "frame_id": 273,
      "sensor_timestamp": 12425056629552,
      "time_usec": 12425056629
    },
    {
      "frame_id": 274,
      "sensor_timestamp": 12425089876134,
      "time_usec": 12425089876
    },
    {
      "frame_id": 275,
      "sensor_timestamp": 12425123122472,
      "time_usec": 12425123122
    },
    {
      "frame_id": 276,
      "sensor_timestamp": 12425156368810,
      "time_usec": 12425156368
    },
    {
      "frame_id": 277,
      "sensor_timestamp": 12425189615148,
      "time_usec": 12425189615
    },
    {
      "frame_id": 278,
      "sensor_timestamp": 12425222861730,
      "time_usec": 12425222861
    },
    {
      "frame_id": 279,
      "sensor_timestamp": 12425256108068,
      "time_usec": 12425256108
    },
    {
      "frame_id": 280,
      "sensor_timestamp": 12425289354405,
      "time_usec": 12425289354
    },
    {
      "frame_id": 281,
      "sensor_timestamp": 12425322600743,
      "time_usec": 12425322600
    },
    {
      "frame_id": 282,
      "sensor_timestamp": 12425355847325,
      "time_usec": 12425355847
    },
    {
      "frame_id": 283,
      "sensor_timestamp": 12425389093663,
      "time_usec": 12425389093
    },
    {
      "frame_id": 284,
      "sensor_timestamp": 12425422340001,
      "time_usec": 12425422340
    },
    {
      "frame_id": 285,
      "sensor_timestamp": 12425455586339,
      "time_usec": 12425455586
    },
    {
      "frame_id": 286,
      "sensor_timestamp": 12425488832921,
      "time_usec": 12425488832
    },
    {
      "frame_id": 287,
      "sensor_timestamp": 12425522079259,
      "time_usec": 12425522079
    },
    {
      "frame_id": 288,
      "sensor_timestamp": 12425555325597,
      "time_usec": 12425555325
    },
    {
      "frame_id": 289,
      "sensor_timestamp": 12425588571935,
      "time_usec": 12425588571
    },
    {
      "frame_id": 290,
      "sensor_timestamp": 12425621818517,
      "time_usec": 12425621818
    },
    {
      "frame_id": 291,
      "sensor_timestamp": 12425655064855,
      "time_usec": 12425655064
    },
    {
      "frame_id": 292,
      "sensor_timestamp": 12425688311193,
      "time_usec": 12425688311
    },
    {
      "frame_id": 293,
      "sensor_timestamp": 12425721557530,
      "time_usec": 12425721557
    },
    {
      "frame_id": 294,
      "sensor_timestamp": 12425754804112,
      "time_usec": 12425754804
    },
    {
      "frame_id": 295,
      "sensor_timestamp": 12425788050450,
      "time_usec": 12425788050
    },
    {
      "frame_id": 296,
      "sensor_timestamp": 12425821296788,
      "time_usec": 12425821296
    },
    {
      "frame_id": 297,
      "sensor_timestamp": 12425854543126,
      "time_usec": 12425854543
    },
    {
      "frame_id": 298,
      "sensor_timestamp": 12425887789708,
      "time_usec": 12425887789
    },
    {
      "frame_id": 299,
      "sensor_timestamp": 12425921036046,
      "time_usec": 12425921036
    },
    {
      "frame_id": 300,
      "sensor_timestamp": 12425954282384,
      "time_usec": 12425954282
    },
    {
      "frame_id": 301,
      "sensor_timestamp": 12425987528722,
      "time_usec": 12425987528
    },
    {
      "frame_id": 302,
      "sensor_timestamp": 12426020775304,
      "time_usec": 12426020775
    },
    {
      "frame_id": 303,
      "sensor_timestamp": 12426054021642,
      "time_usec": 12426054021
    },
    {
      "frame_id": 304,
      "sensor_timestamp": 12426087267980,
      "time_usec": 12426087267
    },
    {
      "frame_id": 305,
      "sensor_timestamp": 12426120514318,
      "time_usec": 12426120514
    },
    {
      "frame_id": 306,
      "sensor_timestamp": 12426153760655,
      "time_usec": 12426153760
    },
    {
      "frame_id": 307,
      "sensor_timestamp": 12426187007237,
      "time_usec": 12426187007
    },
    {
      "frame_id": 308,
      "sensor_timestamp": 12426220253575,
      "time_usec": 12426220253
    },
    {
      "frame_id": 309,
      "sensor_timestamp": 12426253499913,
      "time_usec": 12426253499
    },
    {
      "frame_id": 310,
      "sensor_timestamp": 12426286746251,
      "time_usec": 12426286746
    },
    {
      "frame_id": 311,
      "sensor_timestamp": 12426319992833,
      "time_usec": 12426319992
    },
    {
      "frame_id": 312,
      "sensor_timestamp": 12426353239171,
      "time_usec": 12426353239
    },
    {
      "frame_id": 313,
      "sensor_timestamp": 12426386485509,
      "time_usec": 12426386485
    },
    {
      "frame_id": 314,
      "sensor_timestamp": 12426419731847,
      "time_usec": 12426419731
    },
    {
      "frame_id": 315,
      "sensor_timestamp": 12426452978429,
      "time_usec": 12426452978
    },
    {
      "frame_id": 316,
      "sensor_timestamp": 12426486224767,
      "time_usec": 12426486224
    },
    {
      "frame_id": 317,
      "sensor_timestamp": 12426519471105,
      "time_usec": 12426519471
    },
    {
      "frame_id": 318,
      "sensor_timestamp": 12426552717443,
      "time_usec": 12426552717
    },
    {
      "frame_id": 319,
      "sensor_timestamp": 12426585964025,
      "time_usec": 12426585964
    },
    {
      "frame_id": 320,
      "sensor_timestamp": 12426619210362,
      "time_usec": 12426619210
    },
    {
      "frame_id": 321,
      "sensor_timestamp": 12426652456700,
      "time_usec": 12426652456
    },
    {
      "frame_id": 322,
      "sensor_timestamp": 12426685703038,
      "time_usec": 12426685703
    },
    {
      "frame_id": 323,
      "sensor_timestamp": 12426718949620,
      "time_usec": 12426718949
    },
    {
      "frame_id": 324,
      "sensor_timestamp": 12426752195958,
      "time_usec": 12426752195
    },
    {
      "frame_id": 325,
      "sensor_timestamp": 12426785442296,
      "time_usec": 12426785442
    },
    {
      "frame_id": 326,
      "sensor_timestamp": 12426818688634,
      "time_usec": 12426818688
    },
    {
      "frame_id": 327,
      "sensor_timestamp": 12426851935216,
      "time_usec": 12426851935
    },
    {
      "frame_id": 328,
      "sensor_timestamp": 12426885181554,
      "time_usec": 12426885181
    },
    {
      "frame_id": 329,
      "sensor_timestamp": 12426918427892,
      "time_usec": 12426918427
    },
    {
      "frame_id": 330,
      "sensor_timestamp": 12426951674230,
      "time_usec": 12426951674
    },
    {
      "frame_id": 331,
      "sensor_timestamp": 12426984920812,
      "time_usec": 12426984920
    },
    {
      "frame_id": 332,
      "sensor_timestamp": 12427018167150,
      "time_usec": 12427018167
    },
    {
      "frame_id": 333,
      "sensor_timestamp": 12427051413487,
      "time_usec": 12427051413
    },
    {
      "frame_id": 334,
      "sensor_timestamp": 12427084659825,
      "time_usec": 12427084659
    },
    {
      "frame_id": 335,
      "sensor_timestamp": 12427117906407,
      "time_usec": 12427117906
    },
    {
      "frame_id": 336,
      "sensor_timestamp": 12427151152745,
      "time_usec": 12427151152
    },
    {
      "frame_id": 337,
      "sensor_timestamp": 12427184399083,
      "time_usec": 12427184399
    },
    {
      "frame_id": 338,
      "sensor_timestamp": 12427217645421,
      "time_usec": 12427217645
    },
    {
      "frame_id": 339,
      "sensor_timestamp": 12427250891759,
      "time_usec": 12427250891
    },
    {
      "frame_id": 340,
      "sensor_timestamp": 12427284138341,
      "time_usec": 12427284138
    },
    {
      "frame_id": 341,
      "sensor_timestamp": 12427317384679,
      "time_usec": 12427317384
    },
    {
      "frame_id": 342,
      "sensor_timestamp": 12427350631017,
      "time_usec": 12427350631
    },
    {
      "frame_id": 343,
      "sensor_timestamp": 12427383877355,
      "time_usec": 12427383877
    },
    {
      "frame_id": 344,
      "sensor_timestamp": 12427417123937,
      "time_usec": 12427417123
    },
    {
      "frame_id": 345,
      "sensor_timestamp": 12427450370275,
      "time_usec": 12427450370
    },
    {
      "frame_id": 346,
      "sensor_timestamp": 12427483616612,
      "time_usec": 12427483616
    },
    {
      "frame_id": 347,
      "sensor_timestamp": 12427516862950,
      "time_usec": 12427516862
    },
    {
      "frame_id": 348,
      "sensor_timestamp": 12427550109532,
      "time_usec": 12427550109
    },
    {
      "frame_id": 349,
      "sensor_timestamp": 12427583355870,
      "time_usec": 12427583355
    },
    {
      "frame_id": 350,
      "sensor_timestamp": 12427616602208,
      "time_usec": 12427616602
    },
    {
      "frame_id": 351,
      "sensor_timestamp": 12427649848546,
      "time_usec": 12427649848
    },
    {
      "frame_id": 352,
      "sensor_timestamp": 12427683095128,
      "time_usec": 12427683095
    },
    {
      "frame_id": 353,
      "sensor_timestamp": 12427716341466,
      "time_usec": 12427716341
    },
    {
      "frame_id": 354,
      "sensor_timestamp": 12427749587804,
      "time_usec": 12427749587
    },
    {
      "frame_id": 355,
      "sensor_timestamp": 12427782834142,
      "time_usec": 12427782834
    },
    {
      "frame_id": 356,
      "sensor_timestamp": 12427816080724,
      "time_usec": 12427816080
    },
    {
      "frame_id": 357,
      "sensor_timestamp": 12427849327062,
      "time_usec": 12427849327
    },
    {
      "frame_id": 358,
      "sensor_timestamp": 12427882573400,
      "time_usec": 12427882573
    },
    {
      "frame_id": 359,
      "sensor_timestamp": 12427915819737,
      "time_usec": 12427915819
    },
    {
      "frame_id": 360,
      "sensor_timestamp": 12427949066319,
      "time_usec": 12427949066
    },
    {
      "frame_id": 361,
      "sensor_timestamp": 12427982312657,
      "time_usec": 12427982312
    },
    {
      "frame_id": 362,
      "sensor_timestamp": 12428015558995,
      "time_usec": 12428015558
    },
    {
      "frame_id": 363,
      "sensor_timestamp": 12428048805333,
      "time_usec": 12428048805
    },
    {
      "frame_id": 364,
      "sensor_timestamp": 12428082051915,
      "time_usec": 12428082051
    },
    {
      "frame_id": 365,
      "sensor_timestamp": 12428115298253,
      "time_usec": 12428115298
    },
    {
      "frame_id": 366,
      "sensor_timestamp": 12428148544591,
      "time_usec": 12428148544
    },
    {
      "frame_id": 367,
      "sensor_timestamp": 12428181790929,
      "time_usec": 12428181790
    },
    {
      "frame_id": 368,
      "sensor_timestamp": 12428215037511,
      "time_usec": 12428215037
    },
    {
      "frame_id": 369,
      "sensor_timestamp": 12428248283849,
      "time_usec": 12428248283
    },
    {
      "frame_id": 370,
      "sensor_timestamp": 12428281530187,
      "time_usec": 12428281530
    },
    {
      "frame_id": 371,
      "sensor_timestamp": 12428314776525,
      "time_usec": 12428314776
    },
    {
      "frame_id": 372,
      "sensor_timestamp": 12428348023107,
      "time_usec": 12428348023
    },
    {
      "frame_id": 373,
      "sensor_timestamp": 12428381269444,
      "time_usec": 12428381269
    },
    {
      "frame_id": 374,
      "sensor_timestamp": 12428414515782,
      "time_usec": 12428414515
    },
    {
      "frame_id": 375,
      "sensor_timestamp": 12428447762120,
      "time_usec": 12428447762
    },
    {
      "frame_id": 376,
      "sensor_timestamp": 12428481008458,
      "time_usec": 12428481008
    },
    {
      "frame_id": 377,
      "sensor_timestamp": 12428514255040,
      "time_usec": 12428514255
    },
    {
      "frame_id": 378,
      "sensor_timestamp": 12428547501378,
      "time_usec": 12428547501
    },
    {
      "frame_id": 379,
      "sensor_timestamp": 12428580747716,
      "time_usec": 12428580747
    },
    {
      "frame_id": 380,
      "sensor_timestamp": 12428613994054,
      "time_usec": 12428613994
    },
    {
      "frame_id": 381,
      "sensor_timestamp": 12428647240636,
      "time_usec": 12428647240
    },
    {
      "frame_id": 382,
      "sensor_timestamp": 12428680486974,
      "time_usec": 12428680486
    },
    {
      "frame_id": 383,
      "sensor_timestamp": 12428713733312,
      "time_usec": 12428713733
    },
    {
      "frame_id": 384,
      "sensor_timestamp": 12428746979650,
      "time_usec": 12428746979
    },
    {
      "frame_id": 385,
      "sensor_timestamp": 12428780226232,
      "time_usec": 12428780226
    },
    {
      "frame_id": 386,
      "sensor_timestamp": 12428813472569,
      "time_usec": 12428813472
    },
    {
      "frame_id": 387,
      "sensor_timestamp": 12428846718907,
      "time_usec": 12428846718
    },
    {
      "frame_id": 388,
      "sensor_timestamp": 12428879965245,
      "time_usec": 12428879965
    },
    {
      "frame_id": 389,
      "sensor_timestamp": 12428913211827,
      "time_usec": 12428913211
    },
    {
      "frame_id": 390,
      "sensor_timestamp": 12428946458165,
      "time_usec": 12428946458
    },
    {
      "frame_id": 391,
      "sensor_timestamp": 12428979704503,
      "time_usec": 12428979704
    },
    {
      "frame_id": 392,
      "sensor_timestamp": 12429012950841,
      "time_usec": 12429012950
    },
    {
      "frame_id": 393,
      "sensor_timestamp": 12429046197423,
      "time_usec": 12429046197
    },
    {
      "frame_id": 394,
      "sensor_timestamp": 12429079443761,
      "time_usec": 12429079443
    },
    {
      "frame_id": 395,
      "sensor_timestamp": 12429112690099,
      "time_usec": 12429112690
    },
    {
      "frame_id": 396,
      "sensor_timestamp": 12429145936437,
      "time_usec": 12429145936
    },
    {
      "frame_id": 397,
      "sensor_timestamp": 12429179183019,
      "time_usec": 12429179183
    },
    {
      "frame_id": 398,
      "sensor_timestamp": 12429212429357,
      "time_usec": 12429212429
    },
    {
      "frame_id": 399,
      "sensor_timestamp": 12429245675694,
      "time_usec": 12429245675
    },
    {
      "frame_id": 400,
      "sensor_timestamp": 12429278922032,
      "time_usec": 12429278922
    },
    {
      "frame_id": 401,
      "sensor_timestamp": 12429312168614,
      "time_usec": 12429312168
    },
    {
      "frame_id": 402,
      "sensor_timestamp": 12429345414952,
      "time_usec": 12429345414
    },
    {
      "frame_id": 403,
      "sensor_timestamp": 12429378661290,
      "time_usec": 12429378661
    },
    {
      "frame_id": 404,
      "sensor_timestamp": 12429411907628,
      "time_usec": 12429411907
    },
    {
      "frame_id": 405,
      "sensor_timestamp": 12429445154210,
      "time_usec": 12429445154
    },
    {
      "frame_id": 406,
      "sensor_timestamp": 12429478400548,
      "time_usec": 12429478400
    },
    {
      "frame_id": 407,
      "sensor_timestamp": 12429511646886,
      "time_usec": 12429511646
    },
    {
      "frame_id": 408,
      "sensor_timestamp": 12429544893224,
      "time_usec": 12429544893
    },
    {
      "frame_id": 409,
      "sensor_timestamp": 12429578139806,
      "time_usec": 12429578139
    },
    {
      "frame_id": 410,
      "sensor_timestamp": 12429611386144,
      "time_usec": 12429611386
    },
    {
      "frame_id": 411,
      "sensor_timestamp": 12429644632482,
      "time_usec": 12429644632
    },
    {
      "frame_id": 412,
      "sensor_timestamp": 12429677878819,
      "time_usec": 12429677878
    },
    {
      "frame_id": 413,
      "sensor_timestamp": 12429711125157,
      "time_usec": 12429711125
    },
    {
      "frame_id": 414,
      "sensor_timestamp": 12429744371739,
      "time_usec": 12429744371
    },
    {
      "frame_id": 415,
      "sensor_timestamp": 12429777618077,
      "time_usec": 12429777618
    },
    {
      "frame_id": 416,
      "sensor_timestamp": 12429810864415,
      "time_usec": 12429810864
    },
    {
      "frame_id": 417,
      "sensor_timestamp": 12429844110753,
      "time_usec": 12429844110
    },
    {
      "frame_id": 418,
      "sensor_timestamp": 12429877357335,
      "time_usec": 12429877357
    },
    {
      "frame_id": 419,
      "sensor_timestamp": 12429910603673,
      "time_usec": 12429910603
    },
    {
      "frame_id": 420,
      "sensor_timestamp": 12429943850011,
      "time_usec": 12429943850
    },
    {
      "frame_id": 421,
      "sensor_timestamp": 12429977096349,
      "time_usec": 12429977096
    },
    {
      "frame_id": 422,
      "sensor_timestamp": 12430010342931,
      "time_usec": 12430010342
    },
    {
      "frame_id": 423,
      "sensor_timestamp": 12430043589269,
      "time_usec": 12430043589
    },
    {
      "frame_id": 424,
      "sensor_timestamp": 12430076835607,
      "time_usec": 12430076835
    },
    {
      "frame_id": 425,
      "sensor_timestamp": 12430110081944,
      "time_usec": 12430110081
    },
    {
      "frame_id": 426,
      "sensor_timestamp": 12430143328527,
      "time_usec": 12430143328
    },
    {
      "frame_id": 427,
      "sensor_timestamp": 12430176574864,
      "time_usec": 12430176574
    },
    {
      "frame_id": 428,
      "sensor_timestamp": 12430209821202,
      "time_usec": 12430209821
    },
    {
      "frame_id": 429,
      "sensor_timestamp": 12430243067540,
      "time_usec": 12430243067
    },
    {
      "frame_id": 430,
      "sensor_timestamp": 12430276314122,
      "time_usec": 12430276314
    },
    {
      "frame_id": 431,
      "sensor_timestamp": 12430312341091,
      "time_usec": 12430312341
    },
    {
      "frame_id": 432,
      "sensor_timestamp": 12430345587429,
      "time_usec": 12430345587
    },
    {
      "frame_id": 433,
      "sensor_timestamp": 12430378833767,
      "time_usec": 12430378833
    },
    {
      "frame_id": 434,
      "sensor_timestamp": 12430412080349,
      "time_usec": 12430412080
    },
    {
      "frame_id": 435,
      "sensor_timestamp": 12430445326687,
      "time_usec": 12430445326
    },
    {
      "frame_id": 436,
      "sensor_timestamp": 12430478573025,
      "time_usec": 12430478573
    },
    {
      "frame_id": 437,
      "sensor_timestamp": 12430511819363,
      "time_usec": 12430511819
    },
    {
      "frame_id": 438,
      "sensor_timestamp": 12430545065945,
      "time_usec": 12430545065
    },
    {
      "frame_id": 439,
      "sensor_timestamp": 12430578312283,
      "time_usec": 12430578312
    },
    {
      "frame_id": 440,
      "sensor_timestamp": 12430611558620,
      "time_usec": 12430611558
    },
    {
      "frame_id": 441,
      "sensor_timestamp": 12430644804958,
      "time_usec": 12430644804
    },
    {
      "frame_id": 442,
      "sensor_timestamp": 12430678051540,
      "time_usec": 12430678051
    },
    {
      "frame_id": 443,
      "sensor_timestamp": 12430711297878,
      "time_usec": 12430711297
    },
    {
      "frame_id": 444,
      "sensor_timestamp": 12430744544216,
      "time_usec": 12430744544
    },
    {
      "frame_id": 445,
      "sensor_timestamp": 12430777790554,
      "time_usec": 12430777790
    },
    {
      "frame_id": 446,
      "sensor_timestamp": 12430811037136,
      "time_usec": 12430811037
    },
    {
      "frame_id": 447,
      "sensor_timestamp": 12430844283474,
      "time_usec": 12430844283
    },
    {
      "frame_id": 448,
      "sensor_timestamp": 12430877529812,
      "time_usec": 12430877529
    },
    {
      "frame_id": 449,
      "sensor_timestamp": 12430910776150,
      "time_usec": 12430910776
    },
    {
      "frame_id": 450,
      "sensor_timestamp": 12430944022488,
      "time_usec": 12430944022
    },
    {
      "frame_id": 451,
      "sensor_timestamp": 12430977269070,
      "time_usec": 12430977269
    },
    {
      "frame_id": 452,
      "sensor_timestamp": 12431010515408,
      "time_usec": 12431010515
    },
    {
      "frame_id": 453,
      "sensor_timestamp": 12431043761745,
      "time_usec": 12431043761
    },
    {
      "frame_id": 454,
      "sensor_timestamp": 12431077008083,
      "time_usec": 12431077008
    },
    {
      "frame_id": 455,
      "sensor_timestamp": 12431110254665,
      "time_usec": 12431110254
    },
    {
      "frame_id": 456,
      "sensor_timestamp": 12431143501003,
      "time_usec": 12431143501
    },
    {
      "frame_id": 457,
      "sensor_timestamp": 12431176747341,
      "time_usec": 12431176747
    },
    {
      "frame_id": 458,
      "sensor_timestamp": 12431209993679,
      "time_usec": 12431209993
    },
    {
      "frame_id": 459,
      "sensor_timestamp": 12431243240261,
      "time_usec": 12431243240
    },
    {
      "frame_id": 460,
      "sensor_timestamp": 12431276486599,
      "time_usec": 12431276486
    },
    {
      "frame_id": 461,
      "sensor_timestamp": 12431309732937,
      "time_usec": 12431309732
    },
    {
      "frame_id": 462,
      "sensor_timestamp": 12431342979275,
      "time_usec": 12431342979
    },
    {
      "frame_id": 463,
      "sensor_timestamp": 12431376225857,
      "time_usec": 12431376225
    },
    {
      "frame_id": 464,
      "sensor_timestamp": 12431409472195,
      "time_usec": 12431409472
    },
    {
      "frame_id": 465,
      "sensor_timestamp": 12431442718533,
      "time_usec": 12431442718
    },
    {
      "frame_id": 466,
      "sensor_timestamp": 12431475964870,
      "time_usec": 12431475964
    },
    {
      "frame_id": 467,
      "sensor_timestamp": 12431509211452,
      "time_usec": 12431509211
    },
    {
      "frame_id": 468,
      "sensor_timestamp": 12431542457790,
      "time_usec": 12431542457
    },
    {
      "frame_id": 469,
      "sensor_timestamp": 12431575704128,
      "time_usec": 12431575704
    },
    {
      "frame_id": 470,
      "sensor_timestamp": 12431608950466,
      "time_usec": 12431608950
    },
    {
      "frame_id": 471,
      "sensor_timestamp": 12431642197048,
      "time_usec": 12431642197
    },
    {
      "frame_id": 472,
      "sensor_timestamp": 12431675443386,
      "time_usec": 12431675443
    },
    {
      "frame_id": 473,
      "sensor_timestamp": 12431708689724,
      "time_usec": 12431708689
    },
    {
      "frame_id": 474,
      "sensor_timestamp": 12431741936062,
      "time_usec": 12431741936
    },
    {
      "frame_id": 475,
      "sensor_timestamp": 12431775182644,
      "time_usec": 12431775182
    },
    {
      "frame_id": 476,
      "sensor_timestamp": 12431808428982,
      "time_usec": 12431808428
    },
    {
      "frame_id": 477,
      "sensor_timestamp": 12431841675320,
      "time_usec": 12431841675
    },
    {
      "frame_id": 478,
      "sensor_timestamp": 12431874921658,
      "time_usec": 12431874921
    },
    {
      "frame_id": 479,
      "sensor_timestamp": 12431908168240,
      "time_usec": 12431908168
    },
    {
      "frame_id": 480,
      "sensor_timestamp": 12431941414577,
      "time_usec": 12431941414
    },
    {
      "frame_id": 481,
      "sensor_timestamp": 12431974660915,
      "time_usec": 12431974660
    },
    {
      "frame_id": 482,
      "sensor_timestamp": 12432007907253,
      "time_usec": 12432007907
    },
    {
      "frame_id": 483,
      "sensor_timestamp": 12432041153835,
      "time_usec": 12432041153
    },
    {
      "frame_id": 484,
      "sensor_timestamp": 12432074400173,
      "time_usec": 12432074400
    },
    {
      "frame_id": 485,
      "sensor_timestamp": 12432107646511,
      "time_usec": 12432107646
    },
    {
      "frame_id": 486,
      "sensor_timestamp": 12432140892849,
      "time_usec": 12432140892
    },
    {
      "frame_id": 487,
      "sensor_timestamp": 12432174139187,
      "time_usec": 12432174139
    },
    {
      "frame_id": 488,
      "sensor_timestamp": 12432207385769,
      "time_usec": 12432207385
    },
    {
      "frame_id": 489,
      "sensor_timestamp": 12432240632107,
      "time_usec": 12432240632
    },
    {
      "frame_id": 490,
      "sensor_timestamp": 12432273878445,
      "time_usec": 12432273878
    },
    {
      "frame_id": 491,
      "sensor_timestamp": 12432307124783,
      "time_usec": 12432307124
    },
    {
      "frame_id": 492,
      "sensor_timestamp": 12432340371365,
      "time_usec": 12432340371
    },
    {
      "frame_id": 493,
      "sensor_timestamp": 12432373617702,
      "time_usec": 12432373617
    },
    {
      "frame_id": 494,
      "sensor_timestamp": 12432406864040,
      "time_usec": 12432406864
    },
    {
      "frame_id": 495,
      "sensor_timestamp": 12432440110378,
      "time_usec": 12432440110
    },
    {
      "frame_id": 496,
      "sensor_timestamp": 12432473356960,
      "time_usec": 12432473356
    },
    {
      "frame_id": 497,
      "sensor_timestamp": 12432506603298,
      "time_usec": 12432506603
    },
    {
      "frame_id": 498,
      "sensor_timestamp": 12432539849636,
      "time_usec": 12432539849
    },
    {
      "frame_id": 499,
      "sensor_timestamp": 12432573095974,
      "time_usec": 12432573095
    },
    {
      "frame_id": 500,
      "sensor_timestamp": 12432606342556,
      "time_usec": 12432606342
    },
    {
      "frame_id": 501,
      "sensor_timestamp": 12432639588894,
      "time_usec": 12432639588
    },
    {
      "frame_id": 502,
      "sensor_timestamp": 12432672835232,
      "time_usec": 12432672835
    },
    {
      "frame_id": 503,
      "sensor_timestamp": 12432706081570,
      "time_usec": 12432706081
    },
    {
      "frame_id": 504,
      "sensor_timestamp": 12432739328152,
      "time_usec": 12432739328
    },
    {
      "frame_id": 505,
      "sensor_timestamp": 12432772574490,
      "time_usec": 12432772574
    },
    {
      "frame_id": 506,
      "sensor_timestamp": 12432805820827,
      "time_usec": 12432805820
    },
    {
      "frame_id": 507,
      "sensor_timestamp": 12432839067165,
      "time_usec": 12432839067
    },
    {
      "frame_id": 508,
      "sensor_timestamp": 12432869533116,
      "time_usec": 12432869533
    },
    {
      "frame_id": 509,
      "sensor_timestamp": 12432902779454,
      "time_usec": 12432902779
    },
    {
      "frame_id": 510,
      "sensor_timestamp": 12432936025792,
      "time_usec": 12432936025
    },
    {
      "frame_id": 511,
      "sensor_timestamp": 12432969272130,
      "time_usec": 12432969272
    },
    {
      "frame_id": 512,
      "sensor_timestamp": 12433002518712,
      "time_usec": 12433002518
    },
    {
      "frame_id": 513,
      "sensor_timestamp": 12433035765050,
      "time_usec": 12433035765
    },
    {
      "frame_id": 514,
      "sensor_timestamp": 12433069011388,
      "time_usec": 12433069011
    },
    {
      "frame_id": 515,
      "sensor_timestamp": 12433102257726,
      "time_usec": 12433102257
    },
    {
      "frame_id": 516,
      "sensor_timestamp": 12433135504308,
      "time_usec": 12433135504
    },
    {
      "frame_id": 517,
      "sensor_timestamp": 12433168750646,
      "time_usec": 12433168750
    },
    {
      "frame_id": 518,
      "sensor_timestamp": 12433201996984,
      "time_usec": 12433201996
    },
    {
      "frame_id": 519,
      "sensor_timestamp": 12433235243321,
      "time_usec": 12433235243
    },
    {
      "frame_id": 520,
      "sensor_timestamp": 12433268489659,
      "time_usec": 12433268489
    },
    {
      "frame_id": 521,
      "sensor_timestamp": 12433301736241,
      "time_usec": 12433301736
    },
    {
      "frame_id": 522,
      "sensor_timestamp": 12433334982579,
      "time_usec": 12433334982
    },
    {
      "frame_id": 523,
      "sensor_timestamp": 12433368228917,
      "time_usec": 12433368228
    },
    {
      "frame_id": 524,
      "sensor_timestamp": 12433401475255,
      "time_usec": 12433401475
    },
    {
      "frame_id": 525,
      "sensor_timestamp": 12433434721837,
      "time_usec": 12433434721
    },
    {
      "frame_id": 526,
      "sensor_timestamp": 12433467968175,
      "time_usec": 12433467968
    },
    {
      "frame_id": 527,
      "sensor_timestamp": 12433501214513,
      "time_usec": 12433501214
    },
    {
      "frame_id": 528,
      "sensor_timestamp": 12433534460851,
      "time_usec": 12433534460
    },
    {
      "frame_id": 529,
      "sensor_timestamp": 12433567707433,
      "time_usec": 12433567707
    },
    {
      "frame_id": 530,
      "sensor_timestamp": 12433600953771,
      "time_usec": 12433600953
    },
    {
      "frame_id": 531,
      "sensor_timestamp": 12433634200109,
      "time_usec": 12433634200
    },
    {
      "frame_id": 532,
      "sensor_timestamp": 12433667446446,
      "time_usec": 12433667446
    },
    {
      "frame_id": 533,
      "sensor_timestamp": 12433700693028,
      "time_usec": 12433700693
    },
    {
      "frame_id": 534,
      "sensor_timestamp": 12433733939366,
      "time_usec": 12433733939
    },
    {
      "frame_id": 535,
      "sensor_timestamp": 12433767185704,
      "time_usec": 12433767185
    },
    {
      "frame_id": 536,
      "sensor_timestamp": 12433800432042,
      "time_usec": 12433800432
    },
    {
      "frame_id": 537,
      "sensor_timestamp": 12433833678624,
      "time_usec": 12433833678
    },
    {
      "frame_id": 538,
      "sensor_timestamp": 12433866924962,
      "time_usec": 12433866924
    },
    {
      "frame_id": 539,
      "sensor_timestamp": 12433900171300,
      "time_usec": 12433900171
    },
    {
      "frame_id": 540,
      "sensor_timestamp": 12433933417638,
      "time_usec": 12433933417
    },
    {
      "frame_id": 541,
      "sensor_timestamp": 12433966664220,
      "time_usec": 12433966664
    },
    {
      "frame_id": 542,
      "sensor_timestamp": 12433999910558,
      "time_usec": 12433999910
    },
    {
      "frame_id": 543,
      "sensor_timestamp": 12434033156896,
      "time_usec": 12434033156
    },
    {
      "frame_id": 544,
      "sensor_timestamp": 12434066403234,
      "time_usec": 12434066403
    },
    {
      "frame_id": 545,
      "sensor_timestamp": 12434099649816,
      "time_usec": 12434099649
    },
    {
      "frame_id": 546,
      "sensor_timestamp": 12434132896153,
      "time_usec": 12434132896
    },
    {
      "frame_id": 547,
      "sensor_timestamp": 12434166142491,
      "time_usec": 12434166142
    },
    {
      "frame_id": 548,
      "sensor_timestamp": 12434199388829,
      "time_usec": 12434199388
    },
    {
      "frame_id": 549,
      "sensor_timestamp": 12434232635411,
      "time_usec": 12434232635
    },
    {
      "frame_id": 550,
      "sensor_timestamp": 12434265881749,
      "time_usec": 12434265881
    },
    {
      "frame_id": 551,
