{
  "accelerations": [
    {
      "x": 9.768698692321777,
      "y": 0.2632105052471161,
      "z": 0.5940182209014893,
      "time_usec": 102332786250
    },
    {
      "x": 9.77826976776123,
      "y": 0.2727817893028259,
      "z": 0.584446907043457,
      "time_usec": 102332788520
    },
    {
      "x": 9.759725570678711,
      "y": 0.2679961323738098,
      "z": 0.5748756527900696,
      "time_usec": 102332790774
    },
    {
      "x": 9.764511108398438,
      "y": 0.2584248483181,
      "z": 0.5653043389320374,
      "time_usec": 102332793026
    },
    {
      "x": 9.750154495239258,
      "y": 0.2727817893028259,
      "z": 0.5365904569625854,
      "time_usec": 102332795290
    },
    {
      "x": 9.731011390686035,
      "y": 0.2679961323738098,
      "z": 0.527019202709198,
      "time_usec": 102332797548
    },
    {
      "x": 9.722038269042969,
      "y": 0.27756741642951965,
      "z": 0.5222335457801819,
      "time_usec": 102332799808
    },
    {
      "x": 9.726225852966309,
      "y": 0.23449662327766418,
      "z": 0.5126622319221497,
      "time_usec": 102332802062
    },
    {
      "x": 9.731011390686035,
      "y": 0.23449662327766418,
      "z": 0.5078766345977783,
      "time_usec": 102332804319
    },
    {
      "x": 9.740582466125488,
      "y": 0.22971096634864807,
      "z": 0.5365904569625854,
      "time_usec": 102332806578
    },
    {
      "x": 9.735796928405762,
      "y": 0.24885354936122894,
      "z": 0.5557330846786499,
      "time_usec": 102332808839
    },
    {
      "x": 9.754940032958984,
      "y": 0.2584248483181,
      "z": 0.5700899958610535,
      "time_usec": 102332811091
    },
    {
      "x": 9.750154495239258,
      "y": 0.2919243574142456,
      "z": 0.5940182209014893,
      "time_usec": 102332813346
    },
    {
      "x": 9.759725570678711,
      "y": 0.27756741642951965,
      "z": 0.5988038778305054,
      "time_usec": 102332815596
    },
    {
      "x": 9.773484230041504,
      "y": 0.28235307335853577,
      "z": 0.617946445941925,
      "time_usec": 102332817857
    },
    {
      "x": 9.754940032958984,
      "y": 0.2919243574142456,
      "z": 0.6227321028709412,
      "time_usec": 102332820118
    },
    {
      "x": 9.76391315460205,
      "y": 0.24885354936122894,
      "z": 0.6323033571243286,
      "time_usec": 102332822376
    },
    {
      "x": 9.759127616882324,
      "y": 0.23449662327766418,
      "z": 0.6323033571243286,
      "time_usec": 102332824630
    },
    {
      "x": 9.768698692321777,
      "y": 0.22013968229293823,
      "z": 0.6370890140533447,
      "time_usec": 102332826877
    },
    {
      "x": 9.76391315460205,
      "y": 0.20578274130821228,
      "z": 0.6323033571243286,
      "time_usec": 102332829147
    },
    {
      "x": 9.763314247131348,
      "y": 0.20099709928035736,
      "z": 0.6610172390937805,
      "time_usec": 102332831403
    },
    {
      "x": 9.777671813964844,
      "y": 0.22971096634864807,
      "z": 0.6610172390937805,
      "time_usec": 102332833663
    },
    {
      "x": 9.772886276245117,
      "y": 0.22971096634864807,
      "z": 0.6610172390937805,
      "time_usec": 102332835917
    },
    {
      "x": 9.76391315460205,
      "y": 0.22013968229293823,
      "z": 0.6610172390937805,
      "time_usec": 102332838173
    },
    {
      "x": 9.768099784851074,
      "y": 0.22013968229293823,
      "z": 0.6658028960227966,
      "time_usec": 102332840426
    },
    {
      "x": 9.768099784851074,
      "y": 0.2153540402650833,
      "z": 0.6658028960227966,
      "time_usec": 102332842689
    },
    {
      "x": 9.768099784851074,
      "y": 0.22971096634864807,
      "z": 0.6801598072052002,
      "time_usec": 102332844946
    },
    {
      "x": 9.753743171691895,
      "y": 0.22971096634864807,
      "z": 0.6945167779922485,
      "time_usec": 102332847204
    },
    {
      "x": 9.758528709411621,
      "y": 0.22492532432079315,
      "z": 0.7136593461036682,
      "time_usec": 102332849456
    },
    {
      "x": 9.739386558532715,
      "y": 0.2350948303937912,
      "z": 0.7322037220001221,
      "time_usec": 102332851717
    },
    {
      "x": 9.734601020812988,
      "y": 0.24466611444950104,
      "z": 0.7369893789291382,
      "time_usec": 102332853973
    },
    {
      "x": 9.730413436889648,
      "y": 0.24945175647735596,
      "z": 0.7130611538887024,
      "time_usec": 102332856232
    },
    {
      "x": 9.7064847946167,
      "y": 0.24945175647735596,
      "z": 0.727418065071106,
      "time_usec": 102332858486
    },
    {
      "x": 9.716055870056152,
      "y": 0.24466611444950104,
      "z": 0.7369893789291382,
      "time_usec": 102332860737
    },
    {
      "x": 9.716055870056152,
      "y": 0.2590230405330658,
      "z": 0.7226324677467346,
      "time_usec": 102332862993
    },
    {
      "x": 9.687342643737793,
      "y": 0.25423741340637207,
      "z": 0.7322037220001221,
      "time_usec": 102332865260
    },
    {
      "x": 9.683155059814453,
      "y": 0.268594354391098,
      "z": 0.7130611538887024,
      "time_usec": 102332867517
    },
    {
      "x": 9.654440879821777,
      "y": 0.27337998151779175,
      "z": 0.7082754969596863,
      "time_usec": 102332869770
    },
    {
      "x": 9.68794059753418,
      "y": 0.2925225794315338,
      "z": 0.698704183101654,
      "time_usec": 102332872030
    },
    {
      "x": 9.668798446655273,
      "y": 0.29730820655822754,
      "z": 0.6652047038078308,
      "time_usec": 102332874286
    },
    {
      "x": 9.678967475891113,
      "y": 0.3068794906139374,
      "z": 0.641276478767395,
      "time_usec": 102332876539
    },
    {
      "x": 9.66939640045166,
      "y": 0.3068794906139374,
      "z": 0.6221339106559753,
      "time_usec": 102332878795
    },
    {
      "x": 9.66939640045166,
      "y": 0.30209386348724365,
      "z": 0.6173482537269592,
      "time_usec": 102332881053
    },
    {
      "x": 9.674181938171387,
      "y": 0.30209386348724365,
      "z": 0.6317051649093628,
      "time_usec": 102332883318
    },
    {
      "x": 9.673583984375,
      "y": 0.2829512655735016,
      "z": 0.6364908218383789,
      "time_usec": 102332885577
    },
    {
      "x": 9.678369522094727,
      "y": 0.27816563844680786,
      "z": 0.6364908218383789,
      "time_usec": 102332887830
    },
    {
      "x": 9.68375301361084,
      "y": 0.3116651475429535,
      "z": 0.6317051649093628,
      "time_usec": 102332890078
    },
    {
      "x": 9.70229721069336,
      "y": 0.2925225794315338,
      "z": 0.6317051649093628,
      "time_usec": 102332892327
    },
    {
      "x": 9.711869239807129,
      "y": 0.2925225794315338,
      "z": 0.617946445941925,
      "time_usec": 102332894588
    },
    {
      "x": 9.726225852966309,
      "y": 0.268594354391098,
      "z": 0.6131607890129089,
      "time_usec": 102332896848
    },
    {
      "x": 9.726225852966309,
      "y": 0.2638086974620819,
      "z": 0.6035895347595215,
      "time_usec": 102332899102
    },
    {
      "x": 9.745368003845215,
      "y": 0.2584248483181,
      "z": 0.5940182209014893,
      "time_usec": 102332901362
    },
    {
      "x": 9.735796928405762,
      "y": 0.2727817893028259,
      "z": 0.5988038778305054,
      "time_usec": 102332903631
    },
    {
      "x": 9.750154495239258,
      "y": 0.2632105052471161,
      "z": 0.5988038778305054,
      "time_usec": 102332905889
    },
    {
      "x": 9.749555587768555,
      "y": 0.25363919138908386,
      "z": 0.5988038778305054,
      "time_usec": 102332908144
    },
    {
      "x": 9.77826976776123,
      "y": 0.2584248483181,
      "z": 0.5988038778305054,
      "time_usec": 102332910392
    },
    {
      "x": 9.77408218383789,
      "y": 0.2919243574142456,
      "z": 0.5940182209014893,
      "time_usec": 102332912646
    },
    {
      "x": 9.764511108398438,
      "y": 0.30628129839897156,
      "z": 0.5940182209014893,
      "time_usec": 102332914915
    },
    {
      "x": 9.773484230041504,
      "y": 0.2919243574142456,
      "z": 0.6131607890129089,
      "time_usec": 102332917171
    },
    {
      "x": 9.80219841003418,
      "y": 0.31106695532798767,
      "z": 0.6323033571243286,
      "time_usec": 102332919427
    },
    {
      "x": 9.79262638092041,
      "y": 0.31106695532798767,
      "z": 0.6370890140533447,
      "time_usec": 102332921686
    },
    {
      "x": 9.79262638092041,
      "y": 0.31106695532798767,
      "z": 0.6275177597999573,
      "time_usec": 102332923942
    },
    {
      "x": 9.79262638092041,
      "y": 0.30149564146995544,
      "z": 0.6083751320838928,
      "time_usec": 102332926200
    },
    {
      "x": 9.783653259277344,
      "y": 0.30149564146995544,
      "z": 0.5940182209014893,
      "time_usec": 102332928453
    },
    {
      "x": 9.78843879699707,
      "y": 0.31106695532798767,
      "z": 0.5467599630355835,
      "time_usec": 102332930699
    },
    {
      "x": 9.769296646118164,
      "y": 0.31106695532798767,
      "z": 0.5748756527900696,
      "time_usec": 102332932963
    },
    {
      "x": 9.741181373596191,
      "y": 0.32542386651039124,
      "z": 0.527019202709198,
      "time_usec": 102332935211
    },
    {
      "x": 9.726823806762695,
      "y": 0.3397808074951172,
      "z": 0.5318048596382141,
      "time_usec": 102332937473
    },
    {
      "x": 9.745368003845215,
      "y": 0.2967100143432617,
      "z": 0.5557330846786499,
      "time_usec": 102332939727
    },
    {
      "x": 9.727422714233398,
      "y": 0.3397808074951172,
      "z": 0.3888336718082428,
      "time_usec": 102332941989
    },
    {
      "x": 9.726823806762695,
      "y": 0.32542386651039124,
      "z": 0.527019202709198,
      "time_usec": 102332944255
    },
    {
      "x": 9.732208251953125,
      "y": 0.33020952343940735,
      "z": 0.43609192967414856,
      "time_usec": 102332946500
    },
    {
      "x": 9.736394882202148,
      "y": 0.3445664644241333,
      "z": 0.48873403668403625,
      "time_usec": 102332948759
    },
    {
      "x": 9.745966911315918,
      "y": 0.349352091550827,
      "z": 0.5605186820030212,
      "time_usec": 102332951019
    },
    {
      "x": 9.731609344482422,
      "y": 0.3445664644241333,
      "z": 0.5174478888511658,
      "time_usec": 102332953275
    },
    {
      "x": 9.722038269042969,
      "y": 0.32123643159866333,
      "z": 0.584446907043457,
      "time_usec": 102332955529
    },
    {
      "x": 9.707681655883789,
      "y": 0.3164508044719696,
      "z": 0.5988038778305054,
      "time_usec": 102332957786
    },
    {
      "x": 9.716654777526855,
      "y": 0.3116651475429535,
      "z": 0.6131607890129089,
      "time_usec": 102332960048
    },
    {
      "x": 9.697511672973633,
      "y": 0.29730820655822754,
      "z": 0.641276478767395,
      "time_usec": 102332962299
    },
    {
      "x": 9.66939640045166,
      "y": 0.27816563844680786,
      "z": 0.6317051649093628,
      "time_usec": 102332964558
    },
    {
      "x": 9.68794059753418,
      "y": 0.2590230405330658,
      "z": 0.6460621356964111,
      "time_usec": 102332966820
    },
    {
      "x": 9.673583984375,
      "y": 0.25423741340637207,
      "z": 0.6364908218383789,
      "time_usec": 102332969070
    },
    {
      "x": 9.659825325012207,
      "y": 0.25423741340637207,
      "z": 0.6221339106559753,
      "time_usec": 102332971331
    },
    {
      "x": 9.668798446655273,
      "y": 0.24466611444950104,
      "z": 0.6125625967979431,
      "time_usec": 102332973596
    },
    {
      "x": 9.674181938171387,
      "y": 0.2590230405330658,
      "z": 0.5790630578994751,
      "time_usec": 102332975845
    },
    {
      "x": 9.688538551330566,
      "y": 0.2638086974620819,
      "z": 0.5557330846786499,
      "time_usec": 102332978113
    },
    {
      "x": 9.68375301361084,
      "y": 0.2877369225025177,
      "z": 0.5413761138916016,
      "time_usec": 102332980363
    },
    {
      "x": 9.693324089050293,
      "y": 0.29730820655822754,
      "z": 0.5174478888511658,
      "time_usec": 102332982627
    },
    {
      "x": 9.693922996520996,
      "y": 0.33080771565437317,
      "z": 0.5078766345977783,
      "time_usec": 102332984876
    },
    {
      "x": 9.70349407196045,
      "y": 0.33499518036842346,
      "z": 0.4695914387702942,
      "time_usec": 102332987126
    },
    {
      "x": 9.708279609680176,
      "y": 0.363709032535553,
      "z": 0.4408775866031647,
      "time_usec": 102332989392
    },
    {
      "x": 9.717850685119629,
      "y": 0.3684946894645691,
      "z": 0.46002015471458435,
      "time_usec": 102332991653
    },
    {
      "x": 9.727422714233398,
      "y": 0.349352091550827,
      "z": 0.46480581164360046,
      "time_usec": 102332993903
    },
    {
      "x": 9.713065147399902,
      "y": 0.373878538608551,
      "z": 0.5078766345977783,
      "time_usec": 102332996166
    },
    {
      "x": 9.731609344482422,
      "y": 0.3445664644241333,
      "z": 0.5557330846786499,
      "time_usec": 102332998410
    },
    {
      "x": 9.736394882202148,
      "y": 0.3206382393836975,
      "z": 0.5700899958610535,
      "time_usec": 102333000676
    },
    {
      "x": 9.711869239807129,
      "y": 0.29730820655822754,
      "z": 0.6227321028709412,
      "time_usec": 102333002922
    },
    {
      "x": 9.726225852966309,
      "y": 0.27337998151779175,
      "z": 0.6418746709823608,
      "time_usec": 102333005186
    },
    {
      "x": 9.725627899169922,
      "y": 0.268594354391098,
      "z": 0.6843472719192505,
      "time_usec": 102333007451
    },
    {
      "x": 9.725627899169922,
      "y": 0.23988047242164612,
      "z": 0.6795616149902344,
      "time_usec": 102333009698
    },
    {
      "x": 9.720842361450195,
      "y": 0.2350948303937912,
      "z": 0.6891329288482666,
      "time_usec": 102333011957
    },
    {
      "x": 9.720842361450195,
      "y": 0.22073788940906525,
      "z": 0.7082754969596863,
      "time_usec": 102333014224
    },
    {
      "x": 9.730413436889648,
      "y": 0.22552353143692017,
      "z": 0.698704183101654,
      "time_usec": 102333016481
    },
    {
      "x": 9.739984512329102,
      "y": 0.2111666053533554,
      "z": 0.6849454641342163,
      "time_usec": 102333018725
    },
    {
      "x": 9.739984512329102,
      "y": 0.22552353143692017,
      "z": 0.6849454641342163,
      "time_usec": 102333020982
    },
    {
      "x": 9.739984512329102,
      "y": 0.22552353143692017,
      "z": 0.6993024349212646,
      "time_usec": 102333023252
    },
    {
      "x": 9.748957633972168,
      "y": 0.22013968229293823,
      "z": 0.7040880918502808,
      "time_usec": 102333025512
    },
    {
      "x": 9.754341125488281,
      "y": 0.25363919138908386,
      "z": 0.6945167779922485,
      "time_usec": 102333027769
    },
    {
      "x": 9.763314247131348,
      "y": 0.25363919138908386,
      "z": 0.7040880918502808,
      "time_usec": 102333030018
    },
    {
      "x": 9.749555587768555,
      "y": 0.268594354391098,
      "z": 0.6849454641342163,
      "time_usec": 102333032279
    },
    {
      "x": 9.744770050048828,
      "y": 0.2584248483181,
      "z": 0.6658028960227966,
      "time_usec": 102333034532
    },
    {
      "x": 9.730413436889648,
      "y": 0.2590230405330658,
      "z": 0.6514459848403931,
      "time_usec": 102333036791
    },
    {
      "x": 9.754341125488281,
      "y": 0.25363919138908386,
      "z": 0.6275177597999573,
      "time_usec": 102333039043
    },
    {
      "x": 9.754341125488281,
      "y": 0.24406790733337402,
      "z": 0.6131607890129089,
      "time_usec": 102333041295
    },
    {
      "x": 9.740582466125488,
      "y": 0.23449662327766418,
      "z": 0.5988038778305054,
      "time_usec": 102333043562
    },
    {
      "x": 9.745368003845215,
      "y": 0.22971096634864807,
      "z": 0.5796613097190857,
      "time_usec": 102333045825
    },
    {
      "x": 9.731011390686035,
      "y": 0.23449662327766418,
      "z": 0.5748756527900696,
      "time_usec": 102333048081
    },
    {
      "x": 9.726225852966309,
      "y": 0.22013968229293823,
      "z": 0.5700899958610535,
      "time_usec": 102333050332
    },
    {
      "x": 9.716654777526855,
      "y": 0.22492532432079315,
      "z": 0.5940182209014893,
      "time_usec": 102333052593
    },
    {
      "x": 9.70229721069336,
      "y": 0.2111666053533554,
      "z": 0.5988038778305054,
      "time_usec": 102333054850
    },
    {
      "x": 9.716055870056152,
      "y": 0.2063809484243393,
      "z": 0.617946445941925,
      "time_usec": 102333057107
    },
    {
      "x": 9.720842361450195,
      "y": 0.20578274130821228,
      "z": 0.6035895347595215,
      "time_usec": 102333059356
    },
    {
      "x": 9.7064847946167,
      "y": 0.18723836541175842,
      "z": 0.6317051649093628,
      "time_usec": 102333061622
    },
    {
      "x": 9.711270332336426,
      "y": 0.19202402234077454,
      "z": 0.6364908218383789,
      "time_usec": 102333063876
    },
    {
      "x": 9.7064847946167,
      "y": 0.1824527233839035,
      "z": 0.6556333899497986,
      "time_usec": 102333066127
    },
    {
      "x": 9.711270332336426,
      "y": 0.18723836541175842,
      "z": 0.6508477330207825,
      "time_usec": 102333068392
    },
    {
      "x": 9.730413436889648,
      "y": 0.19680966436862946,
      "z": 0.6705885529518127,
      "time_usec": 102333070642
    },
    {
      "x": 9.730413436889648,
      "y": 0.19142581522464752,
      "z": 0.646660327911377,
      "time_usec": 102333072897
    },
    {
      "x": 9.716055870056152,
      "y": 0.20159530639648438,
      "z": 0.6323033571243286,
      "time_usec": 102333075164
    },
    {
      "x": 9.697511672973633,
      "y": 0.2063809484243393,
      "z": 0.6269195079803467,
      "time_usec": 102333077421
    },
    {
      "x": 9.602396965026855,
      "y": 0.18305093050003052,
      "z": 0.6125625967979431,
      "time_usec": 102333079676
    },
    {
      "x": 9.902098655700684,
      "y": 0.28654050827026367,
      "z": 0.6137589812278748,
      "time_usec": 102333081936
    },
    {
      "x": 9.778867721557617,
      "y": 0.28235307335853577,
      "z": 0.5605186820030212,
      "time_usec": 102333084192
    },
    {
      "x": 9.65503978729248,
      "y": 0.2590230405330658,
      "z": 0.5312066078186035,
      "time_usec": 102333086449
    },
    {
      "x": 9.759725570678711,
      "y": 0.30628129839897156,
      "z": 0.5318048596382141,
      "time_usec": 102333088699
    },
    {
      "x": 9.784252166748047,
      "y": 0.33499518036842346,
      "z": 0.4941178858280182,
      "time_usec": 102333090958
    },
    {
      "x": 9.722038269042969,
      "y": 0.3206382393836975,
      "z": 0.4743770956993103,
      "time_usec": 102333093220
    },
    {
      "x": 9.717850685119629,
      "y": 0.3206382393836975,
      "z": 0.46480581164360046,
      "time_usec": 102333095478
    },
    {
      "x": 9.755537986755371,
      "y": 0.32542386651039124,
      "z": 0.45583271980285645,
      "time_usec": 102333097735
    },
    {
      "x": 9.750752449035645,
      "y": 0.32542386651039124,
      "z": 0.46480581164360046,
      "time_usec": 102333099987
    },
    {
      "x": 9.755537986755371,
      "y": 0.30628129839897156,
      "z": 0.48394837975502014,
      "time_usec": 102333102248
    },
    {
      "x": 9.783653259277344,
      "y": 0.27756741642951965,
      "z": 0.4989035129547119,
      "time_usec": 102333104504
    },
    {
      "x": 9.80219841003418,
      "y": 0.2584248483181,
      "z": 0.5467599630355835,
      "time_usec": 102333106755
    },
    {
      "x": 9.81655502319336,
      "y": 0.2584248483181,
      "z": 0.5754738450050354,
      "time_usec": 102333109015
    },
    {
      "x": 9.8207426071167,
      "y": 0.2679961323738098,
      "z": 0.623330295085907,
      "time_usec": 102333111276
    },
    {
      "x": 9.8207426071167,
      "y": 0.2632105052471161,
      "z": 0.6514459848403931,
      "time_usec": 102333113534
    },
    {
      "x": 9.81117057800293,
      "y": 0.2632105052471161,
      "z": 0.6993024349212646,
      "time_usec": 102333115792
    },
    {
      "x": 9.81117057800293,
      "y": 0.28235307335853577,
      "z": 0.7423732280731201,
      "time_usec": 102333118047
    },
    {
      "x": 9.787242889404297,
      "y": 0.30149564146995544,
      "z": 0.737587571144104,
      "time_usec": 102333120300
    },
    {
      "x": 9.763314247131348,
      "y": 0.2877369225025177,
      "z": 0.7615157961845398,
      "time_usec": 102333122560
    },
    {
      "x": 9.763314247131348,
      "y": 0.30209386348724365,
      "z": 0.7615157961845398,
      "time_usec": 102333124819
    },
    {
      "x": 9.749555587768555,
      "y": 0.3068794906139374,
      "z": 0.7561319470405579,
      "time_usec": 102333127076
    },
    {
      "x": 9.744770050048828,
      "y": 0.3116651475429535,
      "z": 0.7513462901115417,
      "time_usec": 102333129328
    },
    {
      "x": 9.735198974609375,
      "y": 0.2829512655735016,
      "z": 0.7369893789291382,
      "time_usec": 102333131589
    },
    {
      "x": 9.716055870056152,
      "y": 0.27337998151779175,
      "z": 0.7082754969596863,
      "time_usec": 102333133844
    },
    {
      "x": 9.716055870056152,
      "y": 0.25423741340637207,
      "z": 0.7178468108177185,
      "time_usec": 102333136107
    },
    {
      "x": 9.720842361450195,
      "y": 0.268594354391098,
      "z": 0.7130611538887024,
      "time_usec": 102333138359
    },
    {
      "x": 9.716055870056152,
      "y": 0.2638086974620819,
      "z": 0.698704183101654,
      "time_usec": 102333140607
    },
    {
      "x": 9.711869239807129,
      "y": 0.27337998151779175,
      "z": 0.6747759580612183,
      "time_usec": 102333142879
    },
    {
      "x": 9.707083702087402,
      "y": 0.2590230405330658,
      "z": 0.6269195079803467,
      "time_usec": 102333145132
    },
    {
      "x": 9.707083702087402,
      "y": 0.2638086974620819,
      "z": 0.6131607890129089,
      "time_usec": 102333147391
    },
    {
      "x": 9.726225852966309,
      "y": 0.2632105052471161,
      "z": 0.5748756527900696,
      "time_usec": 102333149640
    },
    {
      "x": 9.726225852966309,
      "y": 0.2632105052471161,
      "z": 0.5413761138916016,
      "time_usec": 102333151904
    },
    {
      "x": 9.745368003845215,
      "y": 0.2584248483181,
      "z": 0.5365904569625854,
      "time_usec": 102333154161
    },
    {
      "x": 9.736394882202148,
      "y": 0.2679961323738098,
      "z": 0.5126622319221497,
      "time_usec": 102333156419
    },
    {
      "x": 9.717252731323242,
      "y": 0.27756741642951965,
      "z": 0.5126622319221497,
      "time_usec": 102333158674
    },
    {
      "x": 9.722038269042969,
      "y": 0.28235307335853577,
      "z": 0.4983053207397461,
      "time_usec": 102333160926
    },
    {
      "x": 9.702896118164062,
      "y": 0.25363919138908386,
      "z": 0.5078766345977783,
      "time_usec": 102333163188
    },
    {
      "x": 9.712467193603516,
      "y": 0.25363919138908386,
      "z": 0.5078766345977783,
      "time_usec": 102333165445
    },
    {
      "x": 9.698110580444336,
      "y": 0.24406790733337402,
      "z": 0.47916272282600403,
      "time_usec": 102333167703
    },
    {
      "x": 9.693324089050293,
      "y": 0.24885354936122894,
      "z": 0.4983053207397461,
      "time_usec": 102333169955
    },
    {
      "x": 9.693324089050293,
      "y": 0.25363919138908386,
      "z": 0.5078766345977783,
      "time_usec": 102333172218
    },
    {
      "x": 9.68375301361084,
      "y": 0.2638086974620819,
      "z": 0.527019202709198,
      "time_usec": 102333174474
    },
    {
      "x": 9.707681655883789,
      "y": 0.2632105052471161,
      "z": 0.527019202709198,
      "time_usec": 102333176731
    },
    {
      "x": 9.712467193603516,
      "y": 0.2679961323738098,
      "z": 0.5461617708206177,
      "time_usec": 102333178985
    },
    {
      "x": 9.712467193603516,
      "y": 0.27816563844680786,
      "z": 0.5653043389320374,
      "time_usec": 102333181245
    },
    {
      "x": 9.726225852966309,
      "y": 0.2679961323738098,
      "z": 0.5892325639724731,
      "time_usec": 102333183502
    },
    {
      "x": 9.735796928405762,
      "y": 0.28235307335853577,
      "z": 0.5988038778305054,
      "time_usec": 102333185760
    },
    {
      "x": 9.745368003845215,
      "y": 0.2727817893028259,
      "z": 0.6035895347595215,
      "time_usec": 102333188014
    },
    {
      "x": 9.731011390686035,
      "y": 0.2679961323738098,
      "z": 0.6035895347595215,
      "time_usec": 102333190267
    },
    {
      "x": 9.721440315246582,
      "y": 0.27337998151779175,
      "z": 0.6227321028709412,
      "time_usec": 102333192531
    },
    {
      "x": 9.740582466125488,
      "y": 0.2584248483181,
      "z": 0.6227321028709412,
      "time_usec": 102333194771
    },
    {
      "x": 9.720842361450195,
      "y": 0.23988047242164612,
      "z": 0.6370890140533447,
      "time_usec": 102333197032
    },
    {
      "x": 9.754341125488281,
      "y": 0.2584248483181,
      "z": 0.6227321028709412,
      "time_usec": 102333199294
    },
    {
      "x": 9.735796928405762,
      "y": 0.2679961323738098,
      "z": 0.6227321028709412,
      "time_usec": 102333201552
    },
    {
      "x": 9.731011390686035,
      "y": 0.2871387302875519,
      "z": 0.6083751320838928,
      "time_usec": 102333203803
    },
    {
      "x": 9.754940032958984,
      "y": 0.30149564146995544,
      "z": 0.584446907043457,
      "time_usec": 102333206058
    },
    {
      "x": 9.764511108398438,
      "y": 0.30149564146995544,
      "z": 0.584446907043457,
      "time_usec": 102333208318
    },
    {
      "x": 9.759725570678711,
      "y": 0.30628129839897156,
      "z": 0.5653043389320374,
      "time_usec": 102333210586
    },
    {
      "x": 9.79801082611084,
      "y": 0.30149564146995544,
      "z": 0.5706881880760193,
      "time_usec": 102333212849
    },
    {
      "x": 9.736394882202148,
      "y": 0.30628129839897156,
      "z": 0.5365904569625854,
      "time_usec": 102333215104
    },
    {
      "x": 9.717252731323242,
      "y": 0.3116651475429535,
      "z": 0.5605186820030212,
      "time_usec": 102333217358
    },
    {
      "x": 9.793225288391113,
      "y": 0.3206382393836975,
      "z": 0.537188708782196,
      "time_usec": 102333219607
    },
    {
      "x": 9.783653259277344,
      "y": 0.30149564146995544,
      "z": 0.5276173949241638,
      "time_usec": 102333221860
    },
    {
      "x": 9.755537986755371,
      "y": 0.33020952343940735,
      "z": 0.5126622319221497,
      "time_usec": 102333224126
    },
    {
      "x": 9.783653259277344,
      "y": 0.32542386651039124,
      "z": 0.503689169883728,
      "time_usec": 102333226376
    },
    {
      "x": 9.78843879699707,
      "y": 0.3158525824546814,
      "z": 0.5132604837417603,
      "time_usec": 102333228643
    },
    {
      "x": 9.789037704467773,
      "y": 0.3206382393836975,
      "z": 0.47976094484329224,
      "time_usec": 102333230890
    },
    {
      "x": 9.784252166748047,
      "y": 0.3206382393836975,
      "z": 0.47976094484329224,
      "time_usec": 102333233160
    },
    {
      "x": 9.7938232421875,
      "y": 0.349352091550827,
      "z": 0.4654040038585663,
      "time_usec": 102333235414
    },
    {
      "x": 9.79801082611084,
      "y": 0.3158525824546814,
      "z": 0.4749752879142761,
      "time_usec": 102333237673
    },
    {
      "x": 9.807581901550293,
      "y": 0.33499518036842346,
      "z": 0.4941178858280182,
      "time_usec": 102333239923
    },
    {
      "x": 9.831509590148926,
      "y": 0.3200400173664093,
      "z": 0.48454657196998596,
      "time_usec": 102333242184
    },
    {
      "x": 9.817152976989746,
      "y": 0.32961133122444153,
      "z": 0.48454657196998596,
      "time_usec": 102333244437
    },
    {
      "x": 9.81236743927002,
      "y": 0.3200400173664093,
      "z": 0.47976094484329224,
      "time_usec": 102333246699
    },
    {
      "x": 9.807581901550293,
      "y": 0.33499518036842346,
      "z": 0.5084748268127441,
      "time_usec": 102333248951
    },
    {
      "x": 9.817152976989746,
      "y": 0.3152543902397156,
      "z": 0.4893322288990021,
      "time_usec": 102333251214
    },
    {
      "x": 9.793225288391113,
      "y": 0.3206382393836975,
      "z": 0.48454657196998596,
      "time_usec": 102333253470
    },
    {
      "x": 9.774680137634277,
      "y": 0.30628129839897156,
      "z": 0.4941178858280182,
      "time_usec": 102333255729
    },
    {
      "x": 9.765109062194824,
      "y": 0.2871387302875519,
      "z": 0.48873403668403625,
      "time_usec": 102333257983
    },
    {
      "x": 9.778867721557617,
      "y": 0.30628129839897156,
      "z": 0.5132604837417603,
      "time_usec": 102333260233
    },
    {
      "x": 9.77408218383789,
      "y": 0.2967100143432617,
      "z": 0.5126622319221497,
      "time_usec": 102333262487
    },
    {
      "x": 9.778867721557617,
      "y": 0.2919243574142456,
      "z": 0.5365904569625854,
      "time_usec": 102333264756
    },
    {
      "x": 9.783653259277344,
      "y": 0.2727817893028259,
      "z": 0.5413761138916016,
      "time_usec": 102333267013
    },
    {
      "x": 9.78843879699707,
      "y": 0.2727817893028259,
      "z": 0.5419743061065674,
      "time_usec": 102333269269
    },
    {
      "x": 9.783653259277344,
      "y": 0.28235307335853577,
      "z": 0.5324030518531799,
      "time_usec": 102333271532
    },
    {
      "x": 9.79801082611084,
      "y": 0.2919243574142456,
      "z": 0.5180460810661316,
      "time_usec": 102333273784
    },
    {
      "x": 9.807581901550293,
      "y": 0.2919243574142456,
      "z": 0.5228317379951477,
      "time_usec": 102333276042
    },
    {
      "x": 9.802796363830566,
      "y": 0.30628129839897156,
      "z": 0.5419743061065674,
      "time_usec": 102333278296
    },
    {
      "x": 9.79801082611084,
      "y": 0.30628129839897156,
      "z": 0.5515456199645996,
      "time_usec": 102333280552
    },
    {
      "x": 9.802796363830566,
      "y": 0.30628129839897156,
      "z": 0.5611169338226318,
      "time_usec": 102333282813
    },
    {
      "x": 9.821340560913086,
      "y": 0.2967100143432617,
      "z": 0.5563312768936157,
      "time_usec": 102333285068
    },
    {
      "x": 9.80219841003418,
      "y": 0.27756741642951965,
      "z": 0.5515456199645996,
      "time_usec": 102333287320
    },
    {
      "x": 9.811769485473633,
      "y": 0.2919243574142456,
      "z": 0.5467599630355835,
      "time_usec": 102333289579
    },
    {
      "x": 9.80219841003418,
      "y": 0.2967100143432617,
      "z": 0.5802595019340515,
      "time_usec": 102333291845
    },
    {
      "x": 9.79801082611084,
      "y": 0.31106695532798767,
      "z": 0.5796613097190857,
      "time_usec": 102333294098
    },
    {
      "x": 9.79262638092041,
      "y": 0.30149564146995544,
      "z": 0.617946445941925,
      "time_usec": 102333296354
    },
    {
      "x": 9.783055305480957,
      "y": 0.30149564146995544,
      "z": 0.617946445941925,
      "time_usec": 102333298599
    },
    {
      "x": 9.754940032958984,
      "y": 0.30149564146995544,
      "z": 0.6370890140533447,
      "time_usec": 102333300858
    },
    {
      "x": 9.735796928405762,
      "y": 0.3116651475429535,
      "z": 0.6370890140533447,
      "time_usec": 102333303122
    },
    {
      "x": 9.730413436889648,
      "y": 0.3164508044719696,
      "z": 0.6939185857772827,
      "time_usec": 102333305371
    },
    {
      "x": 9.731011390686035,
      "y": 0.3451646566390991,
      "z": 0.698704183101654,
      "time_usec": 102333307640
    },
    {
      "x": 9.726225852966309,
      "y": 0.3595215976238251,
      "z": 0.7082754969596863,
      "time_usec": 102333309891
    },
    {
      "x": 9.716654777526855,
      "y": 0.3595215976238251,
      "z": 0.7130611538887024,
      "time_usec": 102333312157
    },
    {
      "x": 9.735796928405762,
      "y": 0.40737804770469666,
      "z": 0.727418065071106,
      "time_usec": 102333314411
    },
    {
      "x": 9.726225852966309,
      "y": 0.40737804770469666,
      "z": 0.7465606927871704,
      "time_usec": 102333316669
    },
    {
      "x": 9.731011390686035,
      "y": 0.38344982266426086,
      "z": 0.7417750358581543,
      "time_usec": 102333318920
    },
    {
      "x": 9.739984512329102,
      "y": 0.373878538608551,
      "z": 0.7465606927871704,
      "time_usec": 102333321182
    },
    {
      "x": 9.735198974609375,
      "y": 0.373878538608551,
      "z": 0.7513462901115417,
      "time_usec": 102333323435
    },
    {
      "x": 9.744770050048828,
      "y": 0.37866419553756714,
      "z": 0.794417142868042,
      "time_usec": 102333325686
    },
    {
      "x": 9.739984512329102,
      "y": 0.3643072545528412,
      "z": 0.8087740540504456,
      "time_usec": 102333327951
    },
    {
      "x": 9.744770050048828,
      "y": 0.3595215976238251,
      "z": 0.8183453679084778,
      "time_usec": 102333330204
    },
    {
      "x": 9.763314247131348,
      "y": 0.3355933725833893,
      "z": 0.8231309652328491,
      "time_usec": 102333332470
    },
    {
      "x": 9.768099784851074,
      "y": 0.32123643159866333,
      "z": 0.8231309652328491,
      "time_usec": 102333334725
    },
    {
      "x": 9.758528709411621,
      "y": 0.3068794906139374,
      "z": 0.8279166221618652,
      "time_usec": 102333336981
    },
    {
      "x": 9.758528709411621,
      "y": 0.29730820655822754,
      "z": 0.8279166221618652,
      "time_usec": 102333339233
    },
    {
      "x": 9.744172096252441,
      "y": 0.2925225794315338,
      "z": 0.8039883971214294,
      "time_usec": 102333341495
    },
    {
      "x": 9.725627899169922,
      "y": 0.2925225794315338,
      "z": 0.794417142868042,
      "time_usec": 102333343752
    },
    {
      "x": 9.725627899169922,
      "y": 0.27816563844680786,
      "z": 0.7704889178276062,
      "time_usec": 102333346010
    },
    {
      "x": 9.720842361450195,
      "y": 0.268594354391098,
      "z": 0.760917603969574,
      "time_usec": 102333348265
    },
    {
      "x": 9.716055870056152,
      "y": 0.25423741340637207,
      "z": 0.760917603969574,
      "time_usec": 102333350519
    },
    {
      "x": 9.711270332336426,
      "y": 0.268594354391098,
      "z": 0.727418065071106,
      "time_usec": 102333352781
    },
    {
      "x": 9.711270332336426,
      "y": 0.25423741340637207,
      "z": 0.7082754969596863,
      "time_usec": 102333355032
    },
    {
      "x": 9.707083702087402,
      "y": 0.27816563844680786,
      "z": 0.6891329288482666,
      "time_usec": 102333357295
    },
    {
      "x": 9.730413436889648,
      "y": 0.268594354391098,
      "z": 0.6753742098808289,
      "time_usec": 102333359547
    },
    {
      "x": 9.735796928405762,
      "y": 0.27337998151779175,
      "z": 0.6323033571243286,
      "time_usec": 102333361809
    },
    {
      "x": 9.754341125488281,
      "y": 0.24885354936122894,
      "z": 0.617946445941925,
      "time_usec": 102333364065
    },
    {
      "x": 9.745368003845215,
      "y": 0.2584248483181,
      "z": 0.5892325639724731,
      "time_usec": 102333366323
    },
    {
      "x": 9.750154495239258,
      "y": 0.24885354936122894,
      "z": 0.584446907043457,
      "time_usec": 102333368572
    },
    {
      "x": 9.754940032958984,
      "y": 0.22971096634864807,
      "z": 0.5700899958610535,
      "time_usec": 102333370822
    },
    {
      "x": 9.750154495239258,
      "y": 0.2105683982372284,
      "z": 0.5557330846786499,
      "time_usec": 102333373078
    },
    {
      "x": 9.716654777526855,
      "y": 0.22492532432079315,
      "z": 0.5700899958610535,
      "time_usec": 102333375338
    },
    {
      "x": 9.721440315246582,
      "y": 0.22492532432079315,
      "z": 0.5700899958610535,
      "time_usec": 102333377602
    },
    {
      "x": 9.692726135253906,
      "y": 0.2111666053533554,
      "z": 0.5796613097190857,
      "time_usec": 102333379853
    },
    {
      "x": 9.721440315246582,
      "y": 0.22492532432079315,
      "z": 0.584446907043457,
      "time_usec": 102333382109
    },
    {
      "x": 9.721440315246582,
      "y": 0.20099709928035736,
      "z": 0.584446907043457,
      "time_usec": 102333384365
    },
    {
      "x": 9.725627899169922,
      "y": 0.17706887423992157,
      "z": 0.584446907043457,
      "time_usec": 102333386623
    },
    {
      "x": 9.721440315246582,
      "y": 0.19142581522464752,
      "z": 0.5796613097190857,
      "time_usec": 102333388882
    },
    {
      "x": 9.720842361450195,
      "y": 0.1866401731967926,
      "z": 0.5940182209014893,
      "time_usec": 102333391144
    },
    {
      "x": 9.725627899169922,
      "y": 0.20578274130821228,
      "z": 0.617946445941925,
      "time_usec": 102333393410
    },
    {
      "x": 9.749555587768555,
      "y": 0.19621145725250244,
      "z": 0.6131607890129089,
      "time_usec": 102333395667
    },
    {
      "x": 9.754341125488281,
      "y": 0.1866401731967926,
      "z": 0.6083751320838928,
      "time_usec": 102333397922
    },
    {
      "x": 9.773484230041504,
      "y": 0.22492532432079315,
      "z": 0.584446907043457,
      "time_usec": 102333400173
    },
    {
      "x": 9.768698692321777,
      "y": 0.22013968229293823,
      "z": 0.5892325639724731,
      "time_usec": 102333402435
    },
    {
      "x": 9.79262638092041,
      "y": 0.24885354936122894,
      "z": 0.5940182209014893,
      "time_usec": 102333404692
    },
    {
      "x": 9.797411918640137,
      "y": 0.2727817893028259,
      "z": 0.5659025311470032,
      "time_usec": 102333406946
    },
    {
      "x": 9.811769485473633,
      "y": 0.2967100143432617,
      "z": 0.5611169338226318,
      "time_usec": 102333409201
    },
    {
      "x": 9.793225288391113,
      "y": 0.2919243574142456,
      "z": 0.5563312768936157,
      "time_usec": 102333411463
    },
    {
      "x": 9.79801082611084,
      "y": 0.2871387302875519,
      "z": 0.537188708782196,
      "time_usec": 102333413721
    },
    {
      "x": 9.807581901550293,
      "y": 0.30149564146995544,
      "z": 0.5132604837417603,
      "time_usec": 102333415979
    },
    {
      "x": 9.81236743927002,
      "y": 0.30628129839897156,
      "z": 0.5132604837417603,
      "time_usec": 102333418233
    },
    {
      "x": 9.802796363830566,
      "y": 0.2679961323738098,
      "z": 0.5228317379951477,
      "time_usec": 102333420486
    },
    {
      "x": 9.78843879699707,
      "y": 0.2727817893028259,
      "z": 0.5605186820030212,
      "time_usec": 102333422749
    },
    {
      "x": 9.787840843200684,
      "y": 0.24406790733337402,
      "z": 0.5700899958610535,
      "time_usec": 102333425004
    },
    {
      "x": 9.787840843200684,
      "y": 0.22971096634864807,
      "z": 0.6227321028709412,
      "time_usec": 102333427251
    },
    {
      "x": 9.768698692321777,
      "y": 0.24885354936122894,
      "z": 0.6323033571243286,
      "time_usec": 102333429515
    },
    {
      "x": 9.768698692321777,
      "y": 0.2392822653055191,
      "z": 0.6418746709823608,
      "time_usec": 102333431777
    },
    {
      "x": 9.777671813964844,
      "y": 0.22013968229293823,
      "z": 0.6562315821647644,
      "time_usec": 102333434034
    },
    {
      "x": 9.759127616882324,
      "y": 0.2392822653055191,
      "z": 0.6705885529518127,
      "time_usec": 102333436280
    },
    {
      "x": 9.76391315460205,
      "y": 0.22013968229293823,
      "z": 0.6705885529518127,
      "time_usec": 102333438542
    },
    {
      "x": 9.754341125488281,
      "y": 0.2392822653055191,
      "z": 0.6753742098808289,
      "time_usec": 102333440797
    },
    {
      "x": 9.773484230041504,
      "y": 0.24406790733337402,
      "z": 0.6658028960227966,
      "time_usec": 102333443053
    },
    {
      "x": 9.768698692321777,
      "y": 0.22971096634864807,
      "z": 0.6610172390937805,
      "time_usec": 102333445320
    },
    {
      "x": 9.759127616882324,
      "y": 0.24885354936122894,
      "z": 0.6801598072052002,
      "time_usec": 102333447577
    },
    {
      "x": 9.759127616882324,
      "y": 0.23449662327766418,
      "z": 0.6705885529518127,
      "time_usec": 102333449831
    },
    {
      "x": 9.759127616882324,
      "y": 0.22971096634864807,
      "z": 0.6705885529518127,
      "time_usec": 102333452090
    },
    {
      "x": 9.749555587768555,
      "y": 0.22492532432079315,
      "z": 0.6753742098808289,
      "time_usec": 102333454347
    },
    {
      "x": 9.739984512329102,
      "y": 0.20578274130821228,
      "z": 0.6658028960227966,
      "time_usec": 102333456605
    },
    {
      "x": 9.749555587768555,
      "y": 0.22492532432079315,
      "z": 0.6610172390937805,
      "time_usec": 102333458858
    },
    {
      "x": 9.730413436889648,
      "y": 0.23030917346477509,
      "z": 0.6705885529518127,
      "time_usec": 102333461116
    },
    {
      "x": 9.735198974609375,
      "y": 0.2153540402650833,
      "z": 0.6514459848403931,
      "time_usec": 102333463375
    },
    {
      "x": 9.730413436889648,
      "y": 0.2105683982372284,
      "z": 0.6418746709823608,
      "time_usec": 102333465630
    },
    {
      "x": 9.716055870056152,
      "y": 0.2063809484243393,
      "z": 0.6418746709823608,
      "time_usec": 102333467874
    },
    {
      "x": 9.730413436889648,
      "y": 0.2153540402650833,
      "z": 0.6131607890129089,
      "time_usec": 102333470134
    },
    {
      "x": 9.70229721069336,
      "y": 0.2350948303937912,
      "z": 0.6125625967979431,
      "time_usec": 102333472403
    },
    {
      "x": 9.68794059753418,
      "y": 0.23988047242164612,
      "z": 0.6173482537269592,
      "time_usec": 102333474661
    },
    {
      "x": 9.683155059814453,
      "y": 0.2350948303937912,
      "z": 0.6269195079803467,
      "time_usec": 102333476916
    },
    {
      "x": 9.68794059753418,
      "y": 0.23988047242164612,
      "z": 0.6173482537269592,
      "time_usec": 102333479171
    },
    {
      "x": 9.68794059753418,
      "y": 0.24466611444950104,
      "z": 0.5886343717575073,
      "time_usec": 102333481433
    },
    {
      "x": 9.692726135253906,
      "y": 0.2350948303937912,
      "z": 0.5653043389320374,
      "time_usec": 102333483690
    },
    {
      "x": 9.697511672973633,
      "y": 0.23030917346477509,
      "z": 0.5605186820030212,
      "time_usec": 102333485947
    },
    {
      "x": 9.678967475891113,
      "y": 0.23988047242164612,
      "z": 0.5742774605751038,
      "time_usec": 102333488202
    },
    {
      "x": 9.68794059753418,
      "y": 0.22552353143692017,
      "z": 0.5838487148284912,
      "time_usec": 102333490455
    },
    {
      "x": 9.697511672973633,
      "y": 0.23988047242164612,
      "z": 0.5748756527900696,
      "time_usec": 102333492717
    },
    {
      "x": 9.697511672973633,
      "y": 0.25423741340637207,
      "z": 0.584446907043457,
      "time_usec": 102333494974
    },
    {
      "x": 9.688538551330566,
      "y": 0.24466611444950104,
      "z": 0.5700899958610535,
      "time_usec": 102333497233
    },
    {
      "x": 9.711869239807129,
      "y": 0.2392822653055191,
      "z": 0.5557330846786499,
      "time_usec": 102333499484
    },
    {
      "x": 9.711869239807129,
      "y": 0.22492532432079315,
      "z": 0.5461617708206177,
      "time_usec": 102333501745
    },
    {
      "x": 9.721440315246582,
      "y": 0.24406790733337402,
      "z": 0.5461617708206177,
      "time_usec": 102333504002
    },
    {
      "x": 9.721440315246582,
      "y": 0.25363919138908386,
      "z": 0.5461617708206177,
      "time_usec": 102333506261
    },
    {
      "x": 9.726225852966309,
      "y": 0.2392822653055191,
      "z": 0.5413761138916016,
      "time_usec": 102333508516
    },
    {
      "x": 9.721440315246582,
      "y": 0.2392822653055191,
      "z": 0.5318048596382141,
      "time_usec": 102333510769
    },
    {
      "x": 9.731011390686035,
      "y": 0.24406790733337402,
      "z": 0.527019202709198,
      "time_usec": 102333513032
    },
    {
      "x": 9.716654777526855,
      "y": 0.22492532432079315,
      "z": 0.5174478888511658,
      "time_usec": 102333515292
    },
    {
      "x": 9.707083702087402,
      "y": 0.20578274130821228,
      "z": 0.5126622319221497,
      "time_usec": 102333517540
    },
    {
      "x": 9.698110580444336,
      "y": 0.2105683982372284,
      "z": 0.5174478888511658,
      "time_usec": 102333519793
    },
    {
      "x": 9.678967475891113,
      "y": 0.19680966436862946,
      "z": 0.5126622319221497,
      "time_usec": 102333522044
    },
    {
      "x": 9.678967475891113,
      "y": 0.2063809484243393,
      "z": 0.4983053207397461,
      "time_usec": 102333524317
    },
    {
      "x": 9.674181938171387,
      "y": 0.20159530639648438,
      "z": 0.5078766345977783,
      "time_usec": 102333526576
    },
    {
      "x": 9.664610862731934,
      "y": 0.2111666053533554,
      "z": 0.5168496966362,
      "time_usec": 102333528827
    },
    {
      "x": 9.674181938171387,
      "y": 0.2063809484243393,
      "z": 0.5078766345977783,
      "time_usec": 102333531085
    },
    {
      "x": 9.678967475891113,
      "y": 0.22552353143692017,
      "z": 0.48873403668403625,
      "time_usec": 102333533344
    },
    {
      "x": 9.66939640045166,
      "y": 0.22073788940906525,
      "z": 0.4743770956993103,
      "time_usec": 102333535599
    },
    {
      "x": 9.678967475891113,
      "y": 0.2105683982372284,
      "z": 0.46480581164360046,
      "time_usec": 102333537845
    },
    {
      "x": 9.693324089050293,
      "y": 0.2105683982372284,
      "z": 0.4456632137298584,
      "time_usec": 102333540110
    },
    {
      "x": 9.702896118164062,
      "y": 0.19142581522464752,
      "z": 0.4456632137298584,
      "time_usec": 102333542369
    },
    {
      "x": 9.722038269042969,
      "y": 0.20578274130821228,
      "z": 0.43609192967414856,
      "time_usec": 102333544621
    },
    {
      "x": 9.722038269042969,
      "y": 0.20099709928035736,
      "z": 0.43130627274513245,
      "time_usec": 102333546883
    },
    {
      "x": 9.740582466125488,
      "y": 0.19621145725250244,
      "z": 0.4408775866031647,
      "time_usec": 102333549138
    },
    {
      "x": 9.745966911315918,
      "y": 0.20099709928035736,
      "z": 0.4175475537776947,
      "time_usec": 102333551404
    },
    {
      "x": 9.750752449035645,
      "y": 0.22013968229293823,
      "z": 0.4462614357471466,
      "time_usec": 102333553658
    },
    {
      "x": 9.736394882202148,
      "y": 0.23449662327766418,
      "z": 0.4456632137298584,
      "time_usec": 102333555915
    },
    {
      "x": 9.741181373596191,
      "y": 0.23449662327766418,
      "z": 0.43130627274513245,
      "time_usec": 102333558168
    },
    {
      "x": 9.754940032958984,
      "y": 0.22971096634864807,
      "z": 0.4695914387702942,
      "time_usec": 102333560415
    },
    {
      "x": 9.764511108398438,
      "y": 0.2392822653055191,
      "z": 0.48394837975502014,
      "time_usec": 102333562684
    },
    {
      "x": 9.764511108398438,
      "y": 0.25363919138908386,
      "z": 0.5222335457801819,
      "time_usec": 102333564942
    },
    {
      "x": 9.783653259277344,
      "y": 0.2679961323738098,
      "z": 0.5276173949241638,
      "time_usec": 102333567200
    },
    {
      "x": 9.778867721557617,
      "y": 0.2392822653055191,
      "z": 0.5509474277496338,
      "time_usec": 102333569442
    },
    {
      "x": 9.759725570678711,
      "y": 0.23449662327766418,
      "z": 0.5700899958610535,
      "time_usec": 102333571702
    },
    {
      "x": 9.759127616882324,
      "y": 0.24406790733337402,
      "z": 0.5988038778305054,
      "time_usec": 102333573971
    },
    {
      "x": 9.754341125488281,
      "y": 0.23449662327766418,
      "z": 0.6275177597999573,
      "time_usec": 102333576231
    },
    {
      "x": 9.749555587768555,
      "y": 0.2392822653055191,
      "z": 0.6514459848403931,
      "time_usec": 102333578486
    },
    {
      "x": 9.739984512329102,
      "y": 0.2153540402650833,
      "z": 0.6514459848403931,
      "time_usec": 102333580736
    },
    {
      "x": 9.749555587768555,
      "y": 0.22971096634864807,
      "z": 0.6658028960227966,
      "time_usec": 102333582999
    },
    {
      "x": 9.739984512329102,
      "y": 0.2153540402650833,
      "z": 0.6514459848403931,
      "time_usec": 102333585256
    },
    {
      "x": 9.730413436889648,
      "y": 0.23030917346477509,
      "z": 0.6658028960227966,
      "time_usec": 102333587513
    },
    {
      "x": 9.749555587768555,
      "y": 0.22492532432079315,
      "z": 0.6897311210632324,
      "time_usec": 102333589757
    },
    {
      "x": 9.749555587768555,
      "y": 0.2153540402650833,
      "z": 0.6705885529518127,
      "time_usec": 102333592027
    },
    {
      "x": 9.76391315460205,
      "y": 0.22971096634864807,
      "z": 0.6562315821647644,
      "time_usec": 102333594283
    },
    {
      "x": 9.772886276245117,
      "y": 0.22492532432079315,
      "z": 0.6801598072052002,
      "time_usec": 102333596539
    },
    {
      "x": 9.749555587768555,
      "y": 0.2105683982372284,
      "z": 0.6753742098808289,
      "time_usec": 102333598792
    },
    {
      "x": 9.754341125488281,
      "y": 0.2153540402650833,
      "z": 0.6705885529518127,
      "time_usec": 102333601050
    },
    {
      "x": 9.744770050048828,
      "y": 0.20578274130821228,
      "z": 0.6562315821647644,
      "time_usec": 102333603315
    },
    {
      "x": 9.720842361450195,
      "y": 0.2153540402650833,
      "z": 0.6370890140533447,
      "time_usec": 102333605577
    },
    {
      "x": 9.725627899169922,
      "y": 0.19142581522464752,
      "z": 0.6562315821647644,
      "time_usec": 102333607826
    },
    {
      "x": 9.725627899169922,
      "y": 0.2105683982372284,
      "z": 0.6131607890129089,
      "time_usec": 102333610075
    },
    {
      "x": 9.716654777526855,
      "y": 0.20099709928035736,
      "z": 0.5940182209014893,
      "time_usec": 102333612326
    },
    {
      "x": 9.716654777526855,
      "y": 0.20099709928035736,
      "z": 0.5796613097190857,
      "time_usec": 102333614598
    },
    {
      "x": 9.716654777526855,
      "y": 0.22013968229293823,
      "z": 0.5413761138916016,
      "time_usec": 102333616853
    },
    {
      "x": 9.711869239807129,
      "y": 0.22971096634864807,
      "z": 0.5605186820030212,
      "time_usec": 102333619110
    },
    {
      "x": 9.731011390686035,
      "y": 0.20099709928035736,
      "z": 0.5365904569625854,
      "time_usec": 102333621369
    },
    {
      "x": 9.731011390686035,
      "y": 0.22013968229293823,
      "z": 0.5700899958610535,
      "time_usec": 102333623628
    },
    {
      "x": 9.745368003845215,
      "y": 0.2392822653055191,
      "z": 0.5653043389320374,
      "time_usec": 102333625886
    },
    {
      "x": 9.726225852966309,
      "y": 0.2392822653055191,
      "z": 0.5653043389320374,
      "time_usec": 102333628138
    },
    {
      "x": 9.721440315246582,
      "y": 0.2392822653055191,
      "z": 0.5700899958610535,
      "time_usec": 102333630391
    },
    {
      "x": 9.735796928405762,
      "y": 0.22492532432079315,
      "z": 0.5700899958610535,
      "time_usec": 102333632652
    },
    {
      "x": 9.707083702087402,
      "y": 0.25363919138908386,
      "z": 0.5748756527900696,
      "time_usec": 102333634907
    },
    {
      "x": 9.707083702087402,
      "y": 0.22492532432079315,
      "z": 0.584446907043457,
      "time_usec": 102333637168
    },
    {
      "x": 9.711869239807129,
      "y": 0.22492532432079315,
      "z": 0.5748756527900696,
      "time_usec": 102333639421
    },
    {
      "x": 9.697511672973633,
      "y": 0.23988047242164612,
      "z": 0.584446907043457,
      "time_usec": 102333641685
    },
    {
      "x": 9.692726135253906,
      "y": 0.22073788940906525,
      "z": 0.5796613097190857,
      "time_usec": 102333643940
    },
    {
      "x": 9.68794059753418,
      "y": 0.21595224738121033,
      "z": 0.5790630578994751,
      "time_usec": 102333646197
    },
    {
      "x": 9.68794059753418,
      "y": 0.2063809484243393,
      "z": 0.5838487148284912,
      "time_usec": 102333648452
    },
    {
      "x": 9.68794059753418,
      "y": 0.22552353143692017,
      "z": 0.5886343717575073,
      "time_usec": 102333650705
    },
    {
      "x": 9.692726135253906,
      "y": 0.23988047242164612,
      "z": 0.5886343717575073,
      "time_usec": 102333652967
    },
    {
      "x": 9.707083702087402,
      "y": 0.2350948303937912,
      "z": 0.6227321028709412,
      "time_usec": 102333655224
    },
    {
      "x": 9.697511672973633,
      "y": 0.2590230405330658,
      "z": 0.6173482537269592,
      "time_usec": 102333657482
    },
    {
      "x": 9.697511672973633,
      "y": 0.24466611444950104,
      "z": 0.6173482537269592,
      "time_usec": 102333659735
    },
    {
      "x": 9.731011390686035,
      "y": 0.2632105052471161,
      "z": 0.6227321028709412,
      "time_usec": 102333661997
    },
    {
      "x": 9.735198974609375,
      "y": 0.24406790733337402,
      "z": 0.6514459848403931,
      "time_usec": 102333664252
    },
    {
      "x": 9.735198974609375,
      "y": 0.27337998151779175,
      "z": 0.6658028960227966,
      "time_usec": 102333666510
    },
    {
      "x": 9.744770050048828,
      "y": 0.2727817893028259,
      "z": 0.6514459848403931,
      "time_usec": 102333668760
    },
    {
      "x": 9.740582466125488,
      "y": 0.2871387302875519,
      "z": 0.6275177597999573,
      "time_usec": 102333671018
    },
    {
      "x": 9.735796928405762,
      "y": 0.2679961323738098,
      "z": 0.6275177597999573,
      "time_usec": 102333673279
    },
    {
      "x": 9.740582466125488,
      "y": 0.27756741642951965,
      "z": 0.6035895347595215,
      "time_usec": 102333675535
    },
    {
      "x": 9.759725570678711,
      "y": 0.2967100143432617,
      "z": 0.5892325639724731,
      "time_usec": 102333677796
    },
    {
      "x": 9.745368003845215,
      "y": 0.2632105052471161,
      "z": 0.5892325639724731,
      "time_usec": 102333680047
    },
    {
      "x": 9.769296646118164,
      "y": 0.2584248483181,
      "z": 0.5700899958610535,
      "time_usec": 102333682309
    },
    {
      "x": 9.769296646118164,
      "y": 0.2584248483181,
      "z": 0.5605186820030212,
      "time_usec": 102333684561
    },
    {
      "x": 9.769296646118164,
      "y": 0.2392822653055191,
      "z": 0.5509474277496338,
      "time_usec": 102333686819
    },
    {
      "x": 9.764511108398438,
      "y": 0.2392822653055191,
      "z": 0.5318048596382141,
      "time_usec": 102333689075
    },
    {
      "x": 9.759725570678711,
      "y": 0.23449662327766418,
      "z": 0.5126622319221497,
      "time_usec": 102333691338
    },
    {
      "x": 9.750154495239258,
      "y": 0.23449662327766418,
      "z": 0.5126622319221497,
      "time_usec": 102333693595
    },
    {
      "x": 9.740582466125488,
      "y": 0.2153540402650833,
      "z": 0.49351966381073,
      "time_usec": 102333695851
    },
    {
      "x": 9.726823806762695,
      "y": 0.22013968229293823,
      "z": 0.4743770956993103,
      "time_usec": 102333698107
    },
    {
      "x": 9.726823806762695,
      "y": 0.22492532432079315,
      "z": 0.46480581164360046,
      "time_usec": 102333700360
    },
    {
      "x": 9.712467193603516,
      "y": 0.24406790733337402,
      "z": 0.47916272282600403,
      "time_usec": 102333702620
    },
    {
      "x": 9.702896118164062,
      "y": 0.2727817893028259,
      "z": 0.48394837975502014,
      "time_usec": 102333704867
    },
    {
      "x": 9.707681655883789,
      "y": 0.2392822653055191,
      "z": 0.49351966381073,
      "time_usec": 102333707136
    },
    {
      "x": 9.707681655883789,
      "y": 0.24885354936122894,
      "z": 0.48394837975502014,
      "time_usec": 102333709388
    },
    {
      "x": 9.722038269042969,
      "y": 0.25363919138908386,
      "z": 0.48873403668403625,
      "time_usec": 102333711654
    },
    {
      "x": 9.717252731323242,
      "y": 0.2584248483181,
      "z": 0.46002015471458435,
      "time_usec": 102333713909
    },
    {
      "x": 9.712467193603516,
      "y": 0.2584248483181,
      "z": 0.4743770956993103,
      "time_usec": 102333716167
    },
    {
      "x": 9.731609344482422,
      "y": 0.2727817893028259,
      "z": 0.4695914387702942,
      "time_usec": 102333718420
    },
    {
      "x": 9.755537986755371,
      "y": 0.2679961323738098,
      "z": 0.47916272282600403,
      "time_usec": 102333720673
    },
    {
      "x": 9.765109062194824,
      "y": 0.2871387302875519,
      "z": 0.47976094484329224,
      "time_usec": 102333722933
    },
    {
      "x": 9.774680137634277,
      "y": 0.2967100143432617,
      "z": 0.4893322288990021,
      "time_usec": 102333725183
    },
    {
      "x": 9.79801082611084,
      "y": 0.2721835672855377,
      "z": 0.4941178858280182,
      "time_usec": 102333727450
    },
    {
      "x": 9.81236743927002,
      "y": 0.2961117923259735,
      "z": 0.5084748268127441,
      "time_usec": 102333729700
    },
    {
      "x": 9.821938514709473,
      "y": 0.2913261651992798,
      "z": 0.5324030518531799,
      "time_usec": 102333731954
    },
    {
      "x": 9.830911636352539,
      "y": 0.2913261651992798,
      "z": 0.5419743061065674,
      "time_usec": 102333734206
    },
    {
      "x": 9.835697174072266,
      "y": 0.2721835672855377,
      "z": 0.5946164131164551,
      "time_usec": 102333736468
    },
    {
      "x": 9.850054740905762,
      "y": 0.27696922421455383,
      "z": 0.589830756187439,
      "time_usec": 102333738723
    },
    {
      "x": 9.844670295715332,
      "y": 0.2721835672855377,
      "z": 0.6472585201263428,
      "time_usec": 102333740990
    },
    {
      "x": 9.844670295715332,
      "y": 0.2727817893028259,
      "z": 0.6664010882377625,
      "time_usec": 102333743251
    },
    {
      "x": 9.835099220275879,
      "y": 0.2632105052471161,
      "z": 0.6945167779922485,
      "time_usec": 102333745509
    },
    {
      "x": 9.815957069396973,
      "y": 0.2584248483181,
      "z": 0.6945167779922485,
      "time_usec": 102333747764
    },
    {
      "x": 9.848857879638672,
      "y": 0.28235307335853577,
      "z": 0.7423732280731201,
      "time_usec": 102333750016
    },
    {
      "x": 9.839286804199219,
      "y": 0.2679961323738098,
      "z": 0.7423732280731201,
      "time_usec": 102333752277
    },
    {
      "x": 9.815957069396973,
      "y": 0.2727817893028259,
      "z": 0.737587571144104,
      "time_usec": 102333754528
    },
    {
      "x": 9.78245735168457,
      "y": 0.2679961323738098,
      "z": 0.7232306599617004,
      "time_usec": 102333756777
    },
    {
      "x": 9.78245735168457,
      "y": 0.2632105052471161,
      "z": 0.7232306599617004,
      "time_usec": 102333759037
    },
    {
      "x": 9.787242889404297,
      "y": 0.2679961323738098,
      "z": 0.6993024349212646,
      "time_usec": 102333761306
    },
    {
      "x": 9.76391315460205,
      "y": 0.24885354936122894,
      "z": 0.6993024349212646,
      "time_usec": 102333763563
    },
    {
      "x": 9.744770050048828,
      "y": 0.24885354936122894,
      "z": 0.6705885529518127,
      "time_usec": 102333765823
    },
    {
      "x": 9.754341125488281,
      "y": 0.22492532432079315,
      "z": 0.6658028960227966,
      "time_usec": 102333768076
    },
    {
      "x": 9.739984512329102,
      "y": 0.22013968229293823,
      "z": 0.6275177597999573,
      "time_usec": 102333770329
    },
    {
      "x": 9.754341125488281,
