{
  "accelerations": [
    {
      "x": 9.920044898986816,
      "y": 0.39601215720176697,
      "z": -0.10289137065410614,
      "time_usec": 667972970849
    },
    {
      "x": 9.89551830291748,
      "y": 0.3487538993358612,
      "z": -0.06939185410737991,
      "time_usec": 667972973105
    },
    {
      "x": 9.866804122924805,
      "y": 0.27696922421455383,
      "z": -0.03170489892363548,
      "time_usec": 667972975359
    },
    {
      "x": 9.837491989135742,
      "y": 0.20039889216423035,
      "z": -0.01734796352684498,
      "time_usec": 667972977606
    },
    {
      "x": 9.80399227142334,
      "y": 0.1333998590707779,
      "z": 0.005982056725770235,
      "time_usec": 667972979874
    },
    {
      "x": 9.765707015991211,
      "y": 0.09032905846834183,
      "z": 0.0011964113218709826,
      "time_usec": 667972982136
    },
    {
      "x": 9.746564865112305,
      "y": 0.03349951654672623,
      "z": 0.04426721855998039,
      "time_usec": 667972984397
    },
    {
      "x": 9.750752449035645,
      "y": 0.009571290574967861,
      "z": 0.06819544732570648,
      "time_usec": 667972986654
    },
    {
      "x": 9.760323524475098,
      "y": 0.004785645287483931,
      "z": 0.12083754688501358,
      "time_usec": 667972988909
    },
    {
      "x": 9.78843879699707,
      "y": -0.004785645287483931,
      "z": 0.19262222945690155,
      "time_usec": 667972991167
    },
    {
      "x": 9.79262638092041,
      "y": -0.02392822690308094,
      "z": 0.24466611444950104,
      "time_usec": 667972993424
    },
    {
      "x": 9.801599502563477,
      "y": -0.019142581149935722,
      "z": 0.3164508044719696,
      "time_usec": 667972995683
    },
    {
      "x": 9.792028427124023,
      "y": -0.009571290574967861,
      "z": 0.35473597049713135,
      "time_usec": 667972997940
    },
    {
      "x": 9.79681396484375,
      "y": 0.014356935396790504,
      "z": 0.40737804770469666,
      "time_usec": 667973000198
    },
    {
      "x": 9.806385040283203,
      "y": 0.02871387079358101,
      "z": 0.4408775866031647,
      "time_usec": 667973002456
    },
    {
      "x": 9.792028427124023,
      "y": 0.03349951654672623,
      "z": 0.45523449778556824,
      "time_usec": 667973004715
    },
    {
      "x": 9.763314247131348,
      "y": 0.029312077909708023,
      "z": 0.4456632137298584,
      "time_usec": 667973006974
    },
    {
      "x": 9.758528709411621,
      "y": 0.019740786403417587,
      "z": 0.40737804770469666,
      "time_usec": 667973009228
    },
    {
      "x": 9.711270332336426,
      "y": 0.005383851006627083,
      "z": 0.3732803463935852,
      "time_usec": 667973011486
    },
    {
      "x": 9.711869239807129,
      "y": 0.019740786403417587,
      "z": 0.33020952343940735,
      "time_usec": 667973013743
    },
    {
      "x": 9.697511672973633,
      "y": 0.010169495828449726,
      "z": 0.31106695532798767,
      "time_usec": 667973015999
    },
    {
      "x": 9.678967475891113,
      "y": 0.010169495828449726,
      "z": 0.2584248483181,
      "time_usec": 667973018246
    },
    {
      "x": 9.659825325012207,
      "y": 0.053240302950143814,
      "z": 0.23449662327766418,
      "time_usec": 667973020518
    },
    {
      "x": 9.66520881652832,
      "y": 0.0771685317158699,
      "z": 0.20159530639648438,
      "time_usec": 667973022776
    },
    {
      "x": 9.684351921081543,
      "y": 0.11545369029045105,
      "z": 0.14416755735874176,
      "time_usec": 667973025036
    },
    {
      "x": 9.670592308044434,
      "y": 0.14895321428775787,
      "z": 0.10588239878416061,
      "time_usec": 667973027290
    },
    {
      "x": 9.699904441833496,
      "y": 0.19142581522464752,
      "z": 0.048454657196998596,
      "time_usec": 667973029548
    },
    {
      "x": 9.699904441833496,
      "y": 0.19621145725250244,
      "z": 0.005982056725770235,
      "time_usec": 667973031806
    },
    {
      "x": 9.686145782470703,
      "y": 0.23449662327766418,
      "z": -0.02751746028661728,
      "time_usec": 667973034063
    },
    {
      "x": 9.67657470703125,
      "y": 0.23449662327766418,
      "z": -0.05623133108019829,
      "time_usec": 667973036321
    },
    {
      "x": 9.653244972229004,
      "y": 0.2584248483181,
      "z": -0.09032905846834183,
      "time_usec": 667973038580
    },
    {
      "x": 9.615557670593262,
      "y": 0.3116651475429535,
      "z": -0.12382857501506805,
      "time_usec": 667973040837
    },
    {
      "x": 9.582656860351562,
      "y": 0.32123643159866333,
      "z": -0.14775680005550385,
      "time_usec": 667973043087
    },
    {
      "x": 9.540184020996094,
      "y": 0.35473597049713135,
      "z": -0.16689938306808472,
      "time_usec": 667973045350
    },
    {
      "x": 9.525827407836914,
      "y": 0.40319061279296875,
      "z": -0.14356936514377594,
      "time_usec": 667973047603
    },
    {
      "x": 9.540184020996094,
      "y": 0.4701896607875824,
      "z": -0.11904292553663254,
      "time_usec": 667973049864
    },
    {
      "x": 9.588040351867676,
      "y": 0.5180460810661316,
      "z": -0.08075776696205139,
      "time_usec": 667973052125
    },
    {
      "x": 9.620942115783691,
      "y": 0.5557330846786499,
      "z": -0.06161518394947052,
      "time_usec": 667973054384
    },
    {
      "x": 9.673583984375,
      "y": 0.584446907043457,
      "z": -0.06580262631177902,
      "time_usec": 667973056642
    },
    {
      "x": 9.721440315246582,
      "y": 0.6083751320838928,
      "z": -0.07537391036748886,
      "time_usec": 667973058899
    },
    {
      "x": 9.787840843200684,
      "y": 0.6125625967979431,
      "z": -0.09870393574237823,
      "time_usec": 667973061156
    },
    {
      "x": 9.806983947753906,
      "y": 0.5736792087554932,
      "z": -0.16091732680797577,
      "time_usec": 667973063414
    },
    {
      "x": 9.783653259277344,
      "y": 0.544965386390686,
      "z": -0.23270200192928314,
      "time_usec": 667973065671
    },
    {
      "x": 9.778867721557617,
      "y": 0.5306084156036377,
      "z": -0.28534409403800964,
      "time_usec": 667973067926
    },
    {
      "x": 9.769296646118164,
      "y": 0.4875376224517822,
      "z": -0.36191442608833313,
      "time_usec": 667973070174
    },
    {
      "x": 9.741181373596191,
      "y": 0.46839502453804016,
      "z": -0.4289134442806244,
      "time_usec": 667973072444
    },
    {
      "x": 9.736993789672852,
      "y": 0.4588237404823303,
      "z": -0.47617170214653015,
      "time_usec": 667973074703
    },
    {
      "x": 9.713065147399902,
      "y": 0.46839502453804016,
      "z": -0.5006981492042542,
      "time_usec": 667973076964
    },
    {
      "x": 9.689735412597656,
      "y": 0.46360939741134644,
      "z": -0.529412031173706,
      "time_usec": 667973079216
    },
    {
      "x": 9.68494987487793,
      "y": 0.43968117237091064,
      "z": -0.5629115104675293,
      "time_usec": 667973081470
    },
    {
      "x": 9.651450157165527,
      "y": 0.4013960063457489,
      "z": -0.5629115104675293,
      "time_usec": 667973083733
    },
    {
      "x": 9.6466646194458,
      "y": 0.38703906536102295,
      "z": -0.5629115104675293,
      "time_usec": 667973085991
    },
    {
      "x": 9.632308006286621,
      "y": 0.32961133122444153,
      "z": -0.5629115104675293,
      "time_usec": 667973088248
    },
    {
      "x": 9.607781410217285,
      "y": 0.2871387302875519,
      "z": -0.5060819983482361,
      "time_usec": 667973090500
    },
    {
      "x": 9.588638305664062,
      "y": 0.24885354936122894,
      "z": -0.46779683232307434,
      "time_usec": 667973092759
    },
    {
      "x": 9.597611427307129,
      "y": 0.19621145725250244,
      "z": -0.41515472531318665,
      "time_usec": 667973095023
    },
    {
      "x": 9.568299293518066,
      "y": 0.15314064919948578,
      "z": -0.381655216217041,
      "time_usec": 667973097280
    },
    {
      "x": 9.577272415161133,
      "y": 0.09571290761232376,
      "z": -0.30568310618400574,
      "time_usec": 667973099536
    },
    {
      "x": 9.5533447265625,
      "y": 0.04307080805301666,
      "z": -0.267397940158844,
      "time_usec": 667973101790
    },
    {
      "x": 9.538389205932617,
      "y": -0.01375873014330864,
      "z": -0.2147558331489563,
      "time_usec": 667973104050
    },
    {
      "x": 9.528220176696777,
      "y": -0.09032905846834183,
      "z": -0.15254244208335876,
      "time_usec": 667973106297
    },
    {
      "x": 9.5324068069458,
      "y": -0.1381855010986328,
      "z": -0.1339980661869049,
      "time_usec": 667973108567
    },
    {
      "x": 9.546764373779297,
      "y": -0.17647066712379456,
      "z": -0.08614161610603333,
      "time_usec": 667973110817
    },
    {
      "x": 9.565308570861816,
      "y": -0.22432711720466614,
      "z": -0.0526420995593071,
      "time_usec": 667973113077
    },
    {
      "x": 9.57906723022461,
      "y": -0.243469700217247,
      "z": -0.004785645287483931,
      "time_usec": 667973115341
    },
    {
      "x": 9.626325607299805,
      "y": -0.2584248483181,
      "z": 0.08195417374372482,
      "time_usec": 667973117585
    },
    {
      "x": 9.644869804382324,
      "y": -0.27756741642951965,
      "z": 0.129810631275177,
      "time_usec": 667973119845
    },
    {
      "x": 9.65384292602539,
      "y": -0.2967100143432617,
      "z": 0.19142581522464752,
      "time_usec": 667973122108
    },
    {
      "x": 9.644271850585938,
      "y": -0.30628129839897156,
      "z": 0.20578274130821228,
      "time_usec": 667973124375
    },
    {
      "x": 9.634700775146484,
      "y": -0.31046873331069946,
      "z": 0.24885354936122894,
      "time_usec": 667973126632
    },
    {
      "x": 9.638887405395508,
      "y": -0.3200400173664093,
      "z": 0.2679961323738098,
      "time_usec": 667973128888
    },
    {
      "x": 9.601201057434082,
      "y": -0.3152543902397156,
      "z": 0.2679961323738098,
      "time_usec": 667973131139
    },
    {
      "x": 9.58205795288086,
      "y": -0.2961117923259735,
      "z": 0.2721835672855377,
      "time_usec": 667973133396
    },
    {
      "x": 9.58205795288086,
      "y": -0.2913261651992798,
      "z": 0.2584248483181,
      "time_usec": 667973135660
    },
    {
      "x": 9.54915714263916,
      "y": -0.28654050827026367,
      "z": 0.25782662630081177,
      "time_usec": 667973137918
    },
    {
      "x": 9.510871887207031,
      "y": -0.2667997181415558,
      "z": 0.28654050827026367,
      "time_usec": 667973140172
    },
    {
      "x": 9.539586067199707,
      "y": -0.24287149310112,
      "z": 0.2913261651992798,
      "time_usec": 667973142434
    },
    {
      "x": 9.544371604919434,
      "y": -0.21415762603282928,
      "z": 0.2961117923259735,
      "time_usec": 667973144691
    },
    {
      "x": 9.516255378723145,
      "y": -0.1902294009923935,
      "z": 0.27696922421455383,
      "time_usec": 667973146950
    },
    {
      "x": 9.511469841003418,
      "y": -0.15672987699508667,
      "z": 0.28654050827026367,
      "time_usec": 667973149206
    },
    {
      "x": 9.488140106201172,
      "y": -0.137587308883667,
      "z": 0.2721835672855377,
      "time_usec": 667973151459
    },
    {
      "x": 9.478569030761719,
      "y": -0.11844471842050552,
      "z": 0.25304099917411804,
      "time_usec": 667973153722
    },
    {
      "x": 9.488140106201172,
      "y": -0.10408778488636017,
      "z": 0.267397940158844,
      "time_usec": 667973155980
    },
    {
      "x": 9.460023880004883,
      "y": -0.08434699475765228,
      "z": 0.2476571500301361,
      "time_usec": 667973158237
    },
    {
      "x": 9.464211463928223,
      "y": -0.07477571070194244,
      "z": 0.2907279431819916,
      "time_usec": 667973160490
    },
    {
      "x": 9.460023880004883,
      "y": -0.05563312768936157,
      "z": 0.20997019112110138,
      "time_usec": 667973162751
    },
    {
      "x": 9.483952522277832,
      "y": -0.046061836183071136,
      "z": 0.27696922421455383,
      "time_usec": 667973165008
    },
    {
      "x": 9.484550476074219,
      "y": -0.02273181453347206,
      "z": 0.08554340898990631,
      "time_usec": 667973167270
    },
    {
      "x": 9.494122505187988,
      "y": -0.013160524889826775,
      "z": 0.15254244208335876,
      "time_usec": 667973169526
    },
    {
      "x": 9.528220176696777,
      "y": 0.014955141581594944,
      "z": -0.004785645287483931,
      "time_usec": 667973171784
    },
    {
      "x": 9.556933403015137,
      "y": 0.07238288223743439,
      "z": -0.062213387340307236,
      "time_usec": 667973174039
    },
    {
      "x": 9.618548393249512,
      "y": 0.08673982322216034,
      "z": -0.023330021649599075,
      "time_usec": 667973176286
    },
    {
      "x": 9.615557670593262,
      "y": 0.14835500717163086,
      "z": -0.22851456701755524,
      "time_usec": 667973178542
    },
    {
      "x": 9.624530792236328,
      "y": 0.15314064919948578,
      "z": -0.21415762603282928,
      "time_usec": 667973180809
    },
    {
      "x": 9.635298728942871,
      "y": 0.17228323221206665,
      "z": -0.3577269911766052,
      "time_usec": 667973183073
    },
    {
      "x": 9.64965534210205,
      "y": 0.20518454909324646,
      "z": -0.4624129831790924,
      "time_usec": 667973185335
    },
    {
      "x": 9.668798446655273,
      "y": 0.22911277413368225,
      "z": -0.46719861030578613,
      "time_usec": 667973187588
    },
    {
      "x": 9.655637741088867,
      "y": 0.2626122832298279,
      "z": -0.5437689423561096,
      "time_usec": 667973189841
    },
    {
      "x": 9.688538551330566,
      "y": 0.2913261651992798,
      "z": -0.5533402562141418,
      "time_usec": 667973192097
    },
    {
      "x": 9.707681655883789,
      "y": 0.30568310618400574,
      "z": -0.5198407173156738,
      "time_usec": 667973194358
    },
    {
      "x": 9.722038269042969,
      "y": 0.33439695835113525,
      "z": -0.5144568681716919,
      "time_usec": 667973196610
    },
    {
      "x": 9.731609344482422,
      "y": 0.3439682424068451,
      "z": -0.48574298620224,
      "time_usec": 667973198876
    },
    {
      "x": 9.764511108398438,
      "y": 0.32961133122444153,
      "z": -0.4139583110809326,
      "time_usec": 667973201129
    },
    {
      "x": 9.77826976776123,
      "y": 0.33439695835113525,
      "z": -0.380458801984787,
      "time_usec": 667973203395
    },
    {
      "x": 9.768099784851074,
      "y": 0.28175488114356995,
      "z": -0.2997010350227356,
      "time_usec": 667973205649
    },
    {
      "x": 9.781859397888184,
      "y": 0.2721835672855377,
      "z": -0.21355941891670227,
      "time_usec": 667973207907
    },
    {
      "x": 9.7669038772583,
      "y": 0.22432711720466614,
      "z": -0.13698910176753998,
      "time_usec": 667973210160
    },
    {
      "x": 9.762118339538574,
      "y": 0.20099709928035736,
      "z": -0.04187439754605293,
      "time_usec": 667973212422
    },
    {
      "x": 9.784850120544434,
      "y": 0.16271193325519562,
      "z": 0.07776673883199692,
      "time_usec": 667973214677
    },
    {
      "x": 9.7938232421875,
      "y": 0.12921242415905,
      "z": 0.17347964644432068,
      "time_usec": 667973216927
    },
    {
      "x": 9.80219841003418,
      "y": 0.09092725813388824,
      "z": 0.27337998151779175,
      "time_usec": 667973219194
    },
    {
      "x": 9.783055305480957,
      "y": 0.07657032459974289,
      "z": 0.3643072545528412,
      "time_usec": 667973221449
    },
    {
      "x": 9.801599502563477,
      "y": 0.04785645380616188,
      "z": 0.4408775866031647,
      "time_usec": 667973223715
    },
    {
      "x": 9.781859397888184,
      "y": 0.024526432156562805,
      "z": 0.5024927258491516,
      "time_usec": 667973225969
    },
    {
      "x": 9.69093132019043,
      "y": -0.02273181453347206,
      "z": 0.5736792087554932,
      "time_usec": 667973228226
    },
    {
      "x": 9.64367389678955,
      "y": -0.05623133108019829,
      "z": 0.6023930907249451,
      "time_usec": 667973230479
    },
    {
      "x": 9.900303840637207,
      "y": 0.02871387079358101,
      "z": 0.6418746709823608,
      "time_usec": 667973232743
    },
    {
      "x": 9.738189697265625,
      "y": -0.03290131315588951,
      "z": 0.6221339106559753,
      "time_usec": 667973234998
    },
    {
      "x": 9.686145782470703,
      "y": -0.07058826833963394,
      "z": 0.6215356588363647,
      "time_usec": 667973237254
    },
    {
      "x": 9.814162254333496,
      "y": -0.03768695518374443,
      "z": 0.6173482537269592,
      "time_usec": 667973239515
    },
    {
      "x": 9.828518867492676,
      "y": -0.038285162299871445,
      "z": 0.5940182209014893,
      "time_usec": 667973241768
    },
    {
      "x": 9.776474952697754,
      "y": -0.0568295381963253,
      "z": 0.5599204897880554,
      "time_usec": 667973244032
    },
    {
      "x": 9.81954574584961,
      "y": -0.02392822690308094,
      "z": 0.5509474277496338,
      "time_usec": 667973246288
    },
    {
      "x": 9.876974105834961,
      "y": -0.0,
      "z": 0.5318048596382141,
      "time_usec": 667973248546
    },
    {
      "x": 9.853045463562012,
      "y": -0.0,
      "z": 0.5078766345977783,
      "time_usec": 667973250801
    },
    {
      "x": 9.853045463562012,
      "y": 0.019142581149935722,
      "z": 0.5222335457801819,
      "time_usec": 667973253069
    },
    {
      "x": 9.881759643554688,
      "y": 0.038285162299871445,
      "z": 0.49351966381073,
      "time_usec": 667973255320
    },
    {
      "x": 9.863214492797852,
      "y": 0.04785645380616188,
      "z": 0.47916272282600403,
      "time_usec": 667973257579
    },
    {
      "x": 9.815957069396973,
      "y": 0.062213387340307236,
      "z": 0.45523449778556824,
      "time_usec": 667973259831
    },
    {
      "x": 9.806385040283203,
      "y": 0.06699903309345245,
      "z": 0.388235479593277,
      "time_usec": 667973262079
    },
    {
      "x": 9.797411918640137,
      "y": 0.08614161610603333,
      "z": 0.3403790295124054,
      "time_usec": 667973264340
    },
    {
      "x": 9.787840843200684,
      "y": 0.07657032459974289,
      "z": 0.3116651475429535,
      "time_usec": 667973266608
    },
    {
      "x": 9.807581901550293,
      "y": 0.11485548317432404,
      "z": 0.26440688967704773,
      "time_usec": 667973268866
    },
    {
      "x": 9.783653259277344,
      "y": 0.13878370821475983,
      "z": 0.27337998151779175,
      "time_usec": 667973271120
    },
    {
      "x": 9.783653259277344,
      "y": 0.15314064919948578,
      "z": 0.268594354391098,
      "time_usec": 667973273381
    },
    {
      "x": 9.79801082611084,
      "y": 0.17706887423992157,
      "z": 0.30209386348724365,
      "time_usec": 667973275639
    },
    {
      "x": 9.79801082611084,
      "y": 0.20099709928035736,
      "z": 0.30209386348724365,
      "time_usec": 667973277896
    },
    {
      "x": 9.817152976989746,
      "y": 0.23449662327766418,
      "z": 0.3164508044719696,
      "time_usec": 667973280148
    },
    {
      "x": 9.841081619262695,
      "y": 0.24885354936122894,
      "z": 0.3074777126312256,
      "time_usec": 667973282407
    },
    {
      "x": 9.879366874694824,
      "y": 0.24885354936122894,
      "z": 0.29312077164649963,
      "time_usec": 667973284669
    },
    {
      "x": 9.907482147216797,
      "y": 0.22911277413368225,
      "z": 0.27397820353507996,
      "time_usec": 667973286928
    },
    {
      "x": 9.931410789489746,
      "y": 0.22911277413368225,
      "z": 0.24107688665390015,
      "time_usec": 667973289184
    },
    {
      "x": 9.964909553527832,
      "y": 0.2189432680606842,
      "z": 0.19322042167186737,
      "time_usec": 667973291437
    },
    {
      "x": 10.007980346679688,
      "y": 0.21415762603282928,
      "z": 0.13160525262355804,
      "time_usec": 667973293701
    },
    {
      "x": 10.017552375793457,
      "y": 0.23330020904541016,
      "z": 0.07896314561367035,
      "time_usec": 667973295958
    },
    {
      "x": 10.03729248046875,
      "y": 0.2470589429140091,
      "z": 0.04546362906694412,
      "time_usec": 667973298212
    },
    {
      "x": 10.0612211227417,
      "y": 0.30927231907844543,
      "z": 0.03170489892363548,
      "time_usec": 667973300458
    },
    {
      "x": 10.075577735900879,
      "y": 0.3044866919517517,
      "z": -0.001794616924598813,
      "time_usec": 667973302721
    },
    {
      "x": 10.128219604492188,
      "y": 0.34217363595962524,
      "z": -0.04426721855998039,
      "time_usec": 667973304989
    },
    {
      "x": 10.142577171325684,
      "y": 0.36610186100006104,
      "z": -0.10169496387243271,
      "time_usec": 667973307249
    },
    {
      "x": 10.147960662841797,
      "y": 0.34695929288864136,
      "z": -0.1495514214038849,
      "time_usec": 667973309505
    },
    {
      "x": 10.147960662841797,
      "y": 0.34695929288864136,
      "z": -0.17347964644432068,
      "time_usec": 667973311758
    },
    {
      "x": 10.110274314880371,
      "y": 0.3613162338733673,
      "z": -0.19262222945690155,
      "time_usec": 667973314019
    },
    {
      "x": 10.100702285766602,
      "y": 0.3565305769443512,
      "z": -0.22612173855304718,
      "time_usec": 667973316277
    },
    {
      "x": 10.081560134887695,
      "y": 0.39481574296951294,
      "z": -0.21655045449733734,
      "time_usec": 667973318535
    },
    {
      "x": 10.039087295532227,
      "y": 0.3810569941997528,
      "z": -0.1788634955883026,
      "time_usec": 667973320788
    },
    {
      "x": 9.986445426940918,
      "y": 0.39601215720176697,
      "z": -0.11186445504426956,
      "time_usec": 667973323051
    },
    {
      "x": 9.952945709228516,
      "y": 0.39601215720176697,
      "z": -0.05024927482008934,
      "time_usec": 667973325308
    },
    {
      "x": 9.933204650878906,
      "y": 0.39601215720176697,
      "z": 0.016749758273363113,
      "time_usec": 667973327567
    },
    {
      "x": 9.89551830291748,
      "y": 0.39182472229003906,
      "z": 0.054436713457107544,
      "time_usec": 667973329820
    },
    {
      "x": 9.870991706848145,
      "y": 0.3535395562648773,
      "z": 0.08793623000383377,
      "time_usec": 667973332075
    },
    {
      "x": 9.875777244567871,
      "y": 0.33918261528015137,
      "z": 0.07836493849754333,
      "time_usec": 667973334338
    },
    {
      "x": 9.880562782287598,
      "y": 0.3152543902397156,
      "z": 0.08793623000383377,
      "time_usec": 667973336594
    },
    {
      "x": 9.870991706848145,
      "y": 0.30568310618400574,
      "z": 0.08315058797597885,
      "time_usec": 667973338855
    },
    {
      "x": 9.866206169128418,
      "y": 0.2626122832298279,
      "z": 0.054436713457107544,
      "time_usec": 667973341107
    },
    {
      "x": 9.861420631408691,
      "y": 0.25304099917411804,
      "z": 0.05922235921025276,
      "time_usec": 667973343370
    },
    {
      "x": 9.842277526855469,
      "y": 0.24825534224510193,
      "z": 0.09212367236614227,
      "time_usec": 667973345629
    },
    {
      "x": 9.827920913696289,
      "y": 0.2386840581893921,
      "z": 0.12083754688501358,
      "time_usec": 667973347886
    },
    {
      "x": 9.827322959899902,
      "y": 0.22971096634864807,
      "z": 0.1543370634317398,
      "time_usec": 667973350138
    },
    {
      "x": 9.817750930786133,
      "y": 0.2105683982372284,
      "z": 0.2069791555404663,
      "time_usec": 667973352400
    },
    {
      "x": 9.817152976989746,
      "y": 0.2105683982372284,
      "z": 0.25004997849464417,
      "time_usec": 667973354658
    },
    {
      "x": 9.81236743927002,
      "y": 0.1866401731967926,
      "z": 0.2787638306617737,
      "time_usec": 667973356911
    },
    {
      "x": 9.836296081542969,
      "y": 0.16749759018421173,
      "z": 0.29312077164649963,
      "time_usec": 667973359158
    },
    {
      "x": 9.835697174072266,
      "y": 0.11964113265275955,
      "z": 0.29312077164649963,
      "time_usec": 667973361419
    },
    {
      "x": 9.845269203186035,
      "y": 0.09092725813388824,
      "z": 0.29790642857551575,
      "time_usec": 667973363690
    },
    {
      "x": 9.826126098632812,
      "y": 0.09571290761232376,
      "z": 0.2835494875907898,
      "time_usec": 667973365951
    },
    {
      "x": 9.826126098632812,
      "y": 0.07657032459974289,
      "z": 0.26919254660606384,
      "time_usec": 667973368207
    },
    {
      "x": 9.882955551147461,
      "y": 0.06640082597732544,
      "z": 0.25004997849464417,
      "time_usec": 667973370458
    },
    {
      "x": 9.869196891784668,
      "y": 0.0568295381963253,
      "z": 0.24047867953777313,
      "time_usec": 667973372717
    },
    {
      "x": 9.845269203186035,
      "y": 0.04247260093688965,
      "z": 0.24526432156562805,
      "time_usec": 667973374965
    },
    {
      "x": 9.854840278625488,
      "y": 0.04247260093688965,
      "z": 0.2309073805809021,
      "time_usec": 667973377236
    },
    {
      "x": 9.850054740905762,
      "y": 0.023330021649599075,
      "z": 0.25004997849464417,
      "time_usec": 667973379492
    },
    {
      "x": 9.835697174072266,
      "y": 0.01375873014330864,
      "z": 0.22133609652519226,
      "time_usec": 667973381750
    },
    {
      "x": 9.830911636352539,
      "y": 0.03290131315588951,
      "z": 0.2021935135126114,
      "time_usec": 667973384010
    },
    {
      "x": 9.831509590148926,
      "y": 0.03768695518374443,
      "z": 0.13998012244701385,
      "time_usec": 667973386266
    },
    {
      "x": 9.817152976989746,
      "y": 0.047258246690034866,
      "z": 0.10169496387243271,
      "time_usec": 667973388524
    },
    {
      "x": 9.803394317626953,
      "y": 0.052043892443180084,
      "z": 0.0729810893535614,
      "time_usec": 667973390777
    },
    {
      "x": 9.770493507385254,
      "y": 0.07118647545576096,
      "z": 0.029910283163189888,
      "time_usec": 667973393039
    },
    {
      "x": 9.736993789672852,
      "y": 0.062213387340307236,
      "z": 0.005982056725770235,
      "time_usec": 667973395297
    },
    {
      "x": 9.723235130310059,
      "y": 0.06699903309345245,
      "z": 0.0011964113218709826,
      "time_usec": 667973397555
    },
    {
      "x": 9.670592308044434,
      "y": 0.08614161610603333,
      "z": 0.024526432156562805,
      "time_usec": 667973399809
    },
    {
      "x": 9.637093544006348,
      "y": 0.09631111472845078,
      "z": 0.08195417374372482,
      "time_usec": 667973402069
    },
    {
      "x": 9.6466646194458,
      "y": 0.09631111472845078,
      "z": 0.13459627330303192,
      "time_usec": 667973404328
    },
    {
      "x": 9.656235694885254,
      "y": 0.12023933976888657,
      "z": 0.16809579730033875,
      "time_usec": 667973406587
    },
    {
      "x": 9.693922996520996,
      "y": 0.11066804826259613,
      "z": 0.21595224738121033,
      "time_usec": 667973408841
    },
    {
      "x": 9.726823806762695,
      "y": 0.11006984114646912,
      "z": 0.22073788940906525,
      "time_usec": 667973411088
    },
    {
      "x": 9.745966911315918,
      "y": 0.11006984114646912,
      "z": 0.19202402234077454,
      "time_usec": 667973413359
    },
    {
      "x": 9.765109062194824,
      "y": 0.10049854964017868,
      "z": 0.13519448041915894,
      "time_usec": 667973415616
    },
    {
      "x": 9.78963565826416,
      "y": 0.11425728350877762,
      "z": 0.06340979784727097,
      "time_usec": 667973417876
    },
    {
      "x": 9.77527904510498,
      "y": 0.11425728350877762,
      "z": 0.010767702013254166,
      "time_usec": 667973420128
    },
    {
      "x": 9.766305923461914,
      "y": 0.14297115802764893,
      "z": -0.04187439754605293,
      "time_usec": 667973422390
    },
    {
      "x": 9.780662536621094,
      "y": 0.1621137410402298,
      "z": -0.061016976833343506,
      "time_usec": 667973424647
    },
    {
      "x": 9.7669038772583,
      "y": 0.1860419660806656,
      "z": -0.06580262631177902,
      "time_usec": 667973426906
    },
    {
      "x": 9.775876998901367,
      "y": 0.2147558331489563,
      "z": -0.02273181453347206,
      "time_usec": 667973429161
    },
    {
      "x": 9.766305923461914,
      "y": 0.23449662327766418,
      "z": 0.0011964113218709826,
      "time_usec": 667973431415
    },
    {
      "x": 9.766305923461914,
      "y": 0.2392822653055191,
      "z": 0.015553346835076809,
      "time_usec": 667973433678
    },
    {
      "x": 9.77109146118164,
      "y": 0.28235307335853577,
      "z": 0.04905286431312561,
      "time_usec": 667973435936
    },
    {
      "x": 9.761520385742188,
      "y": 0.2727817893028259,
      "z": 0.058624155819416046,
      "time_usec": 667973438195
    },
    {
      "x": 9.77109146118164,
      "y": 0.27756741642951965,
      "z": 0.039481572806835175,
      "time_usec": 667973440446
    },
    {
      "x": 9.780662536621094,
      "y": 0.2632105052471161,
      "z": 0.04426721855998039,
      "time_usec": 667973442706
    },
    {
      "x": 9.78544807434082,
      "y": 0.2679961323738098,
      "z": 0.05383851006627083,
      "time_usec": 667973444951
    },
    {
      "x": 9.775876998901367,
      "y": 0.2632105052471161,
      "z": 0.06819544732570648,
      "time_usec": 667973447210
    },
    {
      "x": 9.78544807434082,
      "y": 0.2632105052471161,
      "z": 0.09690931439399719,
      "time_usec": 667973449466
    },
    {
      "x": 9.78963565826416,
      "y": 0.22013968229293823,
      "z": 0.1495514214038849,
      "time_usec": 667973451727
    },
    {
      "x": 9.798608779907227,
      "y": 0.22492532432079315,
      "z": 0.2069791555404663,
      "time_usec": 667973453985
    },
    {
      "x": 9.7938232421875,
      "y": 0.1866401731967926,
      "z": 0.2590230405330658,
      "time_usec": 667973456244
    },
    {
      "x": 9.793225288391113,
      "y": 0.16271193325519562,
      "z": 0.3116651475429535,
      "time_usec": 667973458500
    },
    {
      "x": 9.783653259277344,
      "y": 0.14835500717163086,
      "z": 0.3451646566390991,
      "time_usec": 667973460758
    },
    {
      "x": 9.773484230041504,
      "y": 0.11964113265275955,
      "z": 0.373878538608551,
      "time_usec": 667973463019
    },
    {
      "x": 9.768698692321777,
      "y": 0.11545369029045105,
      "z": 0.3690928816795349,
      "time_usec": 667973465289
    },
    {
      "x": 9.77826976776123,
      "y": 0.10049854964017868,
      "z": 0.3690928816795349,
      "time_usec": 667973467546
    },
    {
      "x": 9.783055305480957,
      "y": 0.09092725813388824,
      "z": 0.373878538608551,
      "time_usec": 667973469800
    },
    {
      "x": 9.797411918640137,
      "y": 0.08135596662759781,
      "z": 0.34995031356811523,
      "time_usec": 667973472054
    },
    {
      "x": 9.830313682556152,
      "y": 0.09571290761232376,
      "z": 0.35473597049713135,
      "time_usec": 667973474310
    },
    {
      "x": 9.839884757995605,
      "y": 0.08135596662759781,
      "z": 0.3690928816795349,
      "time_usec": 667973476575
    },
    {
      "x": 9.854242324829102,
      "y": 0.08614161610603333,
      "z": 0.3601198196411133,
      "time_usec": 667973478833
    },
    {
      "x": 9.863813400268555,
      "y": 0.11006984114646912,
      "z": 0.3888336718082428,
      "time_usec": 667973481089
    },
    {
      "x": 9.887741088867188,
      "y": 0.1381855010986328,
      "z": 0.3696911036968231,
      "time_usec": 667973483348
    },
    {
      "x": 9.902098655700684,
      "y": 0.15254244208335876,
      "z": 0.34576287865638733,
      "time_usec": 667973485606
    },
    {
      "x": 9.90269660949707,
      "y": 0.15732808411121368,
      "z": 0.29790642857551575,
      "time_usec": 667973487862
    },
    {
      "x": 9.907482147216797,
      "y": 0.17647066712379456,
      "z": 0.27397820353507996,
      "time_usec": 667973490113
    },
    {
      "x": 9.88415241241455,
      "y": 0.1908276081085205,
      "z": 0.21655045449733734,
      "time_usec": 667973492367
    },
    {
      "x": 9.893723487854004,
      "y": 0.21954147517681122,
      "z": 0.16450655460357666,
      "time_usec": 667973494636
    },
    {
      "x": 9.889535903930664,
      "y": 0.22911277413368225,
      "z": 0.11665010452270508,
      "time_usec": 667973496895
    },
    {
      "x": 9.870991706848145,
      "y": 0.267397940158844,
      "z": 0.05922235921025276,
      "time_usec": 667973499154
    },
    {
      "x": 9.856635093688965,
      "y": 0.24825534224510193,
      "z": -0.0077766734175384045,
      "time_usec": 667973501404
    },
    {
      "x": 9.862018585205078,
      "y": 0.28175488114356995,
      "z": -0.06041877344250679,
      "time_usec": 667973503667
    },
    {
      "x": 9.81954574584961,
      "y": 0.2721835672855377,
      "z": -0.09391828626394272,
      "time_usec": 667973505925
    },
    {
      "x": 9.809974670410156,
      "y": 0.267397940158844,
      "z": -0.13220344483852386,
      "time_usec": 667973508181
    },
    {
      "x": 9.796216011047363,
      "y": 0.28654050827026367,
      "z": -0.16091732680797577,
      "time_usec": 667973510428
    },
    {
      "x": 9.781859397888184,
      "y": 0.2913261651992798,
      "z": -0.14656038582324982,
      "time_usec": 667973512697
    },
    {
      "x": 9.753145217895508,
      "y": 0.28654050827026367,
      "z": -0.1417747437953949,
      "time_usec": 667973514956
    },
    {
      "x": 9.729216575622559,
      "y": 0.2727817893028259,
      "z": -0.12323036789894104,
      "time_usec": 667973517216
    },
    {
      "x": 9.7005033493042,
      "y": 0.2632105052471161,
      "z": -0.10887342691421509,
      "time_usec": 667973519470
    },
    {
      "x": 9.67238712310791,
      "y": 0.2632105052471161,
      "z": -0.09451649338006973,
      "time_usec": 667973521724
    },
    {
      "x": 9.624530792236328,
      "y": 0.24945175647735596,
      "z": -0.0568295381963253,
      "time_usec": 667973523983
    },
    {
      "x": 9.619147300720215,
      "y": 0.22073788940906525,
      "z": -0.028115665540099144,
      "time_usec": 667973526232
    },
    {
      "x": 9.619147300720215,
      "y": 0.2111666053533554,
      "z": 0.010169495828449726,
      "time_usec": 667973528503
    },
    {
      "x": 9.628718376159668,
      "y": 0.19680966436862946,
      "z": 0.03888336941599846,
      "time_usec": 667973530755
    },
    {
      "x": 9.652048110961914,
      "y": 0.19202402234077454,
      "z": 0.06759724020957947,
      "time_usec": 667973533021
    },
    {
      "x": 9.66640567779541,
      "y": 0.1824527233839035,
      "z": 0.08673982322216034,
      "time_usec": 667973535275
    },
    {
      "x": 9.69930648803711,
      "y": 0.1818545162677765,
      "z": 0.10588239878416061,
      "time_usec": 667973537533
    },
    {
      "x": 9.723235130310059,
      "y": 0.17706887423992157,
      "z": 0.12023933976888657,
      "time_usec": 667973539786
    },
    {
      "x": 9.732208251953125,
      "y": 0.14835500717163086,
      "z": 0.1585244983434677,
      "time_usec": 667973542043
    },
    {
      "x": 9.765109062194824,
      "y": 0.14356936514377594,
      "z": 0.20159530639648438,
      "time_usec": 667973544306
    },
    {
      "x": 9.793225288391113,
      "y": 0.12442677468061447,
      "z": 0.22612173855304718,
      "time_usec": 667973546563
    },
    {
      "x": 9.793225288391113,
      "y": 0.11964113265275955,
      "z": 0.24945175647735596,
      "time_usec": 667973548821
    },
    {
      "x": 9.81655502319336,
      "y": 0.11006984114646912,
      "z": 0.26919254660606384,
      "time_usec": 667973551072
    },
    {
      "x": 9.811769485473633,
      "y": 0.11006984114646912,
      "z": 0.3164508044719696,
      "time_usec": 667973553337
    },
    {
      "x": 9.830911636352539,
      "y": 0.12921242415905,
      "z": 0.34995031356811523,
      "time_usec": 667973555595
    },
    {
      "x": 9.811769485473633,
      "y": 0.12921242415905,
      "z": 0.3451646566390991,
      "time_usec": 667973557853
    },
    {
      "x": 9.821340560913086,
      "y": 0.1579262912273407,
      "z": 0.34995031356811523,
      "time_usec": 667973560104
    },
    {
      "x": 9.79801082611084,
      "y": 0.1579262912273407,
      "z": 0.32123643159866333,
      "time_usec": 667973562364
    },
    {
      "x": 9.774680137634277,
      "y": 0.2105683982372284,
      "z": 0.30209386348724365,
      "time_usec": 667973564627
    },
    {
      "x": 9.755537986755371,
      "y": 0.23988047242164612,
      "z": 0.2829512655735016,
      "time_usec": 667973566885
    },
    {
      "x": 9.717850685119629,
      "y": 0.24945175647735596,
      "z": 0.27337998151779175,
      "time_usec": 667973569140
    },
    {
      "x": 9.68913745880127,
      "y": 0.2590230405330658,
      "z": 0.25423741340637207,
      "time_usec": 667973571393
    },
    {
      "x": 9.642477035522461,
      "y": 0.2835494875907898,
      "z": 0.22971096634864807,
      "time_usec": 667973573657
    },
    {
      "x": 9.632905960083008,
      "y": 0.3026920557022095,
      "z": 0.19621145725250244,
      "time_usec": 667973575914
    },
    {
      "x": 9.628120422363281,
      "y": 0.3122633695602417,
      "z": 0.1818545162677765,
      "time_usec": 667973578172
    },
    {
      "x": 9.604789733886719,
      "y": 0.32662028074264526,
      "z": 0.14356936514377594,
      "time_usec": 667973580424
    },
    {
      "x": 9.5862455368042,
      "y": 0.3409772217273712,
      "z": 0.11485548317432404,
      "time_usec": 667973582688
    },
    {
      "x": 9.595816612243652,
      "y": 0.3361915946006775,
      "z": 0.08135596662759781,
      "time_usec": 667973584945
    },
    {
      "x": 9.576674461364746,
      "y": 0.34576287865638733,
      "z": 0.06699903309345245,
      "time_usec": 667973587204
    },
    {
      "x": 9.605388641357422,
      "y": 0.3355933725833893,
      "z": 0.029312077909708023,
      "time_usec": 667973589459
    },
    {
      "x": 9.601201057434082,
      "y": 0.3451646566390991,
      "z": -0.008973085321485996,
      "time_usec": 667973591713
    },
    {
      "x": 9.56770133972168,
      "y": 0.32183465361595154,
      "z": -0.03349951654672623,
      "time_usec": 667973593975
    },
    {
      "x": 9.56770133972168,
      "y": 0.3026920557022095,
      "z": -0.038285162299871445,
      "time_usec": 667973596231
    },
    {
      "x": 9.572486877441406,
      "y": 0.268594354391098,
      "z": -0.047258246690034866,
      "time_usec": 667973598490
    },
    {
      "x": 9.586843490600586,
      "y": 0.2638086974620819,
      "z": -0.07118647545576096,
      "time_usec": 667973600739
    },
    {
      "x": 9.605388641357422,
      "y": 0.2638086974620819,
      "z": -0.08554340898990631,
      "time_usec": 667973603004
    },
    {
      "x": 9.629316329956055,
      "y": 0.25423741340637207,
      "z": -0.09032905846834183,
      "time_usec": 667973605252
    },
    {
      "x": 9.681360244750977,
      "y": 0.25363919138908386,
      "z": -0.061016976833343506,
      "time_usec": 667973607522
    },
    {
      "x": 9.7005033493042,
      "y": 0.27756741642951965,
      "z": 0.005982056725770235,
      "time_usec": 667973609764
    },
    {
      "x": 9.714262008666992,
      "y": 0.27756741642951965,
      "z": 0.04426721855998039,
      "time_usec": 667973612025
    },
    {
      "x": 9.723833084106445,
      "y": 0.2584248483181,
      "z": 0.06819544732570648,
      "time_usec": 667973614279
    },
    {
      "x": 9.713663101196289,
      "y": 0.22013968229293823,
      "z": 0.10588239878416061,
      "time_usec": 667973616541
    },
    {
      "x": 9.718449592590332,
      "y": 0.22013968229293823,
      "z": 0.13459627330303192,
      "time_usec": 667973618800
    },
    {
      "x": 9.713663101196289,
      "y": 0.1866401731967926,
      "z": 0.129810631275177,
      "time_usec": 667973621057
    },
    {
      "x": 9.69930648803711,
      "y": 0.1866401731967926,
      "z": 0.11066804826259613,
      "time_usec": 667973623313
    },
    {
      "x": 9.675378799438477,
      "y": 0.1537388563156128,
      "z": 0.09152546525001526,
      "time_usec": 667973625570
    },
    {
      "x": 9.694520950317383,
      "y": 0.14835500717163086,
      "z": 0.0771685317158699,
      "time_usec": 667973627828
    },
    {
      "x": 9.69930648803711,
      "y": 0.12442677468061447,
      "z": 0.05802594870328903,
      "time_usec": 667973630087
    },
    {
      "x": 9.689735412597656,
      "y": 0.13878370821475983,
      "z": 0.048454657196998596,
      "time_usec": 667973632347
    },
    {
      "x": 9.708877563476562,
      "y": 0.11006984114646912,
      "z": 0.06281159073114395,
      "time_usec": 667973634615
    },
    {
      "x": 9.69930648803711,
      "y": 0.1339980661869049,
      "z": 0.07238288223743439,
      "time_usec": 667973636860
    },
    {
      "x": 9.708877563476562,
      "y": 0.12921242415905,
      "z": 0.08195417374372482,
      "time_usec": 667973639119
    },
    {
      "x": 9.718449592590332,
      "y": 0.15314064919948578,
      "z": 0.09152546525001526,
      "time_usec": 667973641383
    },
    {
      "x": 9.680164337158203,
      "y": 0.17288143932819366,
      "z": 0.07238288223743439,
      "time_usec": 667973643645
    },
    {
      "x": 9.685547828674316,
      "y": 0.1866401731967926,
      "z": 0.053240302950143814,
      "time_usec": 667973645894
    },
    {
      "x": 9.65683364868164,
      "y": 0.2063809484243393,
      "z": 0.04366901144385338,
      "time_usec": 667973648159
    },
    {
      "x": 9.638289451599121,
      "y": 0.22073788940906525,
      "z": 0.04366901144385338,
      "time_usec": 667973650406
    },
    {
      "x": 9.614361763000488,
      "y": 0.22552353143692017,
      "z": 0.03888336941599846,
      "time_usec": 667973652677
    },
    {
      "x": 9.5862455368042,
      "y": 0.22552353143692017,
      "z": 0.02392822690308094,
      "time_usec": 667973654919
    },
    {
      "x": 9.585647583007812,
      "y": 0.21595224738121033,
      "z": 0.02392822690308094,
      "time_usec": 667973657179
    },
    {
      "x": 9.57188892364502,
      "y": 0.2111666053533554,
      "z": 0.038285162299871445,
      "time_usec": 667973659433
    },
    {
      "x": 9.55753231048584,
      "y": 0.2021935135126114,
      "z": 0.02392822690308094,
      "time_usec": 667973661694
    },
    {
      "x": 9.580862045288086,
      "y": 0.17288143932819366,
      "z": 0.04307080805301666,
      "time_usec": 667973663952
    },
    {
      "x": 9.580862045288086,
      "y": 0.16809579730033875,
      "z": 0.05742774158716202,
      "time_usec": 667973666213
    },
    {
      "x": 9.5802640914917,
      "y": 0.14895321428775787,
      "z": 0.08614161610603333,
      "time_usec": 667973668482
    },
    {
      "x": 9.594620704650879,
      "y": 0.13459627330303192,
      "z": 0.16271193325519562,
      "time_usec": 667973670733
    },
    {
      "x": 9.603593826293945,
      "y": 0.12023933976888657,
      "z": 0.16749759018421173,
      "time_usec": 667973672988
    },
    {
      "x": 9.6466646194458,
      "y": 0.12502498924732208,
      "z": 0.17228323221206665,
      "time_usec": 667973675253
    },
    {
      "x": 9.684351921081543,
      "y": 0.0771685317158699,
      "z": 0.17288143932819366,
      "time_usec": 667973677510
    },
    {
      "x": 9.698708534240723,
      "y": 0.05742774158716202,
      "z": 0.14416755735874176,
      "time_usec": 667973679758
    },
    {
      "x": 9.722636222839355,
      "y": 0.05742774158716202,
      "z": 0.12502498924732208,
      "time_usec": 667973682021
    },
    {
      "x": 9.745966911315918,
      "y": 0.04785645380616188,
      "z": 0.129810631275177,
      "time_usec": 667973684282
    },
    {
      "x": 9.765109062194824,
      "y": 0.04307080805301666,
      "z": 0.13040883839130402,
      "time_usec": 667973686535
    },
    {
      "x": 9.793225288391113,
      "y": 0.023330021649599075,
      "z": 0.13040883839130402,
      "time_usec": 667973688801
    },
    {
      "x": 9.802796363830566,
      "y": 0.06161518394947052,
      "z": 0.13040883839130402,
      "time_usec": 667973691056
    },
    {
      "x": 9.821938514709473,
      "y": 0.06161518394947052,
      "z": 0.15912270545959473,
      "time_usec": 667973693317
    },
    {
      "x": 9.841081619262695,
      "y": 0.09032905846834183,
      "z": 0.17347964644432068,
      "time_usec": 667973695571
    },
    {
      "x": 9.869196891784668,
      "y": 0.07597211748361588,
      "z": 0.22133609652519226,
      "time_usec": 667973697823
    },
    {
      "x": 9.859625816345215,
      "y": 0.07118647545576096,
      "z": 0.24526432156562805,
      "time_usec": 667973700090
    },
    {
      "x": 9.859625816345215,
      "y": 0.07118647545576096,
      "z": 0.25004997849464417,
      "time_usec": 667973702352
    },
    {
      "x": 9.854840278625488,
      "y": 0.052043892443180084,
      "z": 0.25004997849464417,
      "time_usec": 667973704606
    },
    {
      "x": 9.835697174072266,
      "y": 0.028115665540099144,
      "z": 0.25004997849464417,
      "time_usec": 667973706862
    },
    {
      "x": 9.826126098632812,
      "y": 0.03349951654672623,
      "z": 0.26440688967704773,
      "time_usec": 667973709118
    },
    {
      "x": 9.81655502319336,
      "y": 0.02392822690308094,
      "z": 0.26440688967704773,
      "time_usec": 667973711368
    },
    {
      "x": 9.811769485473633,
      "y": 0.03349951654672623,
      "z": 0.2787638306617737,
      "time_usec": 667973713622
    },
    {
      "x": 9.783055305480957,
      "y": 0.014356935396790504,
      "z": 0.268594354391098,
      "time_usec": 667973715892
    },
    {
      "x": 9.77826976776123,
      "y": -0.0,
      "z": 0.2877369225025177,
      "time_usec": 667973718150
    },
    {
      "x": 9.783055305480957,
      "y": 0.02871387079358101,
      "z": 0.268594354391098,
      "time_usec": 667973720406
    },
    {
      "x": 9.77826976776123,
      "y": 0.03349951654672623,
      "z": 0.27816563844680786,
      "time_usec": 667973722665
    },
    {
      "x": 9.750154495239258,
      "y": 0.04785645380616188,
      "z": 0.30209386348724365,
      "time_usec": 667973724923
    },
    {
      "x": 9.740582466125488,
      "y": 0.0771685317158699,
      "z": 0.29730820655822754,
      "time_usec": 667973727183
    },
    {
      "x": 9.717252731323242,
      "y": 0.09152546525001526,
      "z": 0.2590230405330658,
      "time_usec": 667973729437
    },
    {
      "x": 9.688538551330566,
      "y": 0.11066804826259613,
      "z": 0.23988047242164612,
      "time_usec": 667973731691
    },
    {
      "x": 9.6795654296875,
      "y": 0.13459627330303192,
      "z": 0.2063809484243393,
      "time_usec": 667973733953
    },
    {
      "x": 9.66520881652832,
      "y": 0.10588239878416061,
      "z": 0.19202402234077454,
      "time_usec": 667973736211
    },
    {
      "x": 9.684351921081543,
      "y": 0.12023933976888657,
      "z": 0.14416755735874176,
      "time_usec": 667973738469
    },
    {
      "x": 9.680164337158203,
      "y": 0.12502498924732208,
      "z": 0.11545369029045105,
      "time_usec": 667973740722
    },
    {
      "x": 9.69930648803711,
      "y": 0.1339980661869049,
      "z": 0.07238288223743439,
      "time_usec": 667973742982
    },
    {
      "x": 9.732208251953125,
      "y": 0.11485548317432404,
      "z": 0.06819544732570648,
      "time_usec": 667973745232
    },
    {
      "x": 9.722636222839355,
      "y": 0.11485548317432404,
      "z": 0.08195417374372482,
      "time_usec": 667973747500
    },
    {
      "x": 9.717850685119629,
      "y": 0.11485548317432404,
      "z": 0.08673982322216034,
      "time_usec": 667973749750
    },
    {
      "x": 9.717850685119629,
      "y": 0.07657032459974289,
      "z": 0.129810631275177,
      "time_usec": 667973752005
    },
    {
      "x": 9.707681655883789,
      "y": 0.06759724020957947,
      "z": 0.19680966436862946,
      "time_usec": 667973754273
    },
    {
      "x": 9.688538551330566,
      "y": 0.06281159073114395,
      "z": 0.25423741340637207,
      "time_usec": 667973756533
    },
    {
      "x": 9.692726135253906,
      "y": 0.03888336941599846,
      "z": 0.2967100143432617,
      "time_usec": 667973758797
    },
    {
      "x": 9.68794059753418,
      "y": 0.053240302950143814,
      "z": 0.35413774847984314,
      "time_usec": 667973761042
    },
    {
      "x": 9.69212818145752,
      "y": 0.010169495828449726,
      "z": 0.4019941985607147,
      "time_usec": 667973763306
    },
    {
      "x": 9.701699256896973,
      "y": -0.018544375896453857,
      "z": 0.4259224236011505,
      "time_usec": 667973765560
    },
    {
      "x": 9.744172096252441,
      "y": -0.03290131315588951,
      "z": 0.45942193269729614,
      "time_usec": 667973767820
    },
    {
      "x": 9.77707290649414,
      "y": -0.018544375896453857,
      "z": 0.46002015471458435,
      "time_usec": 667973770072
    },
    {
      "x": 9.824331283569336,
      "y": -0.06699903309345245,
      "z": 0.43609192967414856,
      "time_usec": 667973772325
    },
    {
      "x": 9.862616539001465,
      "y": -0.0771685317158699,
      "z": 0.40797626972198486,
      "time_usec": 667973774592
    },
    {
      "x": 9.896116256713867,
      "y": -0.05802594870328903,
      "z": 0.40319061279296875,
      "time_usec": 667973776851
    },
    {
      "x": 9.924830436706543,
      "y": -0.07238288223743439,
      "z": 0.3888336718082428,
      "time_usec": 667973779109
    },
    {
      "x": 9.957731246948242,
      "y": -0.07776673883199692,
      "z": 0.35114672780036926,
      "time_usec": 667973781362
    },
    {
      "x": 9.986445426940918,
      "y": -0.04905286431312561,
      "z": 0.3655036687850952,
      "time_usec": 667973783624
    },
    {
      "x": 10.000802040100098,
      "y": -0.010767702013254166,
      "z": 0.37028929591178894,
      "time_usec": 667973785881
    },
    {
      "x": 10.01994514465332,
      "y": -0.029910283163189888,
      "z": 0.3655036687850952,
      "time_usec": 667973788139
    },
    {
      "x": 10.01994514465332,
      "y": -0.015553346835076809,
      "z": 0.35114672780036926,
      "time_usec": 667973790392
    },
    {
      "x": 10.029516220092773,
      "y": 0.008374879136681557,
      "z": 0.3320041298866272,
      "time_usec": 667973792655
    },
    {
      "x": 10.010972023010254,
      "y": 0.04187439754605293,
      "z": 0.3032902777194977,
      "time_usec": 667973794912
    },
    {
      "x": 9.991828918457031,
      "y": 0.061016976833343506,
      "z": 0.31764721870422363,
      "time_usec": 667973797171
    },
    {
      "x": 9.978070259094238,
      "y": 0.061016976833343506,
      "z": 0.2554338276386261,
      "time_usec": 667973799427
    },
    {
      "x": 9.973284721374512,
      "y": 0.08973085135221481,
      "z": 0.2602194547653198,
      "time_usec": 667973801680
    },
    {
      "x": 9.954740524291992,
      "y": 0.0849452018737793,
      "z": 0.2267199456691742,
      "time_usec": 667973803943
    },
    {
      "x": 9.926624298095703,
      "y": 0.11425728350877762,
      "z": 0.19322042167186737,
      "time_usec": 667973806200
    },
    {
      "x": 9.888937950134277,
      "y": 0.11904292553663254,
      "z": 0.1453639715909958,
      "time_usec": 667973808458
    },
    {
      "x": 9.850652694702148,
      "y": 0.10468599200248718,
      "z": 0.10648060590028763,
      "time_usec": 667973810711
    },
    {
      "x": 9.812965393066406,
      "y": 0.11904292553663254,
      "z": 0.10648060590028763,
      "time_usec": 667973812974
    },
    {
      "x": 9.817750930786133,
      "y": 0.1381855010986328,
      "z": 0.08255238085985184,
      "time_usec": 667973815229
    },
    {
      "x": 9.818349838256836,
      "y": 0.15254244208335876,
      "z": 0.058624155819416046,
      "time_usec": 667973817478
    },
    {
      "x": 9.818349838256836,
      "y": 0.16689938306808472,
      "z": 0.03469592705368996,
      "time_usec": 667973819741
    },
    {
      "x": 9.818349838256836,
      "y": 0.18125630915164948,
      "z": 0.02512463741004467,
      "time_usec": 667973822000
    },
    {
      "x": 9.80399227142334,
      "y": 0.19561325013637543,
      "z": 0.04905286431312561,
      "time_usec": 667973824265
    },
    {
      "x": 9.81356430053711,
      "y": 0.20518454909324646,
      "z": 0.05383851006627083,
      "time_usec": 667973826520
    },
    {
      "x": 9.80399227142334,
      "y": 0.20578274130821228,
      "z": 0.06819544732570648,
      "time_usec": 667973828773
    },
    {
      "x": 9.784850120544434,
      "y": 0.20099709928035736,
      "z": 0.11605189740657806,
      "time_usec": 667973831030
    },
    {
      "x": 9.765707015991211,
      "y": 0.17706887423992157,
      "z": 0.15912270545959473,
      "time_usec": 667973833294
    },
    {
      "x": 9.755537986755371,
      "y": 0.16749759018421173,
      "z": 0.2063809484243393,
      "time_usec": 667973835554
    },
    {
      "x": 9.745966911315918,
      "y": 0.15314064919948578,
      "z": 0.23988047242164612,
      "time_usec": 667973837810
    },
    {
      "x": 9.741181373596191,
      "y": 0.14416755735874176,
      "z": 0.268594354391098,
      "time_usec": 667973840061
    },
    {
      "x": 9.745368003845215,
      "y": 0.129810631275177,
      "z": 0.27337998151779175,
      "time_usec": 667973842309
    },
    {
      "x": 9.759725570678711,
      "y": 0.12442677468061447,
      "z": 0.2877369225025177,
      "time_usec": 667973844572
    },
    {
      "x": 9.778867721557617,
      "y": 0.13878370821475983,
      "z": 0.2877369225025177,
      "time_usec": 667973846830
    },
    {
      "x": 9.807581901550293,
      "y": 0.13878370821475983,
      "z": 0.2787638306617737,
      "time_usec": 667973849101
    },
    {
      "x": 9.845269203186035,
      "y": 0.14835500717163086,
      "z": 0.3026920557022095,
      "time_usec": 667973851352
    },
    {
      "x": 9.854840278625488,
      "y": 0.16749759018421173,
      "z": 0.3170489966869354,
      "time_usec": 667973853616
    },
    {
      "x": 9.840482711791992,
      "y": 0.16271193325519562,
      "z": 0.3361915946006775,
      "time_usec": 667973855869
    },
    {
      "x": 9.81655502319336,
      "y": 0.13878370821475983,
      "z": 0.3451646566390991,
      "time_usec": 667973858127
    },
    {
      "x": 9.821340560913086,
      "y": 0.14356936514377594,
      "z": 0.3643072545528412,
      "time_usec": 667973860380
    },
    {
      "x": 9.81655502319336,
      "y": 0.14356936514377594,
      "z": 0.34995031356811523,
      "time_usec": 667973862643
    },
    {
      "x": 9.806983947753906,
      "y": 0.12442677468061447,
      "z": 0.33080771565437317,
      "time_usec": 667973864901
    },
    {
      "x": 9.811769485473633,
      "y": 0.14356936514377594,
      "z": 0.3164508044719696,
      "time_usec": 667973867160
    },
    {
      "x": 9.830911636352539,
      "y": 0.11485548317432404,
      "z": 0.3122633695602417,
      "time_usec": 667973869416
    },
    {
      "x": 9.845269203186035,
      "y": 0.10049854964017868,
      "z": 0.27397820353507996,
      "time_usec": 667973871667
    },
    {
      "x": 9.873982429504395,
      "y": 0.1094716340303421,
      "z": 0.2883351147174835,
      "time_usec": 667973873921
    },
    {
      "x": 9.869196891784668,
      "y": 0.10468599200248718,
      "z": 0.259621262550354,
      "time_usec": 667973876189
    },
    {
      "x": 9.892526626586914,
      "y": 0.07118647545576096,
      "z": 0.2309073805809021,
      "time_usec": 667973878447
    },
    {
      "x": 9.902098655700684,
      "y": 0.06640082597732544,
      "z": 0.20757736265659332,
      "time_usec": 667973880703
    },
    {
      "x": 9.90269660949707,
      "y": 0.07118647545576096,
      "z": 0.15493527054786682,
      "time_usec": 667973882963
    },
    {
      "x": 9.907482147216797,
      "y": 0.08554340898990631,
      "z": 0.11665010452270508,
      "time_usec": 667973885221
    },
    {
      "x": 9.907482147216797,
      "y": 0.10468599200248718,
      "z": 0.11186445504426956,
      "time_usec": 667973887479
    },
    {
      "x": 9.879366874694824,
      "y": 0.12382857501506805,
      "z": 0.10707881301641464,
      "time_usec": 667973889732
    },
    {
      "x": 9.860223770141602,
      "y": 0.11425728350877762,
      "z": 0.11186445504426956,
      "time_usec": 667973891988
    },
    {
      "x": 9.850652694702148,
      "y": 0.15254244208335876,
      "z": 0.14476576447486877,
      "time_usec": 667973894251
    },
    {
      "x": 9.798608779907227,
      "y": 0.14356936514377594,
      "z": 0.18783657252788544,
      "time_usec": 667973896508
    },
    {
      "x": 9.779465675354004,
      "y": 0.13878370821475983,
      "z": 0.2069791555404663,
      "time_usec": 667973898762
    },
    {
      "x": 9.745966911315918,
      "y": 0.17228323221206665,
      "z": 0.23030917346477509,
      "time_usec": 667973901020
    },
    {
      "x": 9.731609344482422,
      "y": 0.17766708135604858,
      "z": 0.24945175647735596,
      "time_usec": 667973903282
    },
    {
      "x": 9.693922996520996,
      "y": 0.16809579730033875,
      "z": 0.268594354391098,
      "time_usec": 667973905539
    },
    {
      "x": 9.68913745880127,
      "y": 0.17766708135604858,
      "z": 0.2727817893028259,
      "time_usec": 667973907787
    },
    {
      "x": 9.669994354248047,
      "y": 0.16331014037132263,
      "z": 0.2584248483181,
      "time_usec": 667973910050
    },
    {
      "x": 9.684351921081543,
      "y": 0.16331014037132263,
      "z": 0.28235307335853577,
      "time_usec": 667973912308
    },
    {
      "x": 9.6795654296875,
      "y": 0.16809579730033875,
      "z": 0.2584248483181,
      "time_usec": 667973914574
    },
    {
      "x": 9.6795654296875,
      "y": 0.16331014037132263,
      "z": 0.24885354936122894,
      "time_usec": 667973916830
    },
    {
      "x": 9.674779891967773,
      "y": 0.1585244983434677,
      "z": 0.22073788940906525,
      "time_usec": 667973919086
    },
    {
      "x": 9.655637741088867,
      "y": 0.14416755735874176,
      "z": 0.20578274130821228,
      "time_usec": 667973921338
    },
    {
      "x": 9.651450157165527,
      "y": 0.13938191533088684,
      "z": 0.17706887423992157,
      "time_usec": 667973923602
    },
    {
      "x": 9.641879081726074,
      "y": 0.1585244983434677,
      "z": 0.17228323221206665,
      "time_usec": 667973925860
    },
    {
      "x": 9.641879081726074,
      "y": 0.17288143932819366,
      "z": 0.16271193325519562,
      "time_usec": 667973928117
    },
    {
      "x": 9.675378799438477,
      "y": 0.17766708135604858,
      "z": 0.14895321428775787,
      "time_usec": 667973930369
    },
    {
      "x": 9.704092025756836,
      "y": 0.16749759018421173,
      "z": 0.12502498924732208,
      "time_usec": 667973932632
    },
    {
      "x": 9.741779327392578,
      "y": 0.1818545162677765,
      "z": 0.12502498924732208,
      "time_usec": 667973934890
    },
    {
      "x": 9.742377281188965,
      "y": 0.19621145725250244,
      "z": 0.10169496387243271,
      "time_usec": 667973937149
    },
    {
      "x": 9.780064582824707,
      "y": 0.20099709928035736,
      "z": 0.08255238085985184,
      "time_usec": 667973939405
    },
    {
      "x": 9.784850120544434,
      "y": 0.16749759018421173,
      "z": 0.0729810893535614,
      "time_usec": 667973941656
    },
    {
      "x": 9.81356430053711,
      "y": 0.1860419660806656,
      "z": 0.0729810893535614,
      "time_usec": 667973943910
    },
    {
      "x": 9.823135375976562,
      "y": 0.18125630915164948,
      "z": 0.06340979784727097,
      "time_usec": 667973946179
    },
