{
  "accelerations": [
    {
      "x": 9.833304405212402,
      "y": 0.13280165195465088,
      "z": 0.33798620104789734,
      "time_usec": 85805272643
    },
    {
      "x": 9.870991706848145,
      "y": 0.137587308883667,
      "z": 0.4049852192401886,
      "time_usec": 85805274901
    },
    {
      "x": 9.865608215332031,
      "y": 0.14297115802764893,
      "z": 0.4576273262500763,
      "time_usec": 85805277157
    },
    {
      "x": 9.88415241241455,
      "y": 0.11425728350877762,
      "z": 0.5150550603866577,
      "time_usec": 85805279412
    },
    {
      "x": 9.874580383300781,
      "y": 0.12382857501506805,
      "z": 0.5724828243255615,
      "time_usec": 85805281662
    },
    {
      "x": 9.879366874694824,
      "y": 0.1333998590707779,
      "z": 0.5772684812545776,
      "time_usec": 85805283928
    },
    {
      "x": 9.850652694702148,
      "y": 0.15254244208335876,
      "z": 0.6149554252624512,
      "time_usec": 85805286186
    },
    {
      "x": 9.860223770141602,
      "y": 0.15732808411121368,
      "z": 0.6149554252624512,
      "time_usec": 85805288447
    },
    {
      "x": 9.893723487854004,
      "y": 0.20039889216423035,
      "z": 0.649053156375885,
      "time_usec": 85805290701
    },
    {
      "x": 9.908080101013184,
      "y": 0.22911277413368225,
      "z": 0.6586244106292725,
      "time_usec": 85805292954
    },
    {
      "x": 9.927223205566406,
      "y": 0.2386840581893921,
      "z": 0.6346961855888367,
      "time_usec": 85805295202
    },
    {
      "x": 9.93679428100586,
      "y": 0.2721835672855377,
      "z": 0.6059823632240295,
      "time_usec": 85805297472
    },
    {
      "x": 9.946365356445312,
      "y": 0.25244277715682983,
      "z": 0.5772684812545776,
      "time_usec": 85805299729
    },
    {
      "x": 9.9469633102417,
      "y": 0.2667997181415558,
      "z": 0.5389832854270935,
      "time_usec": 85805301989
    },
    {
      "x": 9.937392234802246,
      "y": 0.25244277715682983,
      "z": 0.5437689423561096,
      "time_usec": 85805304242
    },
    {
      "x": 9.913464546203613,
      "y": 0.2715853750705719,
      "z": 0.5054838061332703,
      "time_usec": 85805306502
    },
    {
      "x": 9.918848037719727,
      "y": 0.2667997181415558,
      "z": 0.45284169912338257,
      "time_usec": 85805308759
    },
    {
      "x": 9.894919395446777,
      "y": 0.25244277715682983,
      "z": 0.4145565330982208,
      "time_usec": 85805311016
    },
    {
      "x": 9.89551830291748,
      "y": 0.25722843408584595,
      "z": 0.36729827523231506,
      "time_usec": 85805313273
    },
    {
      "x": 9.890732765197754,
      "y": 0.23808585107326508,
      "z": 0.33379876613616943,
      "time_usec": 85805315531
    },
    {
      "x": 9.857831001281738,
      "y": 0.24287149310112,
      "z": 0.2715853750705719,
      "time_usec": 85805317790
    },
    {
      "x": 9.81535816192627,
      "y": 0.22911277413368225,
      "z": 0.23270200192928314,
      "time_usec": 85805320040
    },
    {
      "x": 9.791430473327637,
      "y": 0.1902294009923935,
      "z": 0.15134602785110474,
      "time_usec": 85805322301
    },
    {
      "x": 9.753743171691895,
      "y": 0.18125630915164948,
      "z": 0.1178465187549591,
      "time_usec": 85805324554
    },
    {
      "x": 9.739386558532715,
      "y": 0.19561325013637543,
      "z": 0.09870393574237823,
      "time_usec": 85805326815
    },
    {
      "x": 9.739386558532715,
      "y": 0.1908276081085205,
      "z": 0.09870393574237823,
      "time_usec": 85805329062
    },
    {
      "x": 9.729815483093262,
      "y": 0.1860419660806656,
      "z": 0.09870393574237823,
      "time_usec": 85805331333
    },
    {
      "x": 9.720842361450195,
      "y": 0.17647066712379456,
      "z": 0.06520441919565201,
      "time_usec": 85805333587
    },
    {
      "x": 9.696913719177246,
      "y": 0.14775680005550385,
      "z": 0.06520441919565201,
      "time_usec": 85805335844
    },
    {
      "x": 9.696913719177246,
      "y": 0.1333998590707779,
      "z": 0.06041877344250679,
      "time_usec": 85805338103
    },
    {
      "x": 9.696913719177246,
      "y": 0.11904292553663254,
      "z": 0.06999006122350693,
      "time_usec": 85805340360
    },
    {
      "x": 9.687342643737793,
      "y": 0.11904292553663254,
      "z": 0.06041877344250679,
      "time_usec": 85805342617
    },
    {
      "x": 9.682557106018066,
      "y": 0.1094716340303421,
      "z": 0.0891326442360878,
      "time_usec": 85805344862
    },
    {
      "x": 9.682557106018066,
      "y": 0.11425728350877762,
      "z": 0.09870393574237823,
      "time_usec": 85805347134
    },
    {
      "x": 9.682557106018066,
      "y": 0.09032905846834183,
      "z": 0.1178465187549591,
      "time_usec": 85805349389
    },
    {
      "x": 9.667601585388184,
      "y": 0.08075776696205139,
      "z": 0.13160525262355804,
      "time_usec": 85805351650
    },
    {
      "x": 9.662816047668457,
      "y": 0.03768695518374443,
      "z": 0.12681959569454193,
      "time_usec": 85805353903
    },
    {
      "x": 9.65803050994873,
      "y": 0.023330021649599075,
      "z": 0.15553347766399384,
      "time_usec": 85805356156
    },
    {
      "x": 9.67238712310791,
      "y": 0.004187439568340778,
      "z": 0.1459621787071228,
      "time_usec": 85805358419
    },
    {
      "x": 9.671789169311523,
      "y": 0.008973085321485996,
      "z": 0.17946170270442963,
      "time_usec": 85805360677
    },
    {
      "x": 9.695717811584473,
      "y": 0.008973085321485996,
      "z": 0.1986042857170105,
      "time_usec": 85805362934
    },
    {
      "x": 9.695717811584473,
      "y": 0.018544375896453857,
      "z": 0.1986042857170105,
      "time_usec": 85805365185
    },
    {
      "x": 9.729216575622559,
      "y": 0.018544375896453857,
      "z": 0.20877377688884735,
      "time_usec": 85805367447
    },
    {
      "x": 9.753145217895508,
      "y": 0.04187439754605293,
      "z": 0.19920247793197632,
      "time_usec": 85805369705
    },
    {
      "x": 9.734002113342285,
      "y": 0.06161518394947052,
      "z": 0.20877377688884735,
      "time_usec": 85805371963
    },
    {
      "x": 9.747760772705078,
      "y": 0.0568295381963253,
      "z": 0.23270200192928314,
      "time_usec": 85805374214
    },
    {
      "x": 9.752547264099121,
      "y": 0.0568295381963253,
      "z": 0.251844584941864,
      "time_usec": 85805376472
    },
    {
      "x": 9.742975234985352,
      "y": 0.07118647545576096,
      "z": 0.26141586899757385,
      "time_usec": 85805378732
    },
    {
      "x": 9.728618621826172,
      "y": 0.052043892443180084,
      "z": 0.3038884699344635,
      "time_usec": 85805380979
    },
    {
      "x": 9.733404159545898,
      "y": 0.0568295381963253,
      "z": 0.31824541091918945,
      "time_usec": 85805383249
    },
    {
      "x": 9.714262008666992,
      "y": 0.0568295381963253,
      "z": 0.33738797903060913,
      "time_usec": 85805385498
    },
    {
      "x": 9.709476470947266,
      "y": 0.0568295381963253,
      "z": 0.3756731450557709,
      "time_usec": 85805387757
    },
    {
      "x": 9.709476470947266,
      "y": 0.047258246690034866,
      "z": 0.3565305769443512,
      "time_usec": 85805390022
    },
    {
      "x": 9.67657470703125,
      "y": 0.08135596662759781,
      "z": 0.3565305769443512,
      "time_usec": 85805392278
    },
    {
      "x": 9.68076229095459,
      "y": 0.09092725813388824,
      "z": 0.3756731450557709,
      "time_usec": 85805394533
    },
    {
      "x": 9.704689979553223,
      "y": 0.08075776696205139,
      "z": 0.3517449200153351,
      "time_usec": 85805396792
    },
    {
      "x": 9.681360244750977,
      "y": 0.11485548317432404,
      "z": 0.3517449200153351,
      "time_usec": 85805399045
    },
    {
      "x": 9.671789169311523,
      "y": 0.12442677468061447,
      "z": 0.3517449200153351,
      "time_usec": 85805401308
    },
    {
      "x": 9.66221809387207,
      "y": 0.12442677468061447,
      "z": 0.3613162338733673,
      "time_usec": 85805403563
    },
    {
      "x": 9.667003631591797,
      "y": 0.11964113265275955,
      "z": 0.3613162338733673,
      "time_usec": 85805405818
    },
    {
      "x": 9.66221809387207,
      "y": 0.12921242415905,
      "z": 0.37088751792907715,
      "time_usec": 85805408080
    },
    {
      "x": 9.652647018432617,
      "y": 0.15314064919948578,
      "z": 0.3607180118560791,
      "time_usec": 85805410340
    },
    {
      "x": 9.667601585388184,
      "y": 0.16271193325519562,
      "z": 0.32303106784820557,
      "time_usec": 85805412594
    },
    {
      "x": 9.7005033493042,
      "y": 0.17647066712379456,
      "z": 0.3278166949748993,
      "time_usec": 85805414847
    },
    {
      "x": 9.710672378540039,
      "y": 0.19561325013637543,
      "z": 0.23688943684101105,
      "time_usec": 85805417105
    },
    {
      "x": 9.729216575622559,
      "y": 0.17168502509593964,
      "z": 0.28953152894973755,
      "time_usec": 85805419360
    },
    {
      "x": 9.730413436889648,
      "y": 0.20997019112110138,
      "z": 0.13698910176753998,
      "time_usec": 85805421623
    },
    {
      "x": 9.753145217895508,
      "y": 0.1908276081085205,
      "z": 0.23270200192928314,
      "time_usec": 85805423879
    },
    {
      "x": 9.749555587768555,
      "y": 0.18544375896453857,
      "z": 0.10348957777023315,
      "time_usec": 85805426133
    },
    {
      "x": 9.739984512329102,
      "y": 0.18065811693668365,
      "z": 0.07956135272979736,
      "time_usec": 85805428394
    },
    {
      "x": 9.744172096252441,
      "y": 0.16689938306808472,
      "z": 0.16091732680797577,
      "time_usec": 85805430652
    },
    {
      "x": 9.730413436889648,
      "y": 0.19980068504810333,
      "z": 0.046061836183071136,
      "time_usec": 85805432908
    },
    {
      "x": 9.725627899169922,
      "y": 0.20997019112110138,
      "z": 0.1657029688358307,
      "time_usec": 85805435151
    },
    {
      "x": 9.720842361450195,
      "y": 0.20518454909324646,
      "z": 0.15613168478012085,
      "time_usec": 85805437408
    },
    {
      "x": 9.716055870056152,
      "y": 0.2386840581893921,
      "z": 0.16091732680797577,
      "time_usec": 85805439668
    },
    {
      "x": 9.725028991699219,
      "y": 0.22911277413368225,
      "z": 0.19920247793197632,
      "time_usec": 85805441942
    },
    {
      "x": 9.7064847946167,
      "y": 0.23389841616153717,
      "z": 0.20817556977272034,
      "time_usec": 85805444199
    },
    {
      "x": 9.715457916259766,
      "y": 0.21954147517681122,
      "z": 0.2512463629245758,
      "time_usec": 85805446450
    },
    {
      "x": 9.69631576538086,
      "y": 0.22432711720466614,
      "z": 0.2799602448940277,
      "time_usec": 85805448710
    },
    {
      "x": 9.710672378540039,
      "y": 0.19561325013637543,
      "z": 0.29431718587875366,
      "time_usec": 85805450968
    },
    {
      "x": 9.719645500183105,
      "y": 0.1908276081085205,
      "z": 0.31824541091918945,
      "time_usec": 85805453224
    },
    {
      "x": 9.719645500183105,
      "y": 0.18125630915164948,
      "z": 0.37088751792907715,
      "time_usec": 85805455477
    },
    {
      "x": 9.714859962463379,
      "y": 0.17168502509593964,
      "z": 0.3756731450557709,
      "time_usec": 85805457739
    },
    {
      "x": 9.747760772705078,
      "y": 0.18125630915164948,
      "z": 0.4139583110809326,
      "time_usec": 85805459996
    },
    {
      "x": 9.733404159545898,
      "y": 0.19621145725250244,
      "z": 0.4570291340351105,
      "time_usec": 85805462254
    },
    {
      "x": 9.747162818908691,
      "y": 0.19142581522464752,
      "z": 0.4953143000602722,
      "time_usec": 85805464505
    },
    {
      "x": 9.733404159545898,
      "y": 0.19142581522464752,
      "z": 0.48574298620224,
      "time_usec": 85805466766
    },
    {
      "x": 9.719047546386719,
      "y": 0.22492532432079315,
      "z": 0.4666004180908203,
      "time_usec": 85805469015
    },
    {
      "x": 9.719645500183105,
      "y": 0.23449662327766418,
      "z": 0.4378865361213684,
      "time_usec": 85805471284
    },
    {
      "x": 9.734002113342285,
      "y": 0.22911277413368225,
      "z": 0.39960137009620667,
      "time_usec": 85805473539
    },
    {
      "x": 9.729216575622559,
      "y": 0.22911277413368225,
      "z": 0.3517449200153351,
      "time_usec": 85805475793
    },
    {
      "x": 9.743574142456055,
      "y": 0.20997019112110138,
      "z": 0.31824541091918945,
      "time_usec": 85805478050
    },
    {
      "x": 9.724431037902832,
      "y": 0.20997019112110138,
      "z": 0.3038884699344635,
      "time_usec": 85805480312
    },
    {
      "x": 9.738788604736328,
      "y": 0.18125630915164948,
      "z": 0.2709871530532837,
      "time_usec": 85805482569
    },
    {
      "x": 9.757930755615234,
      "y": 0.1621137410402298,
      "z": 0.251844584941864,
      "time_usec": 85805484822
    },
    {
      "x": 9.748359680175781,
      "y": 0.16689938306808472,
      "z": 0.23270200192928314,
      "time_usec": 85805487086
    },
    {
      "x": 9.734002113342285,
      "y": 0.14775680005550385,
      "z": 0.23270200192928314,
      "time_usec": 85805489346
    },
    {
      "x": 9.757930755615234,
      "y": 0.15254244208335876,
      "z": 0.2231307178735733,
      "time_usec": 85805491598
    },
    {
      "x": 9.734002113342285,
      "y": 0.1333998590707779,
      "z": 0.23270200192928314,
      "time_usec": 85805493841
    },
    {
      "x": 9.719645500183105,
      "y": 0.11425728350877762,
      "z": 0.23210379481315613,
      "time_usec": 85805496104
    },
    {
      "x": 9.710074424743652,
      "y": 0.1094716340303421,
      "z": 0.2273181527853012,
      "time_usec": 85805498360
    },
    {
      "x": 9.69093132019043,
      "y": 0.10468599200248718,
      "z": 0.2273181527853012,
      "time_usec": 85805500631
    },
    {
      "x": 9.677172660827637,
      "y": 0.10468599200248718,
      "z": 0.20817556977272034,
      "time_usec": 85805502885
    },
    {
      "x": 9.691530227661133,
      "y": 0.09990034252405167,
      "z": 0.21774685382843018,
      "time_usec": 85805505137
    },
    {
      "x": 9.701101303100586,
      "y": 0.11425728350877762,
      "z": 0.20817556977272034,
      "time_usec": 85805507386
    },
    {
      "x": 9.715457916259766,
      "y": 0.1381855010986328,
      "z": 0.20398813486099243,
      "time_usec": 85805509657
    },
    {
      "x": 9.743574142456055,
      "y": 0.17168502509593964,
      "z": 0.2183450609445572,
      "time_usec": 85805511912
    },
    {
      "x": 9.757930755615234,
      "y": 0.16689938306808472,
      "z": 0.22791635990142822,
      "time_usec": 85805514163
    },
    {
      "x": 9.77707290649414,
      "y": 0.1908276081085205,
      "z": 0.23270200192928314,
      "time_usec": 85805516423
    },
    {
      "x": 9.80100154876709,
      "y": 0.17587246000766754,
      "z": 0.2183450609445572,
      "time_usec": 85805518686
    },
    {
      "x": 9.767501831054688,
      "y": 0.17647066712379456,
      "z": 0.2470589429140091,
      "time_usec": 85805520946
    },
    {
      "x": 9.743574142456055,
      "y": 0.17168502509593964,
      "z": 0.26141586899757385,
      "time_usec": 85805523201
    },
    {
      "x": 9.748359680175781,
      "y": 0.17168502509593964,
      "z": 0.26620152592658997,
      "time_usec": 85805525449
    },
    {
      "x": 9.705288887023926,
      "y": 0.16689938306808472,
      "z": 0.3278166949748993,
      "time_usec": 85805527715
    },
    {
      "x": 9.69093132019043,
      "y": 0.16749759018421173,
      "z": 0.3278166949748993,
      "time_usec": 85805529972
    },
    {
      "x": 9.695717811584473,
      "y": 0.16271193325519562,
      "z": 0.380458801984787,
      "time_usec": 85805532230
    },
    {
      "x": 9.686145782470703,
      "y": 0.19142581522464752,
      "z": 0.39960137009620667,
      "time_usec": 85805534481
    },
    {
      "x": 9.705288887023926,
      "y": 0.2153540402650833,
      "z": 0.4331009089946747,
      "time_usec": 85805536743
    },
    {
      "x": 9.714262008666992,
      "y": 0.22013968229293823,
      "z": 0.47617170214653015,
      "time_usec": 85805539001
    },
    {
      "x": 9.728618621826172,
      "y": 0.22971096634864807,
      "z": 0.5000999569892883,
      "time_usec": 85805541261
    },
    {
      "x": 9.719047546386719,
      "y": 0.2584248483181,
      "z": 0.4953143000602722,
      "time_usec": 85805543513
    },
    {
      "x": 9.714262008666992,
      "y": 0.23449662327766418,
      "z": 0.4905286431312561,
      "time_usec": 85805545762
    },
    {
      "x": 9.719047546386719,
      "y": 0.24406790733337402,
      "z": 0.47617170214653015,
      "time_usec": 85805548034
    },
    {
      "x": 9.723833084106445,
      "y": 0.22971096634864807,
      "z": 0.4570291340351105,
      "time_usec": 85805550288
    },
    {
      "x": 9.747760772705078,
      "y": 0.2147558331489563,
      "z": 0.42352959513664246,
      "time_usec": 85805552547
    },
    {
      "x": 9.776474952697754,
      "y": 0.21954147517681122,
      "z": 0.39960137009620667,
      "time_usec": 85805554795
    },
    {
      "x": 9.79083251953125,
      "y": 0.2386840581893921,
      "z": 0.39062830805778503,
      "time_usec": 85805557052
    },
    {
      "x": 9.814760208129883,
      "y": 0.243469700217247,
      "z": 0.39062830805778503,
      "time_usec": 85805559302
    },
    {
      "x": 9.814162254333496,
      "y": 0.21954147517681122,
      "z": 0.39541393518447876,
      "time_usec": 85805561563
    },
    {
      "x": 9.818947792053223,
      "y": 0.21954147517681122,
      "z": 0.3858426511287689,
      "time_usec": 85805563832
    },
    {
      "x": 9.809974670410156,
      "y": 0.20518454909324646,
      "z": 0.36670008301734924,
      "time_usec": 85805566086
    },
    {
      "x": 9.809974670410156,
      "y": 0.20518454909324646,
      "z": 0.34277185797691345,
      "time_usec": 85805568343
    },
    {
      "x": 9.800403594970703,
      "y": 0.20997019112110138,
      "z": 0.3236292600631714,
      "time_usec": 85805570587
    },
    {
      "x": 9.814760208129883,
      "y": 0.20997019112110138,
      "z": 0.31405797600746155,
      "time_usec": 85805572849
    },
    {
      "x": 9.81954574584961,
      "y": 0.243469700217247,
      "z": 0.30927231907844543,
      "time_usec": 85805575104
    },
    {
      "x": 9.81954574584961,
      "y": 0.22372891008853912,
      "z": 0.2757728099822998,
      "time_usec": 85805577367
    },
    {
      "x": 9.80100154876709,
      "y": 0.25304099917411804,
      "z": 0.2470589429140091,
      "time_usec": 85805579635
    },
    {
      "x": 9.791430473327637,
      "y": 0.25304099917411804,
      "z": 0.22791635990142822,
      "time_usec": 85805581893
    },
    {
      "x": 9.787242889404297,
      "y": 0.243469700217247,
      "z": 0.20877377688884735,
      "time_usec": 85805584147
    },
    {
      "x": 9.78245735168457,
      "y": 0.25722843408584595,
      "z": 0.15134602785110474,
      "time_usec": 85805586390
    },
    {
      "x": 9.773484230041504,
      "y": 0.26201409101486206,
      "z": 0.11306086927652359,
      "time_usec": 85805588656
    },
    {
      "x": 9.768698692321777,
      "y": 0.2715853750705719,
      "z": 0.09870393574237823,
      "time_usec": 85805590915
    },
    {
      "x": 9.79262638092041,
      "y": 0.2667997181415558,
      "z": 0.07537391036748886,
      "time_usec": 85805593165
    },
    {
      "x": 9.79262638092041,
      "y": 0.26201409101486206,
      "z": 0.061016976833343506,
      "time_usec": 85805595427
    },
    {
      "x": 9.806385040283203,
      "y": 0.25722843408584595,
      "z": 0.0849452018737793,
      "time_usec": 85805597674
    },
    {
      "x": 9.81117057800293,
      "y": 0.2715853750705719,
      "z": 0.10408778488636017,
      "time_usec": 85805599935
    },
    {
      "x": 9.79681396484375,
      "y": 0.2667997181415558,
      "z": 0.12323036789894104,
      "time_usec": 85805602191
    },
    {
      "x": 9.79681396484375,
      "y": 0.2763710021972656,
      "z": 0.14656038582324982,
      "time_usec": 85805604453
    },
    {
      "x": 9.79681396484375,
      "y": 0.2667997181415558,
      "z": 0.18484555184841156,
      "time_usec": 85805606720
    },
    {
      "x": 9.758528709411621,
      "y": 0.2626122832298279,
      "z": 0.18963119387626648,
      "time_usec": 85805608968
    },
    {
      "x": 9.744172096252441,
      "y": 0.28175488114356995,
      "z": 0.20877377688884735,
      "time_usec": 85805611241
    },
    {
      "x": 9.744172096252441,
      "y": 0.25782662630081177,
      "z": 0.23748764395713806,
      "time_usec": 85805613491
    },
    {
      "x": 9.725028991699219,
      "y": 0.28654050827026367,
      "z": 0.2560320198535919,
      "time_usec": 85805615746
    },
    {
      "x": 9.715457916259766,
      "y": 0.2913261651992798,
      "z": 0.2560320198535919,
      "time_usec": 85805618001
    },
    {
      "x": 9.681958198547363,
      "y": 0.2727817893028259,
      "z": 0.29431718587875366,
      "time_usec": 85805620260
    },
    {
      "x": 9.66819953918457,
      "y": 0.2871387302875519,
      "z": 0.29431718587875366,
      "time_usec": 85805622506
    },
    {
      "x": 9.677172660827637,
      "y": 0.28235307335853577,
      "z": 0.31824541091918945,
      "time_usec": 85805624763
    },
    {
      "x": 9.681958198547363,
      "y": 0.2919243574142456,
      "z": 0.3278166949748993,
      "time_usec": 85805627023
    },
    {
      "x": 9.710672378540039,
      "y": 0.27756741642951965,
      "z": 0.33738797903060913,
      "time_usec": 85805629296
    },
    {
      "x": 9.705886840820312,
      "y": 0.2871387302875519,
      "z": 0.34217363595962524,
      "time_usec": 85805631554
    },
    {
      "x": 9.710672378540039,
      "y": 0.2919243574142456,
      "z": 0.34695929288864136,
      "time_usec": 85805633810
    },
    {
      "x": 9.729815483093262,
      "y": 0.28235307335853577,
      "z": 0.3326023519039154,
      "time_usec": 85805636062
    },
    {
      "x": 9.724431037902832,
      "y": 0.2727817893028259,
      "z": 0.34695929288864136,
      "time_usec": 85805638317
    },
    {
      "x": 9.738788604736328,
      "y": 0.2913261651992798,
      "z": 0.3326023519039154,
      "time_usec": 85805640576
    },
    {
      "x": 9.734601020812988,
      "y": 0.31046873331069946,
      "z": 0.3038884699344635,
      "time_usec": 85805642822
    },
    {
      "x": 9.768099784851074,
      "y": 0.32961133122444153,
      "z": 0.26620152592658997,
      "time_usec": 85805645086
    },
    {
      "x": 9.772886276245117,
      "y": 0.33439695835113525,
      "z": 0.23748764395713806,
      "time_usec": 85805647336
    },
    {
      "x": 9.792028427124023,
      "y": 0.3535395562648773,
      "z": 0.26620152592658997,
      "time_usec": 85805649601
    },
    {
      "x": 9.815957069396973,
      "y": 0.3535395562648773,
      "z": 0.26141586899757385,
      "time_usec": 85805651864
    },
    {
      "x": 9.815957069396973,
      "y": 0.38225340843200684,
      "z": 0.26620152592658997,
      "time_usec": 85805654110
    },
    {
      "x": 9.824930191040039,
      "y": 0.36311084032058716,
      "z": 0.28534409403800964,
      "time_usec": 85805656370
    },
    {
      "x": 9.824930191040039,
      "y": 0.38225340843200684,
      "z": 0.28534409403800964,
      "time_usec": 85805658624
    },
    {
      "x": 9.820143699645996,
      "y": 0.372682124376297,
      "z": 0.3332005441188812,
      "time_usec": 85805660897
    },
    {
      "x": 9.81535816192627,
      "y": 0.36311084032058716,
      "z": 0.3188436031341553,
      "time_usec": 85805663151
    },
    {
      "x": 9.810572624206543,
      "y": 0.3678964674472809,
      "z": 0.30927231907844543,
      "time_usec": 85805665400
    },
    {
      "x": 9.792028427124023,
      "y": 0.3774677813053131,
      "z": 0.2997010350227356,
      "time_usec": 85805667667
    },
    {
      "x": 9.725627899169922,
      "y": 0.3732803463935852,
      "z": 0.275174617767334,
      "time_usec": 85805669923
    },
    {
      "x": 9.725627899169922,
      "y": 0.35832518339157104,
      "z": 0.24227328598499298,
      "time_usec": 85805672183
    },
    {
      "x": 10.001399993896484,
      "y": 0.44805604219436646,
      "z": 0.24825534224510193,
      "time_usec": 85805674432
    },
    {
      "x": 9.797411918640137,
      "y": 0.39182472229003906,
      "z": 0.20877377688884735,
      "time_usec": 85805676694
    },
    {
      "x": 9.720842361450195,
      "y": 0.3439682424068451,
      "z": 0.21355941891670227,
      "time_usec": 85805678945
    },
    {
      "x": 9.825528144836426,
      "y": 0.3720839321613312,
      "z": 0.2183450609445572,
      "time_usec": 85805681211
    },
    {
      "x": 9.773484230041504,
      "y": 0.3774677813053131,
      "z": 0.19920247793197632,
      "time_usec": 85805683466
    },
    {
      "x": 9.711270332336426,
      "y": 0.3439682424068451,
      "z": 0.19920247793197632,
      "time_usec": 85805685721
    },
    {
      "x": 9.720842361450195,
      "y": 0.3535395562648773,
      "z": 0.20398813486099243,
      "time_usec": 85805687977
    },
    {
      "x": 9.735198974609375,
      "y": 0.3535395562648773,
      "z": 0.22791635990142822,
      "time_usec": 85805690239
    },
    {
      "x": 9.7064847946167,
      "y": 0.35892340540885925,
      "z": 0.23688943684101105,
      "time_usec": 85805692496
    },
    {
      "x": 9.692726135253906,
      "y": 0.363709032535553,
      "z": 0.2225325107574463,
      "time_usec": 85805694746
    },
    {
      "x": 9.692726135253906,
      "y": 0.363709032535553,
      "z": 0.2225325107574463,
      "time_usec": 85805696996
    },
    {
      "x": 9.664012908935547,
      "y": 0.35413774847984314,
      "z": 0.23210379481315613,
      "time_usec": 85805699251
    },
    {
      "x": 9.654440879821777,
      "y": 0.3445664644241333,
      "z": 0.23210379481315613,
      "time_usec": 85805701520
    },
    {
      "x": 9.64965534210205,
      "y": 0.3206382393836975,
      "z": 0.26081767678260803,
      "time_usec": 85805703766
    },
    {
      "x": 9.639486312866211,
      "y": 0.31106695532798767,
      "z": 0.27038896083831787,
      "time_usec": 85805706032
    },
    {
      "x": 9.639486312866211,
      "y": 0.25363919138908386,
      "z": 0.31764721870422363,
      "time_usec": 85805708293
    },
    {
      "x": 9.638887405395508,
      "y": 0.22971096634864807,
      "z": 0.3320041298866272,
      "time_usec": 85805710557
    },
    {
      "x": 9.653244972229004,
      "y": 0.2153540402650833,
      "z": 0.35114672780036926,
      "time_usec": 85805712812
    },
    {
      "x": 9.64367389678955,
      "y": 0.22013968229293823,
      "z": 0.39421752095222473,
      "time_usec": 85805715066
    },
    {
      "x": 9.652647018432617,
      "y": 0.17706887423992157,
      "z": 0.39900317788124084,
      "time_usec": 85805717327
    },
    {
      "x": 9.643074989318848,
      "y": 0.1579262912273407,
      "z": 0.4372883439064026,
      "time_usec": 85805719584
    },
    {
      "x": 9.66640567779541,
      "y": 0.14356936514377594,
      "z": 0.47557350993156433,
      "time_usec": 85805721843
    },
    {
      "x": 9.66640567779541,
      "y": 0.12442677468061447,
      "z": 0.4612165689468384,
      "time_usec": 85805724095
    },
    {
      "x": 9.671191215515137,
      "y": 0.09571290761232376,
      "z": 0.4707878530025482,
      "time_usec": 85805726343
    },
    {
      "x": 9.69930648803711,
      "y": 0.1052841991186142,
      "z": 0.4899304509162903,
      "time_usec": 85805728612
    },
    {
      "x": 9.708877563476562,
      "y": 0.09571290761232376,
      "z": 0.47557350993156433,
      "time_usec": 85805730870
    },
    {
      "x": 9.718449592590332,
      "y": 0.09092725813388824,
      "z": 0.4713860750198364,
      "time_usec": 85805733130
    },
    {
      "x": 9.736993789672852,
      "y": 0.08614161610603333,
      "z": 0.48574298620224,
      "time_usec": 85805735379
    },
    {
      "x": 9.760921478271484,
      "y": 0.08075776696205139,
      "z": 0.48574298620224,
      "time_usec": 85805737642
    },
    {
      "x": 9.784850120544434,
      "y": 0.09032905846834183,
      "z": 0.47617170214653015,
      "time_usec": 85805739900
    },
    {
      "x": 9.784850120544434,
      "y": 0.08075776696205139,
      "z": 0.4666004180908203,
      "time_usec": 85805742155
    },
    {
      "x": 9.80817985534668,
      "y": 0.0568295381963253,
      "z": 0.4713860750198364,
      "time_usec": 85805744400
    },
    {
      "x": 9.784850120544434,
      "y": 0.04247260093688965,
      "z": 0.4618147611618042,
      "time_usec": 85805746667
    },
    {
      "x": 9.784850120544434,
      "y": 0.03290131315588951,
      "z": 0.4570291340351105,
      "time_usec": 85805748925
    },
    {
      "x": 9.779465675354004,
      "y": -5.982056609354913E-4,
      "z": 0.48574298620224,
      "time_usec": 85805751176
    },
    {
      "x": 9.760323524475098,
      "y": -0.014955141581594944,
      "z": 0.4953143000602722,
      "time_usec": 85805753443
    },
    {
      "x": 9.760921478271484,
      "y": 0.004187439568340778,
      "z": 0.4713860750198364,
      "time_usec": 85805755694
    },
    {
      "x": 9.779465675354004,
      "y": 0.004187439568340778,
      "z": 0.4905286431312561,
      "time_usec": 85805757958
    },
    {
      "x": 9.779465675354004,
      "y": -0.024526432156562805,
      "z": 0.4905286431312561,
      "time_usec": 85805760215
    },
    {
      "x": 9.76989459991455,
      "y": 0.01375873014330864,
      "z": 0.48574298620224,
      "time_usec": 85805762472
    },
    {
      "x": 9.77527904510498,
      "y": 0.028115665540099144,
      "z": 0.4618147611618042,
      "time_usec": 85805764725
    },
    {
      "x": 9.78963565826416,
      "y": 0.03768695518374443,
      "z": 0.4570291340351105,
      "time_usec": 85805766987
    },
    {
      "x": 9.780064582824707,
      "y": 0.08075776696205139,
      "z": 0.45224347710609436,
      "time_usec": 85805769241
    },
    {
      "x": 9.794421195983887,
      "y": 0.09990034252405167,
      "z": 0.4426721930503845,
      "time_usec": 85805771486
    },
    {
      "x": 9.818349838256836,
      "y": 0.09511470049619675,
      "z": 0.4576273262500763,
      "time_usec": 85805773745
    },
    {
      "x": 9.80399227142334,
      "y": 0.1094716340303421,
      "z": 0.4618147611618042,
      "time_usec": 85805776012
    },
    {
      "x": 9.799206733703613,
      "y": 0.12861421704292297,
      "z": 0.45224347710609436,
      "time_usec": 85805778277
    },
    {
      "x": 9.799206733703613,
      "y": 0.11425728350877762,
      "z": 0.4713860750198364,
      "time_usec": 85805780534
    },
    {
      "x": 9.808777809143066,
      "y": 0.11904292553663254,
      "z": 0.4713860750198364,
      "time_usec": 85805782786
    },
    {
      "x": 9.827920913696289,
      "y": 0.1381855010986328,
      "z": 0.44327038526535034,
      "time_usec": 85805785033
    },
    {
      "x": 9.842277526855469,
      "y": 0.12323036789894104,
      "z": 0.42412781715393066,
      "time_usec": 85805787302
    },
    {
      "x": 9.866206169128418,
      "y": 0.137587308883667,
      "z": 0.42412781715393066,
      "time_usec": 85805789559
    },
    {
      "x": 9.885348320007324,
      "y": 0.16151553392410278,
      "z": 0.4289134442806244,
      "time_usec": 85805791819
    },
    {
      "x": 9.885348320007324,
      "y": 0.15194423496723175,
      "z": 0.41934216022491455,
      "time_usec": 85805794070
    },
    {
      "x": 9.89013385772705,
      "y": 0.16151553392410278,
      "z": 0.4097708761692047,
      "time_usec": 85805796326
    },
    {
      "x": 9.904491424560547,
      "y": 0.16151553392410278,
      "z": 0.4055834412574768,
      "time_usec": 85805798589
    },
    {
      "x": 9.89013385772705,
      "y": 0.1663011759519577,
      "z": 0.39062830805778503,
      "time_usec": 85805800847
    },
    {
      "x": 9.923633575439453,
      "y": 0.18065811693668365,
      "z": 0.3529413342475891,
      "time_usec": 85805803104
    },
    {
      "x": 9.933204650878906,
      "y": 0.1950150430202484,
      "z": 0.3481557071208954,
      "time_usec": 85805805358
    },
    {
      "x": 9.918848037719727,
      "y": 0.1902294009923935,
      "z": 0.3433700501918793,
      "time_usec": 85805807614
    },
    {
      "x": 9.976275444030762,
      "y": 0.20398813486099243,
      "z": 0.33858439326286316,
      "time_usec": 85805809862
    },
    {
      "x": 9.971489906311035,
      "y": 0.20877377688884735,
      "z": 0.3290131092071533,
      "time_usec": 85805812133
    },
    {
      "x": 9.957133293151855,
      "y": 0.24227328598499298,
      "z": 0.33858439326286316,
      "time_usec": 85805814385
    },
    {
      "x": 9.961918830871582,
      "y": 0.22791635990142822,
      "z": 0.2955136001110077,
      "time_usec": 85805816653
    },
    {
      "x": 9.952945709228516,
      "y": 0.2566302418708801,
      "z": 0.2763710021972656,
      "time_usec": 85805818904
    },
    {
      "x": 9.929018020629883,
      "y": 0.251844584941864,
      "z": 0.2763710021972656,
      "time_usec": 85805821160
    },
    {
      "x": 9.929018020629883,
      "y": 0.2667997181415558,
      "z": 0.2955136001110077,
      "time_usec": 85805823404
    },
    {
      "x": 9.90987491607666,
      "y": 0.2907279431819916,
      "z": 0.3290131092071533,
      "time_usec": 85805825670
    },
    {
      "x": 9.914660453796387,
      "y": 0.28594231605529785,
      "z": 0.33858439326286316,
      "time_usec": 85805827930
    },
    {
      "x": 9.919445991516113,
      "y": 0.2907279431819916,
      "z": 0.38644084334373474,
      "time_usec": 85805830195
    },
    {
      "x": 9.942776679992676,
      "y": 0.28594231605529785,
      "z": 0.4103690981864929,
      "time_usec": 85805832448
    },
    {
      "x": 9.942776679992676,
      "y": 0.26201409101486206,
      "z": 0.4486542344093323,
      "time_usec": 85805834701
    },
    {
      "x": 9.9469633102417,
      "y": 0.23808585107326508,
      "z": 0.43908295035362244,
      "time_usec": 85805836962
    },
    {
      "x": 9.937392234802246,
      "y": 0.2189432680606842,
      "z": 0.44386860728263855,
      "time_usec": 85805839220
    },
    {
      "x": 9.923035621643066,
      "y": 0.20458634197711945,
      "z": 0.44386860728263855,
      "time_usec": 85805841478
    },
    {
      "x": 9.93260669708252,
      "y": 0.19980068504810333,
      "z": 0.4773681163787842,
      "time_usec": 85805843733
    },
    {
      "x": 9.913464546203613,
      "y": 0.19980068504810333,
      "z": 0.47198426723480225,
      "time_usec": 85805845987
    },
    {
      "x": 9.903892517089844,
      "y": 0.19980068504810333,
      "z": 0.4863412082195282,
      "time_usec": 85805848250
    },
    {
      "x": 9.903892517089844,
      "y": 0.1902294009923935,
      "z": 0.5054838061332703,
      "time_usec": 85805850506
    },
    {
      "x": 9.884750366210938,
      "y": 0.18544375896453857,
      "z": 0.529412031173706,
      "time_usec": 85805852764
    },
    {
      "x": 9.860821723937988,
      "y": 0.18125630915164948,
      "z": 0.5198407173156738,
      "time_usec": 85805855015
    },
    {
      "x": 9.851250648498535,
      "y": 0.16689938306808472,
      "z": 0.5246263742446899,
      "time_usec": 85805857275
    },
    {
      "x": 9.851250648498535,
      "y": 0.15254244208335876,
      "z": 0.5198407173156738,
      "time_usec": 85805859523
    },
    {
      "x": 9.818349838256836,
      "y": 0.14297115802764893,
      "z": 0.5000999569892883,
      "time_usec": 85805861791
    },
    {
      "x": 9.780064582824707,
      "y": 0.12861421704292297,
      "z": 0.47617170214653015,
      "time_usec": 85805864037
    },
    {
      "x": 9.756733894348145,
      "y": 0.11425728350877762,
      "z": 0.44745782017707825,
      "time_usec": 85805866299
    },
    {
      "x": 9.723833084106445,
      "y": 0.14356936514377594,
      "z": 0.44745782017707825,
      "time_usec": 85805868564
    },
    {
      "x": 9.714262008666992,
      "y": 0.1579262912273407,
      "z": 0.41874396800994873,
      "time_usec": 85805870821
    },
    {
      "x": 9.686145782470703,
      "y": 0.1579262912273407,
      "z": 0.39960137009620667,
      "time_usec": 85805873068
    },
    {
      "x": 9.66221809387207,
      "y": 0.16749759018421173,
      "z": 0.3846462368965149,
      "time_usec": 85805875329
    },
    {
      "x": 9.638289451599121,
      "y": 0.1579262912273407,
      "z": 0.3798605799674988,
      "time_usec": 85805877593
    },
    {
      "x": 9.610174179077148,
      "y": 0.16749759018421173,
      "z": 0.34636107087135315,
      "time_usec": 85805879854
    },
    {
      "x": 9.5862455368042,
      "y": 0.1537388563156128,
      "z": 0.3415754437446594,
      "time_usec": 85805882108
    },
    {
      "x": 9.58205795288086,
      "y": 0.16331014037132263,
      "z": 0.32721850275993347,
      "time_usec": 85805884358
    },
    {
      "x": 9.56770133972168,
      "y": 0.16331014037132263,
      "z": 0.29850462079048157,
      "time_usec": 85805886618
    },
    {
      "x": 9.596415519714355,
      "y": 0.16271193325519562,
      "z": 0.2745763957500458,
      "time_usec": 85805888867
    },
    {
      "x": 9.591629981994629,
      "y": 0.17706887423992157,
      "z": 0.2602194547653198,
      "time_usec": 85805891139
    },
    {
      "x": 9.620343208312988,
      "y": 0.16749759018421173,
      "z": 0.2225325107574463,
      "time_usec": 85805893393
    },
    {
      "x": 9.629914283752441,
      "y": 0.17228323221206665,
      "z": 0.18424734473228455,
      "time_usec": 85805895649
    },
    {
      "x": 9.629914283752441,
      "y": 0.16271193325519562,
      "z": 0.15553347766399384,
      "time_usec": 85805897906
    },
    {
      "x": 9.644271850585938,
      "y": 0.16749759018421173,
      "z": 0.16510476171970367,
      "time_usec": 85805900167
    },
    {
      "x": 9.639486312866211,
      "y": 0.1818545162677765,
      "z": 0.1698904037475586,
      "time_usec": 85805902424
    },
    {
      "x": 9.658628463745117,
      "y": 0.18125630915164948,
      "z": 0.16510476171970367,
      "time_usec": 85805904677
    },
    {
      "x": 9.67777156829834,
      "y": 0.1860419660806656,
      "z": 0.18903298676013947,
      "time_usec": 85805906938
    },
    {
      "x": 9.686744689941406,
      "y": 0.18125630915164948,
      "z": 0.20338992774486542,
      "time_usec": 85805909195
    },
    {
      "x": 9.691530227661133,
      "y": 0.20997019112110138,
      "z": 0.23210379481315613,
      "time_usec": 85805911454
    },
    {
      "x": 9.701101303100586,
      "y": 0.19561325013637543,
      "z": 0.2225325107574463,
      "time_usec": 85805913709
    },
    {
      "x": 9.691530227661133,
      "y": 0.20518454909324646,
      "z": 0.24167509377002716,
      "time_usec": 85805915961
    },
    {
      "x": 9.720243453979492,
      "y": 0.20997019112110138,
      "z": 0.26560330390930176,
      "time_usec": 85805918218
    },
    {
      "x": 9.719645500183105,
      "y": 0.20997019112110138,
      "z": 0.28953152894973755,
      "time_usec": 85805920483
    },
    {
      "x": 9.724431037902832,
      "y": 0.20039889216423035,
      "z": 0.3086741268634796,
      "time_usec": 85805922739
    },
    {
      "x": 9.734002113342285,
      "y": 0.19561325013637543,
      "z": 0.3278166949748993,
      "time_usec": 85805924994
    },
    {
      "x": 9.738788604736328,
      "y": 0.20039889216423035,
      "z": 0.31824541091918945,
      "time_usec": 85805927254
    },
    {
      "x": 9.724431037902832,
      "y": 0.18125630915164948,
      "z": 0.33738797903060913,
      "time_usec": 85805929511
    },
    {
      "x": 9.757332801818848,
      "y": 0.17647066712379456,
      "z": 0.34695929288864136,
      "time_usec": 85805931770
    },
    {
      "x": 9.742975234985352,
      "y": 0.1860419660806656,
      "z": 0.37088751792907715,
      "time_usec": 85805934029
    },
    {
      "x": 9.757332801818848,
      "y": 0.18125630915164948,
      "z": 0.3900300860404968,
      "time_usec": 85805936278
    },
    {
      "x": 9.762118339538574,
      "y": 0.19561325013637543,
      "z": 0.39960137009620667,
      "time_usec": 85805938540
    },
    {
      "x": 9.780662536621094,
      "y": 0.21954147517681122,
      "z": 0.4331009089946747,
      "time_usec": 85805940790
    },
    {
      "x": 9.78126049041748,
      "y": 0.22432711720466614,
      "z": 0.42352959513664246,
      "time_usec": 85805943051
    },
    {
      "x": 9.78126049041748,
      "y": 0.23389841616153717,
      "z": 0.42352959513664246,
      "time_usec": 85805945307
    },
    {
      "x": 9.776474952697754,
      "y": 0.23389841616153717,
      "z": 0.4139583110809326,
      "time_usec": 85805947567
    },
    {
      "x": 9.78126049041748,
      "y": 0.23389841616153717,
      "z": 0.4043870270252228,
      "time_usec": 85805949815
    },
    {
      "x": 9.771689414978027,
      "y": 0.23389841616153717,
      "z": 0.4139583110809326,
      "time_usec": 85805952082
    },
    {
      "x": 9.771689414978027,
      "y": 0.22911277413368225,
      "z": 0.3900300860404968,
      "time_usec": 85805954327
    },
    {
      "x": 9.77707290649414,
      "y": 0.24825534224510193,
      "z": 0.34277185797691345,
      "time_usec": 85805956590
    },
    {
      "x": 9.78126049041748,
      "y": 0.25304099917411804,
      "z": 0.3475574851036072,
      "time_usec": 85805958840
    },
    {
      "x": 9.78126049041748,
      "y": 0.243469700217247,
      "z": 0.34277185797691345,
      "time_usec": 85805961100
    },
    {
      "x": 9.753145217895508,
      "y": 0.25304099917411804,
      "z": 0.31345975399017334,
      "time_usec": 85805963359
    },
    {
      "x": 9.753145217895508,
      "y": 0.25782662630081177,
      "z": 0.32303106784820557,
      "time_usec": 85805965625
    },
    {
      "x": 9.78664493560791,
      "y": 0.2721835672855377,
      "z": 0.30927231907844543,
      "time_usec": 85805967885
    },
    {
      "x": 9.78664493560791,
      "y": 0.2386840581893921,
      "z": 0.30927231907844543,
      "time_usec": 85805970146
    },
    {
      "x": 9.77707290649414,
      "y": 0.267397940158844,
      "z": 0.2997010350227356,
      "time_usec": 85805972403
    },
    {
      "x": 9.781859397888184,
      "y": 0.2721835672855377,
      "z": 0.3044866919517517,
      "time_usec": 85805974653
    },
    {
      "x": 9.78664493560791,
      "y": 0.25782662630081177,
      "z": 0.30927231907844543,
      "time_usec": 85805976914
    },
    {
      "x": 9.781859397888184,
      "y": 0.2721835672855377,
      "z": 0.3236292600631714,
      "time_usec": 85805979170
    },
    {
      "x": 9.77707290649414,
      "y": 0.2626122832298279,
      "z": 0.3332005441188812,
      "time_usec": 85805981429
    },
    {
      "x": 9.767501831054688,
      "y": 0.24825534224510193,
      "z": 0.34277185797691345,
      "time_usec": 85805983685
    },
    {
      "x": 9.753145217895508,
      "y": 0.2626122832298279,
      "z": 0.3278166949748993,
      "time_usec": 85805985938
    },
    {
      "x": 9.767501831054688,
      "y": 0.24825534224510193,
      "z": 0.3284149169921875,
      "time_usec": 85805988198
    },
    {
      "x": 9.757930755615234,
      "y": 0.24825534224510193,
      "z": 0.3326023519039154,
      "time_usec": 85805990449
    },
    {
      "x": 9.748359680175781,
      "y": 0.2626122832298279,
      "z": 0.3278166949748993,
      "time_usec": 85805992716
    },
    {
      "x": 9.753145217895508,
      "y": 0.25782662630081177,
      "z": 0.3278166949748993,
      "time_usec": 85805994967
    },
    {
      "x": 9.734002113342285,
      "y": 0.25304099917411804,
      "z": 0.3278166949748993,
      "time_usec": 85805997233
    },
    {
      "x": 9.729216575622559,
      "y": 0.243469700217247,
      "z": 0.32303106784820557,
      "time_usec": 85805999486
    },
    {
      "x": 9.748359680175781,
      "y": 0.23389841616153717,
      "z": 0.3613162338733673,
      "time_usec": 85806001746
    },
    {
      "x": 9.714859962463379,
      "y": 0.25363919138908386,
      "z": 0.380458801984787,
      "time_usec": 85806004000
    },
    {
      "x": 9.714859962463379,
      "y": 0.24885354936122894,
      "z": 0.3900300860404968,
      "time_usec": 85806006250
    },
    {
      "x": 9.738788604736328,
      "y": 0.24406790733337402,
      "z": 0.39960137009620667,
      "time_usec": 85806008503
    },
    {
      "x": 9.742975234985352,
      "y": 0.24406790733337402,
      "z": 0.4139583110809326,
      "time_usec": 85806010775
    },
    {
      "x": 9.7669038772583,
      "y": 0.243469700217247,
      "z": 0.41874396800994873,
      "time_usec": 85806013034
    },
    {
      "x": 9.776474952697754,
      "y": 0.22432711720466614,
      "z": 0.42352959513664246,
      "time_usec": 85806015286
    },
    {
      "x": 9.79083251953125,
      "y": 0.22911277413368225,
      "z": 0.4097708761692047,
      "time_usec": 85806017545
    },
    {
      "x": 9.79083251953125,
      "y": 0.243469700217247,
      "z": 0.4001995921134949,
      "time_usec": 85806019800
    },
    {
      "x": 9.776474952697754,
      "y": 0.22432711720466614,
      "z": 0.4091726839542389,
      "time_usec": 85806022055
    },
    {
      "x": 9.7669038772583,
      "y": 0.20518454909324646,
      "z": 0.39481574296951294,
      "time_usec": 85806024309
    },
    {
      "x": 9.7669038772583,
      "y": 0.19561325013637543,
      "z": 0.3900300860404968,
      "time_usec": 85806026569
    },
    {
      "x": 9.7669038772583,
      "y": 0.19561325013637543,
      "z": 0.36610186100006104,
      "time_usec": 85806028834
    },
    {
      "x": 9.757332801818848,
      "y": 0.17168502509593964,
      "z": 0.3517449200153351,
      "time_usec": 85806031090
    },
    {
      "x": 9.743574142456055,
      "y": 0.17168502509593964,
      "z": 0.3278166949748993,
      "time_usec": 85806033343
    },
    {
      "x": 9.734002113342285,
      "y": 0.18125630915164948,
      "z": 0.3326023519039154,
      "time_usec": 85806035594
    },
    {
      "x": 9.743574142456055,
      "y": 0.17168502509593964,
      "z": 0.31824541091918945,
      "time_usec": 85806037857
    },
    {
      "x": 9.734002113342285,
      "y": 0.16689938306808472,
      "z": 0.3086741268634796,
      "time_usec": 85806040119
    },
    {
      "x": 9.738788604736328,
      "y": 0.17647066712379456,
      "z": 0.3038884699344635,
      "time_usec": 85806042380
    },
    {
      "x": 9.724431037902832,
      "y": 0.18125630915164948,
      "z": 0.31345975399017334,
      "time_usec": 85806044629
    },
    {
      "x": 9.719645500183105,
      "y": 0.16689938306808472,
      "z": 0.29431718587875366,
      "time_usec": 85806046891
    },
    {
      "x": 9.724431037902832,
      "y": 0.17168502509593964,
      "z": 0.31824541091918945,
      "time_usec": 85806049146
    },
    {
      "x": 9.724431037902832,
      "y": 0.17647066712379456,
      "z": 0.28953152894973755,
      "time_usec": 85806051405
    },
    {
      "x": 9.714859962463379,
      "y": 0.18125630915164948,
      "z": 0.3038884699344635,
      "time_usec": 85806053660
    },
    {
      "x": 9.695717811584473,
      "y": 0.17228323221206665,
      "z": 0.33738797903060913,
      "time_usec": 85806055913
    },
    {
      "x": 9.705288887023926,
      "y": 0.17706887423992157,
      "z": 0.34695929288864136,
      "time_usec": 85806058176
    },
    {
      "x": 9.686145782470703,
      "y": 0.1866401731967926,
      "z": 0.3613162338733673,
      "time_usec": 85806060434
    },
    {
      "x": 9.671789169311523,
      "y": 0.1818545162677765,
      "z": 0.3517449200153351,
      "time_usec": 85806062691
    },
    {
      "x": 9.657432556152344,
      "y": 0.1866401731967926,
      "z": 0.3655036687850952,
      "time_usec": 85806064944
    },
    {
      "x": 9.65803050994873,
      "y": 0.19621145725250244,
      "z": 0.3655036687850952,
      "time_usec": 85806067205
    },
    {
      "x": 9.64367389678955,
      "y": 0.20578274130821228,
      "z": 0.3798605799674988,
      "time_usec": 85806069464
    },
    {
      "x": 9.648459434509277,
      "y": 0.2153540402650833,
      "z": 0.3798605799674988,
      "time_usec": 85806071721
    },
    {
      "x": 9.667003631591797,
      "y": 0.22013968229293823,
      "z": 0.389431893825531,
      "time_usec": 85806073976
    },
    {
      "x": 9.67657470703125,
      "y": 0.22013968229293823,
      "z": 0.380458801984787,
      "time_usec": 85806076229
    },
    {
      "x": 9.681360244750977,
      "y": 0.22013968229293823,
      "z": 0.39481574296951294,
      "time_usec": 85806078492
    },
    {
      "x": 9.705288887023926,
      "y": 0.2392822653055191,
      "z": 0.380458801984787,
      "time_usec": 85806080749
    },
    {
      "x": 9.710074424743652,
      "y": 0.22971096634864807,
      "z": 0.3852444589138031,
      "time_usec": 85806083007
    },
    {
      "x": 9.747760772705078,
      "y": 0.20997019112110138,
      "z": 0.37088751792907715,
      "time_usec": 85806085258
    },
    {
      "x": 9.762118339538574,
      "y": 0.22911277413368225,
      "z": 0.37088751792907715,
      "time_usec": 85806087521
    },
    {
      "x": 9.809974670410156,
      "y": 0.22432711720466614,
      "z": 0.3475574851036072,
      "time_usec": 85806089777
    },
    {
      "x": 9.824331283569336,
      "y": 0.22911277413368225,
      "z": 0.37148571014404297,
      "time_usec": 85806092031
    },
    {
      "x": 9.862018585205078,
      "y": 0.23808585107326508,
      "z": 0.3810569941997528,
      "time_usec": 85806094286
    },
    {
      "x": 9.866804122924805,
      "y": 0.25244277715682983,
      "z": 0.3810569941997528,
      "time_usec": 85806096545
    },
    {
      "x": 9.866804122924805,
      "y": 0.23330020904541016,
      "z": 0.37148571014404297,
      "time_usec": 85806098808
    },
    {
      "x": 9.852447509765625,
      "y": 0.23808585107326508,
      "z": 0.36191442608833313,
      "time_usec": 85806101063
    },
    {
      "x": 9.847661972045898,
      "y": 0.23330020904541016,
      "z": 0.3523431420326233,
      "time_usec": 85806103322
    },
    {
      "x": 9.829116821289062,
      "y": 0.24825534224510193,
      "z": 0.3475574851036072,
      "time_usec": 85806105572
    },
    {
      "x": 9.809974670410156,
      "y": 0.2626122832298279,
      "z": 0.3523431420326233,
      "time_usec": 85806107830
    },
    {
      "x": 9.800403594970703,
      "y": 0.2721835672855377,
      "z": 0.3523431420326233,
      "time_usec": 85806110093
    },
    {
      "x": 9.77707290649414,
      "y": 0.2961117923259735,
      "z": 0.357128769159317,
      "time_usec": 85806112350
    },
    {
      "x": 9.772287368774414,
      "y": 0.3008974492549896,
      "z": 0.34277185797691345,
      "time_usec": 85806114605
    },
    {
      "x": 9.748957633972168,
      "y": 0.31046873331069946,
      "z": 0.33738797903060913,
      "time_usec": 85806116866
    },
    {
      "x": 9.739386558532715,
      "y": 0.3248256742954254,
      "z": 0.3038884699344635,
      "time_usec": 85806119124
    },
    {
      "x": 9.739386558532715,
      "y": 0.3248256742954254,
      "z": 0.31824541091918945,
      "time_usec": 85806121381
    },
    {
      "x": 9.710672378540039,
      "y": 0.30149564146995544,
      "z": 0.34217363595962524,
      "time_usec": 85806123636
    },
    {
      "x": 9.720243453979492,
      "y": 0.30149564146995544,
      "z": 0.3038884699344635,
      "time_usec": 85806125886
    },
    {
      "x": 9.711270332336426,
      "y": 0.32542386651039124,
      "z": 0.275174617767334,
      "time_usec": 85806128139
    },
    {
      "x": 9.701699256896973,
      "y": 0.31046873331069946,
      "z": 0.21774685382843018,
      "time_usec": 85806130409
    },
    {
      "x": 9.725627899169922,
      "y": 0.3008974492549896,
      "z": 0.1704886108636856,
      "time_usec": 85806132665
    },
    {
      "x": 9.716654777526855,
      "y": 0.30568310618400574,
      "z": 0.14656038582324982,
      "time_usec": 85806134914
    },
    {
      "x": 9.739984512329102,
      "y": 0.3200400173664093,
      "z": 0.12741780281066895,
      "time_usec": 85806137182
    },
    {
      "x": 9.764511108398438,
      "y": 0.3248256742954254,
      "z": 0.09391828626394272,
      "time_usec": 85806139439
    },
    {
      "x": 9.79262638092041,
      "y": 0.30508488416671753,
      "z": 0.09451649338006973,
      "time_usec": 85806141700
    },
    {
      "x": 9.81655502319336,
      "y": 0.30508488416671753,
      "z": 0.08015955984592438,
      "time_usec": 85806143952
    },
    {
      "x": 9.81655502319336,
      "y": 0.3002992272377014,
      "z": 0.05623133108019829,
      "time_usec": 85806146204
    },
    {
      "x": 9.811769485473633,
      "y": 0.2763710021972656,
      "z": 0.07058826833963394,
      "time_usec": 85806148462
    },
    {
      "x": 9.811769485473633,
      "y": 0.2667997181415558,
      "z": 0.08015955984592438,
      "time_usec": 85806150725
    },
    {
      "x": 9.81117057800293,
      "y": 0.25244277715682983,
      "z": 0.10887342691421509,
      "time_usec": 85806152982
    },
    {
      "x": 9.839884757995605,
      "y": 0.28115665912628174,
      "z": 0.10408778488636017,
      "time_usec": 85806155237
    },
    {
      "x": 9.844670295715332,
      "y": 0.2715853750705719,
      "z": 0.1136590763926506,
      "time_usec": 85806157496
    },
    {
      "x": 9.8207426071167,
      "y": 0.26201409101486206,
      "z": 0.15194423496723175,
      "time_usec": 85806159754
    },
    {
      "x": 9.815957069396973,
      "y": 0.2476571500301361,
      "z": 0.15672987699508667,
      "time_usec": 85806162011
    },
    {
      "x": 9.79681396484375,
      "y": 0.26201409101486206,
      "z": 0.18484555184841156,
      "time_usec": 85806164260
    },
    {
      "x": 9.777671813964844,
      "y": 0.23389841616153717,
      "z": 0.20398813486099243,
      "time_usec": 85806166513
    },
    {
      "x": 9.77707290649414,
      "y": 0.22911277413368225,
      "z": 0.24227328598499298,
      "time_usec": 85806168781
    },
    {
      "x": 9.77707290649414,
      "y": 0.2386840581893921,
      "z": 0.251844584941864,
      "time_usec": 85806171033
    },
    {
      "x": 9.762716293334961,
      "y": 0.20039889216423035,
      "z": 0.30927231907844543,
      "time_usec": 85806173300
    },
    {
      "x": 9.757930755615234,
      "y": 0.21954147517681122,
      "z": 0.3326023519039154,
      "time_usec": 85806175550
    },
    {
      "x": 9.743574142456055,
      "y": 0.22432711720466614,
      "z": 0.3565305769443512,
      "time_usec": 85806177816
    },
    {
      "x": 9.743574142456055,
      "y": 0.2386840581893921,
      "z": 0.3756731450557709,
      "time_usec": 85806180076
    },
    {
      "x": 9.752547264099121,
      "y": 0.2386840581893921,
      "z": 0.39481574296951294,
      "time_usec": 85806182325
    },
    {
      "x": 9.734002113342285,
      "y": 0.2584248483181,
      "z": 0.39481574296951294,
      "time_usec": 85806184571
    },
    {
      "x": 9.7669038772583,
      "y": 0.243469700217247,
      "z": 0.39960137009620667,
      "time_usec": 85806186840
    },
    {
      "x": 9.776474952697754,
      "y": 0.24825534224510193,
      "z": 0.3852444589138031,
      "time_usec": 85806189098
    },
    {
      "x": 9.757930755615234,
      "y": 0.25304099917411804,
      "z": 0.380458801984787,
      "time_usec": 85806191357
    },
    {
      "x": 9.80518913269043,
      "y": 0.24825534224510193,
      "z": 0.37148571014404297,
      "time_usec": 85806193612
    },
    {
      "x": 9.81954574584961,
      "y": 0.23389841616153717,
      "z": 0.36191442608833313,
      "time_usec": 85806195865
    },
    {
      "x": 9.80518913269043,
      "y": 0.22911277413368225,
      "z": 0.3523431420326233,
      "time_usec": 85806198128
    },
    {
      "x": 9.833903312683105,
      "y": 0.23330020904541016,
      "z": 0.3236292600631714,
      "time_usec": 85806200385
    },
    {
      "x": 9.814760208129883,
      "y": 0.22432711720466614,
      "z": 0.33798620104789734,
      "time_usec": 85806202642
    },
    {
      "x": 9.824331283569336,
      "y": 0.2189432680606842,
      "z": 0.3332005441188812,
      "time_usec": 85806204894
    },
    {
      "x": 9.81954574584961,
      "y": 0.22432711720466614,
      "z": 0.3284149169921875,
      "time_usec": 85806207157
    },
    {
      "x": 9.800403594970703,
      "y": 0.22911277413368225,
      "z": 0.3284149169921875,
      "time_usec": 85806209415
    },
    {
      "x": 9.809974670410156,
      "y": 0.243469700217247,
      "z": 0.3284149169921875,
      "time_usec": 85806211673
    },
    {
      "x": 9.791430473327637,
      "y": 0.2386840581893921,
      "z": 0.3044866919517517,
      "time_usec": 85806213927
    },
    {
      "x": 9.772287368774414,
      "y": 0.27696922421455383,
      "z": 0.2757728099822998,
      "time_usec": 85806216170
    },
    {
      "x": 9.768099784851074,
      "y": 0.3008974492549896,
      "z": 0.2709871530532837,
      "time_usec": 85806218430
    },
    {
      "x": 9.77707290649414,
      "y": 0.2913261651992798,
      "z": 0.28534409403800964,
      "time_usec": 85806220701
    },
    {
      "x": 9.796216011047363,
      "y": 0.3008974492549896,
      "z": 0.30927231907844543,
      "time_usec": 85806222958
    },
    {
      "x": 9.805787086486816,
      "y": 0.31046873331069946,
      "z": 0.31405797600746155,
      "time_usec": 85806225206
    },
    {
      "x": 9.805787086486816,
      "y": 0.31046873331069946,
      "z": 0.3188436031341553,
      "time_usec": 85806227473
    },
    {
      "x": 9.796216011047363,
      "y": 0.31046873331069946,
      "z": 0.31405797600746155,
      "time_usec": 85806229730
    },
    {
      "x": 9.796216011047363,
      "y": 0.2913261651992798,
      "z": 0.30927231907844543,
      "time_usec": 85806231989
    },
    {
      "x": 9.772287368774414,
      "y": 0.28654050827026367,
      "z": 0.3236292600631714,
      "time_usec": 85806234237
    },
    {
      "x": 9.791430473327637,
      "y": 0.28175488114356995,
      "z": 0.29012975096702576,
      "time_usec": 85806236495
    },
    {
      "x": 9.768099784851074,
      "y": 0.3008974492549896,
      "z": 0.2709871530532837,
      "time_usec": 85806238759
    },
    {
      "x": 9.772886276245117,
      "y": 0.3008974492549896,
      "z": 0.2709871530532837,
      "time_usec": 85806241017
    },
    {
      "x": 9.781859397888184,
      "y": 0.3008974492549896,
      "z": 0.2757728099822998,
      "time_usec": 85806243274
    },
    {
      "x": 9.772886276245117,
      "y": 0.3200400173664093,
      "z": 0.2757728099822998,
      "time_usec": 85806245527
    },
    {
      "x": 9.758528709411621,
      "y": 0.3152543902397156,
      "z": 0.2997010350227356,
      "time_usec": 85806247787
    },
    {
      "x": 9.78664493560791,
      "y": 0.3152543902397156,
      "z": 0.28534409403800964,
      "time_usec": 85806250040
    },
    {
      "x": 9.78664493560791,
      "y": 0.2961117923259735,
      "z": 0.2709871530532837,
      "time_usec": 85806252302
    },
    {
      "x": 9.763314247131348,
      "y": 0.3248256742954254,
      "z": 0.2757728099822998,
      "time_usec": 85806254551
    },
    {
      "x": 9.763314247131348,
      "y": 0.3200400173664093,
      "z": 0.28534409403800964,
      "time_usec": 85806256806
    },
    {
      "x": 9.768099784851074,
      "y": 0.3008974492549896,
      "z": 0.28534409403800964,
      "time_usec": 85806259076
    },
    {
