{
  "accelerations": [
    {
      "x": 9.571290969848633,
      "y": -0.275174617767334,
      "z": 1.0971091985702515,
      "time_usec": 95317741959
    },
    {
      "x": 9.585049629211426,
      "y": -0.2554338276386261,
      "z": 1.1497513055801392,
      "time_usec": 95317744217
    },
    {
      "x": 9.603593826293945,
      "y": -0.29431718587875366,
      "z": 1.1880364418029785,
      "time_usec": 95317746474
    },
    {
      "x": 9.622735977172852,
      "y": -0.275174617767334,
      "z": 1.168893814086914,
      "time_usec": 95317748731
    },
    {
      "x": 9.641879081726074,
      "y": -0.27038896083831787,
      "z": 1.144965648651123,
      "time_usec": 95317750988
    },
    {
      "x": 9.656235694885254,
      "y": -0.2991028428077698,
      "z": 1.1258230209350586,
      "time_usec": 95317753246
    },
    {
      "x": 9.689735412597656,
      "y": -0.30927231907844543,
      "z": 1.083350419998169,
      "time_usec": 95317755500
    },
    {
      "x": 9.713663101196289,
      "y": -0.3188436031341553,
      "z": 1.0259226560592651,
      "time_usec": 95317757748
    },
    {
      "x": 9.737591743469238,
      "y": -0.31405797600746155,
      "z": 0.9786644577980042,
      "time_usec": 95317760019
    },
    {
      "x": 9.77109146118164,
      "y": -0.31465616822242737,
      "z": 0.9308080077171326,
      "time_usec": 95317762277
    },
    {
      "x": 9.78544807434082,
      "y": -0.33379876613616943,
      "z": 0.9116654396057129,
      "time_usec": 95317764534
    },
    {
      "x": 9.7998046875,
      "y": -0.33379876613616943,
      "z": 0.893121063709259,
      "time_usec": 95317766780
    },
    {
      "x": 9.80937671661377,
      "y": -0.3242274820804596,
      "z": 0.8548358678817749,
      "time_usec": 95317769046
    },
    {
      "x": 9.828518867492676,
      "y": -0.3152543902397156,
      "z": 0.8404789566993713,
      "time_usec": 95317771300
    },
    {
      "x": 9.818947792053223,
      "y": -0.3002992272377014,
      "z": 0.859621524810791,
      "time_usec": 95317773565
    },
    {
      "x": 9.814760208129883,
      "y": -0.28654050827026367,
      "z": 0.8261220455169678,
      "time_usec": 95317775820
    },
    {
      "x": 9.809974670410156,
      "y": -0.2913261651992798,
      "z": 0.7639086246490479,
      "time_usec": 95317778079
    },
    {
      "x": 9.80100154876709,
      "y": -0.25304099917411804,
      "z": 0.7543373107910156,
      "time_usec": 95317780333
    },
    {
      "x": 9.796216011047363,
      "y": -0.22432711720466614,
      "z": 0.7399803996086121,
      "time_usec": 95317782580
    },
    {
      "x": 9.796216011047363,
      "y": -0.22372891008853912,
      "z": 0.735194742679596,
      "time_usec": 95317784851
    },
    {
      "x": 9.757930755615234,
      "y": -0.2189432680606842,
      "z": 0.7399803996086121,
      "time_usec": 95317787113
    },
    {
      "x": 9.729815483093262,
      "y": -0.20458634197711945,
      "z": 0.7256234884262085,
      "time_usec": 95317789368
    },
    {
      "x": 9.705886840820312,
      "y": -0.18484555184841156,
      "z": 0.7585247755050659,
      "time_usec": 95317791622
    },
    {
      "x": 9.701101303100586,
      "y": -0.17527425289154053,
      "z": 0.7537391185760498,
      "time_usec": 95317793877
    },
    {
      "x": 9.705886840820312,
      "y": -0.15613168478012085,
      "z": 0.7585247755050659,
      "time_usec": 95317796132
    },
    {
      "x": 9.687342643737793,
      "y": -0.11306086927652359,
      "z": 0.7489534616470337,
      "time_usec": 95317798391
    },
    {
      "x": 9.716055870056152,
      "y": -0.0891326442360878,
      "z": 0.7250252366065979,
      "time_usec": 95317800649
    },
    {
      "x": 9.754341125488281,
      "y": -0.08015955984592438,
      "z": 0.6921239495277405,
      "time_usec": 95317802898
    },
    {
      "x": 9.735198974609375,
      "y": -0.12323036789894104,
      "z": 0.6394818425178528,
      "time_usec": 95317805167
    },
    {
      "x": 9.711869239807129,
      "y": -0.1423729509115219,
      "z": 0.6203392744064331,
      "time_usec": 95317807421
    },
    {
      "x": 9.711869239807129,
      "y": -0.14715859293937683,
      "z": 0.5916253924369812,
      "time_usec": 95317809685
    },
    {
      "x": 9.70229721069336,
      "y": -0.137587308883667,
      "z": 0.5868397355079651,
      "time_usec": 95317811940
    },
    {
      "x": 9.697511672973633,
      "y": -0.13280165195465088,
      "z": 0.5676971673965454,
      "time_usec": 95317814198
    },
    {
      "x": 9.70229721069336,
      "y": -0.11844471842050552,
      "z": 0.5724828243255615,
      "time_usec": 95317816453
    },
    {
      "x": 9.688538551330566,
      "y": -0.09451649338006973,
      "z": 0.5964110493659973,
      "time_usec": 95317818705
    },
    {
      "x": 9.692726135253906,
      "y": -0.0849452018737793,
      "z": 0.6107679605484009,
      "time_usec": 95317820956
    },
    {
      "x": 9.68375301361084,
      "y": -0.06999006122350693,
      "z": 0.6340979933738708,
      "time_usec": 95317823227
    },
    {
      "x": 9.664610862731934,
      "y": -0.06999006122350693,
      "z": 0.6532405614852905,
      "time_usec": 95317825483
    },
    {
      "x": 9.626325607299805,
      "y": -0.07956135272979736,
      "z": 0.6771687865257263,
      "time_usec": 95317827736
    },
    {
      "x": 9.640682220458984,
      "y": -0.07477571070194244,
      "z": 0.672383189201355,
      "time_usec": 95317829986
    },
    {
      "x": 9.659825325012207,
      "y": -0.08434699475765228,
      "z": 0.6580262184143066,
      "time_usec": 95317832256
    },
    {
      "x": 9.631111145019531,
      "y": -0.12741780281066895,
      "z": 0.6293123364448547,
      "time_usec": 95317834514
    },
    {
      "x": 9.650253295898438,
      "y": -0.15134602785110474,
      "z": 0.605384111404419,
      "time_usec": 95317836766
    },
    {
      "x": 9.65503978729248,
      "y": -0.15134602785110474,
      "z": 0.5910272002220154,
      "time_usec": 95317839016
    },
    {
      "x": 9.692726135253906,
      "y": -0.15194423496723175,
      "z": 0.5485545992851257,
      "time_usec": 95317841286
    },
    {
      "x": 9.735796928405762,
      "y": -0.15672987699508667,
      "z": 0.5341976284980774,
      "time_usec": 95317843545
    },
    {
      "x": 9.787840843200684,
      "y": -0.17647066712379456,
      "z": 0.5443671345710754,
      "time_usec": 95317845803
    },
    {
      "x": 9.797411918640137,
      "y": -0.18125630915164948,
      "z": 0.5539384484291077,
      "time_usec": 95317848053
    },
    {
      "x": 9.79262638092041,
      "y": -0.19561325013637543,
      "z": 0.5682953596115112,
      "time_usec": 95317850316
    },
    {
      "x": 9.80219841003418,
      "y": -0.20039889216423035,
      "z": 0.5539384484291077,
      "time_usec": 95317852574
    },
    {
      "x": 9.783055305480957,
      "y": -0.1860419660806656,
      "z": 0.5964110493659973,
      "time_usec": 95317854831
    },
    {
      "x": 9.792028427124023,
      "y": -0.1908276081085205,
      "z": 0.6251249313354492,
      "time_usec": 95317857083
    },
    {
      "x": 9.772886276245117,
      "y": -0.18544375896453857,
      "z": 0.649053156375885,
      "time_usec": 95317859346
    },
    {
      "x": 9.787242889404297,
      "y": -0.21415762603282928,
      "z": 0.6777670383453369,
      "time_usec": 95317861603
    },
    {
      "x": 9.78664493560791,
      "y": -0.21415762603282928,
      "z": 0.7016952633857727,
      "time_usec": 95317863861
    },
    {
      "x": 9.767501831054688,
      "y": -0.23808585107326508,
      "z": 0.7399803996086121,
      "time_usec": 95317866114
    },
    {
      "x": 9.776474952697754,
      "y": -0.2667997181415558,
      "z": 0.768694281578064,
      "time_usec": 95317868370
    },
    {
      "x": 9.776474952697754,
      "y": -0.2667997181415558,
      "z": 0.7782655358314514,
      "time_usec": 95317870634
    },
    {
      "x": 9.7669038772583,
      "y": -0.28594231605529785,
      "z": 0.802193820476532,
      "time_usec": 95317872890
    },
    {
      "x": 9.752547264099121,
      "y": -0.2907279431819916,
      "z": 0.7830511927604675,
      "time_usec": 95317875142
    },
    {
      "x": 9.738788604736328,
      "y": -0.2955136001110077,
      "z": 0.7872386574745178,
      "time_usec": 95317877391
    },
    {
      "x": 9.7669038772583,
      "y": -0.2907279431819916,
      "z": 0.8303094506263733,
      "time_usec": 95317879657
    },
    {
      "x": 9.757332801818848,
      "y": -0.26201409101486206,
      "z": 0.8446664214134216,
      "time_usec": 95317881921
    },
    {
      "x": 9.738788604736328,
      "y": -0.2476571500301361,
      "z": 0.8350951075553894,
      "time_usec": 95317884180
    },
    {
      "x": 9.738189697265625,
      "y": -0.23270200192928314,
      "z": 0.8685946464538574,
      "time_usec": 95317886434
    },
    {
      "x": 9.729216575622559,
      "y": -0.2189432680606842,
      "z": 0.8015955686569214,
      "time_usec": 95317888691
    },
    {
      "x": 9.729216575622559,
      "y": -0.2183450609445572,
      "z": 0.8733802437782288,
      "time_usec": 95317890950
    },
    {
      "x": 9.734601020812988,
      "y": -0.19980068504810333,
      "z": 0.7304090857505798,
      "time_usec": 95317893208
    },
    {
      "x": 9.753145217895508,
      "y": -0.20458634197711945,
      "z": 0.8015955686569214,
      "time_usec": 95317895465
    },
    {
      "x": 9.743574142456055,
      "y": -0.22372891008853912,
      "z": 0.7920243144035339,
      "time_usec": 95317897717
    },
    {
      "x": 9.748957633972168,
      "y": -0.21415762603282928,
      "z": 0.7256234884262085,
      "time_usec": 95317899977
    },
    {
      "x": 9.747760772705078,
      "y": -0.2183450609445572,
      "z": 0.8781659007072449,
      "time_usec": 95317902227
    },
    {
      "x": 9.725028991699219,
      "y": -0.2189432680606842,
      "z": 0.7585247755050659,
      "time_usec": 95317904494
    },
    {
      "x": 9.724431037902832,
      "y": -0.23748764395713806,
      "z": 0.8542376756668091,
      "time_usec": 95317906748
    },
    {
      "x": 9.7005033493042,
      "y": -0.251844584941864,
      "z": 0.8638089895248413,
      "time_usec": 95317909012
    },
    {
      "x": 9.7005033493042,
      "y": -0.2566302418708801,
      "z": 0.849452018737793,
      "time_usec": 95317911267
    },
    {
      "x": 9.709476470947266,
      "y": -0.26620152592658997,
      "z": 0.9308080077171326,
      "time_usec": 95317913523
    },
    {
      "x": 9.690333366394043,
      "y": -0.2949153780937195,
      "z": 0.9068797826766968,
      "time_usec": 95317915780
    },
    {
      "x": 9.728020668029785,
      "y": -0.3044866919517517,
      "z": 0.9260223507881165,
      "time_usec": 95317918031
    },
    {
      "x": 9.742377281188965,
      "y": -0.31405797600746155,
      "z": 0.9355936646461487,
      "time_usec": 95317920297
    },
    {
      "x": 9.751948356628418,
      "y": -0.3242274820804596,
      "z": 0.9212366938591003,
      "time_usec": 95317922554
    },
    {
      "x": 9.761520385742188,
      "y": -0.33858439326286316,
      "z": 0.916451096534729,
      "time_usec": 95317924813
    },
    {
      "x": 9.756733894348145,
      "y": -0.3529413342475891,
      "z": 0.9068797826766968,
      "time_usec": 95317927064
    },
    {
      "x": 9.751948356628418,
      "y": -0.3481557071208954,
      "z": 0.9020941257476807,
      "time_usec": 95317929327
    },
    {
      "x": 9.747162818908691,
      "y": -0.3768695592880249,
      "z": 0.8925228714942932,
      "time_usec": 95317931584
    },
    {
      "x": 9.737591743469238,
      "y": -0.3577269911766052,
      "z": 0.8733802437782288,
      "time_usec": 95317933843
    },
    {
      "x": 9.732806205749512,
      "y": -0.38644084334373474,
      "z": 0.9068797826766968,
      "time_usec": 95317936097
    },
    {
      "x": 9.732806205749512,
      "y": -0.381655216217041,
      "z": 0.9020941257476807,
      "time_usec": 95317938349
    },
    {
      "x": 9.723235130310059,
      "y": -0.39541393518447876,
      "z": 0.9355936646461487,
      "time_usec": 95317940606
    },
    {
      "x": 9.723235130310059,
      "y": -0.39062830805778503,
      "z": 0.9308080077171326,
      "time_usec": 95317942871
    },
    {
      "x": 9.747162818908691,
      "y": -0.36729827523231506,
      "z": 0.9308080077171326,
      "time_usec": 95317945123
    },
    {
      "x": 9.728020668029785,
      "y": -0.39062830805778503,
      "z": 0.9260223507881165,
      "time_usec": 95317947383
    },
    {
      "x": 9.737591743469238,
      "y": -0.381655216217041,
      "z": 0.916451096534729,
      "time_usec": 95317949643
    },
    {
      "x": 9.756135940551758,
      "y": -0.381655216217041,
      "z": 0.9451649188995361,
      "time_usec": 95317951902
    },
    {
      "x": 9.732806205749512,
      "y": -0.3810569941997528,
      "z": 0.9451649188995361,
      "time_usec": 95317954159
    },
    {
      "x": 9.723235130310059,
      "y": -0.3858426511287689,
      "z": 0.9068797826766968,
      "time_usec": 95317956409
    },
    {
      "x": 9.723235130310059,
      "y": -0.3762713670730591,
      "z": 0.916451096534729,
      "time_usec": 95317958665
    },
    {
      "x": 9.704092025756836,
      "y": -0.3762713670730591,
      "z": 0.916451096534729,
      "time_usec": 95317960932
    },
    {
      "x": 9.685547828674316,
      "y": -0.34277185797691345,
      "z": 0.8925228714942932,
      "time_usec": 95317963188
    },
    {
      "x": 9.68076229095459,
      "y": -0.36191442608833313,
      "z": 0.8781659007072449,
      "time_usec": 95317965440
    },
    {
      "x": 9.68076229095459,
      "y": -0.33798620104789734,
      "z": 0.8877372145652771,
      "time_usec": 95317967698
    },
    {
      "x": 9.714262008666992,
      "y": -0.3284149169921875,
      "z": 0.8877372145652771,
      "time_usec": 95317969957
    },
    {
      "x": 9.723833084106445,
      "y": -0.30927231907844543,
      "z": 0.916451096534729,
      "time_usec": 95317972204
    },
    {
      "x": 9.761520385742188,
      "y": -0.3002992272377014,
      "z": 0.9068797826766968,
      "time_usec": 95317974464
    },
    {
      "x": 9.747162818908691,
      "y": -0.30987054109573364,
      "z": 0.9068797826766968,
      "time_usec": 95317976728
    },
    {
      "x": 9.756733894348145,
      "y": -0.3194418251514435,
      "z": 0.9116654396057129,
      "time_usec": 95317978992
    },
    {
      "x": 9.751948356628418,
      "y": -0.31465616822242737,
      "z": 0.9020941257476807,
      "time_usec": 95317981235
    },
    {
      "x": 9.747162818908691,
      "y": -0.3194418251514435,
      "z": 0.8925228714942932,
      "time_usec": 95317983490
    },
    {
      "x": 9.738189697265625,
      "y": -0.3242274820804596,
      "z": 0.8781659007072449,
      "time_usec": 95317985746
    },
    {
      "x": 9.742975234985352,
      "y": -0.33858439326286316,
      "z": 0.8685946464538574,
      "time_usec": 95317988008
    },
    {
      "x": 9.747760772705078,
      "y": -0.31465616822242737,
      "z": 0.8733802437782288,
      "time_usec": 95317990264
    },
    {
      "x": 9.775876998901367,
      "y": -0.3290131092071533,
      "z": 0.8877372145652771,
      "time_usec": 95317992522
    },
    {
      "x": 9.790233612060547,
      "y": -0.3194418251514435,
      "z": 0.8739784955978394,
      "time_usec": 95317994780
    },
    {
      "x": 9.790233612060547,
      "y": -0.30508488416671753,
      "z": 0.8691928386688232,
      "time_usec": 95317997041
    },
    {
      "x": 9.814162254333496,
      "y": -0.30987054109573364,
      "z": 0.8787640929222107,
      "time_usec": 95317999310
    },
    {
      "x": 9.828518867492676,
      "y": -0.30568310618400574,
      "z": 0.8309076428413391,
      "time_usec": 95318001569
    },
    {
      "x": 9.82373332977295,
      "y": -0.3152543902397156,
      "z": 0.8117650747299194,
      "time_usec": 95318003828
    },
    {
      "x": 9.795618057250977,
      "y": -0.30987054109573364,
      "z": 0.7878368496894836,
      "time_usec": 95318006076
    },
    {
      "x": 9.742975234985352,
      "y": -0.3194418251514435,
      "z": 0.7824530005455017,
      "time_usec": 95318008321
    },
    {
      "x": 9.738788604736328,
      "y": -0.31465616822242737,
      "z": 0.7776673436164856,
      "time_usec": 95318010578
    },
    {
      "x": 9.762118339538574,
      "y": -0.33379876613616943,
      "z": 0.7543373107910156,
      "time_usec": 95318012836
    },
    {
      "x": 9.724431037902832,
      "y": -0.33379876613616943,
      "z": 0.7680960893630981,
      "time_usec": 95318015097
    },
    {
      "x": 9.724431037902832,
      "y": -0.33379876613616943,
      "z": 0.7537391185760498,
      "time_usec": 95318017354
    },
    {
      "x": 9.719645500183105,
      "y": -0.3481557071208954,
      "z": 0.7441678643226624,
      "time_usec": 95318019612
    },
    {
      "x": 9.734002113342285,
      "y": -0.33858439326286316,
      "z": 0.735194742679596,
      "time_usec": 95318021869
    },
    {
      "x": 9.757332801818848,
      "y": -0.3433700501918793,
      "z": 0.7399803996086121,
      "time_usec": 95318024130
    },
    {
      "x": 9.734002113342285,
      "y": -0.3481557071208954,
      "z": 0.7393822073936462,
      "time_usec": 95318026385
    },
    {
      "x": 9.728618621826172,
      "y": -0.381655216217041,
      "z": 0.7585247755050659,
      "time_usec": 95318028652
    },
    {
      "x": 9.695717811584473,
      "y": -0.36251261830329895,
      "z": 0.7824530005455017,
      "time_usec": 95318030914
    },
    {
      "x": 9.681360244750977,
      "y": -0.36670008301734924,
      "z": 0.8015955686569214,
      "time_usec": 95318033172
    },
    {
      "x": 9.638289451599121,
      "y": -0.37148571014404297,
      "z": 0.8201399445533752,
      "time_usec": 95318035422
    },
    {
      "x": 9.619147300720215,
      "y": -0.4049852192401886,
      "z": 0.8297112584114075,
      "time_usec": 95318037679
    },
    {
      "x": 9.595218658447266,
      "y": -0.39062830805778503,
      "z": 0.8392825126647949,
      "time_usec": 95318039938
    },
    {
      "x": 9.552745819091797,
      "y": -0.4139583110809326,
      "z": 0.8482556343078613,
      "time_usec": 95318042187
    },
    {
      "x": 9.543174743652344,
      "y": -0.39481574296951294,
      "z": 0.8434699773788452,
      "time_usec": 95318044455
    },
    {
      "x": 9.528818130493164,
      "y": -0.41874396800994873,
      "z": 0.8817551732063293,
      "time_usec": 95318046701
    },
    {
      "x": 9.528220176696777,
      "y": -0.42831525206565857,
      "z": 0.9056833982467651,
      "time_usec": 95318048971
    },
    {
      "x": 9.513862609863281,
      "y": -0.42352959513664246,
      "z": 0.9152546525001526,
      "time_usec": 95318051213
    },
    {
      "x": 9.523433685302734,
      "y": -0.45224347710609436,
      "z": 0.9104689955711365,
      "time_usec": 95318053477
    },
    {
      "x": 9.495318412780762,
      "y": -0.42771705985069275,
      "z": 0.9248259663581848,
      "time_usec": 95318055741
    },
    {
      "x": 9.500103950500488,
      "y": -0.4378865361213684,
      "z": 0.9104689955711365,
      "time_usec": 95318057991
    },
    {
      "x": 9.504889488220215,
      "y": -0.4331009089946747,
      "z": 0.867398202419281,
      "time_usec": 95318060248
    },
    {
      "x": 9.528818130493164,
      "y": -0.4139583110809326,
      "z": 0.833898663520813,
      "time_usec": 95318062515
    },
    {
      "x": 9.538389205932617,
      "y": -0.4043870270252228,
      "z": 0.8243274092674255,
      "time_usec": 95318064773
    },
    {
      "x": 9.543174743652344,
      "y": -0.3900300860404968,
      "z": 0.8243274092674255,
      "time_usec": 95318067021
    },
    {
      "x": 9.581459999084473,
      "y": -0.3852444589138031,
      "z": 0.8392825126647949,
      "time_usec": 95318069284
    },
    {
      "x": 9.628718376159668,
      "y": -0.3762713670730591,
      "z": 0.877567708492279,
      "time_usec": 95318071532
    },
    {
      "x": 9.66640567779541,
      "y": -0.3810569941997528,
      "z": 0.9014959335327148,
      "time_usec": 95318073807
    },
    {
      "x": 9.718449592590332,
      "y": -0.3768695592880249,
      "z": 0.8925228714942932,
      "time_usec": 95318076061
    },
    {
      "x": 9.766305923461914,
      "y": -0.381655216217041,
      "z": 0.882951557636261,
      "time_usec": 95318078313
    },
    {
      "x": 9.80399227142334,
      "y": -0.3720839321613312,
      "z": 0.8787640929222107,
      "time_usec": 95318080559
    },
    {
      "x": 9.866206169128418,
      "y": -0.3678964674472809,
      "z": 0.859621524810791,
      "time_usec": 95318082819
    },
    {
      "x": 9.913464546203613,
      "y": -0.3966103494167328,
      "z": 0.8458628058433533,
      "time_usec": 95318085090
    },
    {
      "x": 9.942177772521973,
      "y": -0.37806597352027893,
      "z": 0.8027920126914978,
      "time_usec": 95318087345
    },
    {
      "x": 9.942177772521973,
      "y": -0.397208571434021,
      "z": 0.8075776696205139,
      "time_usec": 95318089604
    },
    {
      "x": 9.827920913696289,
      "y": -0.4301098585128784,
      "z": 0.7830511927604675,
      "time_usec": 95318091861
    },
    {
      "x": 10.122836112976074,
      "y": -0.34995031356811523,
      "z": 0.851844847202301,
      "time_usec": 95318094116
    },
    {
      "x": 10.075577735900879,
      "y": -0.3164508044719696,
      "z": 0.8273184299468994,
      "time_usec": 95318096372
    },
    {
      "x": 9.904491424560547,
      "y": -0.33918261528015137,
      "z": 0.8602197170257568,
      "time_usec": 95318098630
    },
    {
      "x": 9.980463027954102,
      "y": -0.30149564146995544,
      "z": 0.898504912853241,
      "time_usec": 95318100892
    },
    {
      "x": 10.013364791870117,
      "y": -0.24885354936122894,
      "z": 0.9367900490760803,
      "time_usec": 95318103147
    },
    {
      "x": 9.93260669708252,
      "y": -0.25304099917411804,
      "z": 0.9176474809646606,
      "time_usec": 95318105408
    },
    {
      "x": 9.937392234802246,
      "y": -0.22911277413368225,
      "z": 0.9367900490760803,
      "time_usec": 95318107656
    },
    {
      "x": 9.985248565673828,
      "y": -0.19561325013637543,
      "z": 0.9511470198631287,
      "time_usec": 95318109910
    },
    {
      "x": 9.985248565673828,
      "y": -0.17647066712379456,
      "z": 0.9224331378936768,
      "time_usec": 95318112179
    },
    {
      "x": 9.957133293151855,
      "y": -0.16689938306808472,
      "z": 0.9176474809646606,
      "time_usec": 95318114435
    },
    {
      "x": 9.995418548583984,
      "y": -0.12921242415905,
      "z": 0.8937192559242249,
      "time_usec": 95318116692
    },
    {
      "x": 9.976275444030762,
      "y": -0.12382857501506805,
      "z": 0.8889335989952087,
      "time_usec": 95318118952
    },
    {
      "x": 9.962516784667969,
      "y": -0.09990034252405167,
      "z": 0.8602197170257568,
      "time_usec": 95318121209
    },
    {
      "x": 9.957731246948242,
      "y": -0.09032905846834183,
      "z": 0.8219345808029175,
      "time_usec": 95318123468
    },
    {
      "x": 9.915258407592773,
      "y": -0.08554340898990631,
      "z": 0.8410771489143372,
      "time_usec": 95318125723
    },
    {
      "x": 9.89133071899414,
      "y": -0.07597211748361588,
      "z": 0.8027920126914978,
      "time_usec": 95318127976
    },
    {
      "x": 9.906285285949707,
      "y": -0.052043892443180084,
      "z": 0.778863787651062,
      "time_usec": 95318130239
    },
    {
      "x": 9.868000984191895,
      "y": -0.06640082597732544,
      "z": 0.7405785918235779,
      "time_usec": 95318132496
    },
    {
      "x": 9.844670295715332,
      "y": -0.03290131315588951,
      "z": 0.6879364848136902,
      "time_usec": 95318134754
    },
    {
      "x": 9.821340560913086,
      "y": -0.02751746028661728,
      "z": 0.6592226624488831,
      "time_usec": 95318137005
    },
    {
      "x": 9.830911636352539,
      "y": -0.008973085321485996,
      "z": 0.625723123550415,
      "time_usec": 95318139269
    },
    {
      "x": 9.802796363830566,
      "y": -0.004187439568340778,
      "z": 0.5635097622871399,
      "time_usec": 95318141527
    },
    {
      "x": 9.798608779907227,
      "y": 0.005383851006627083,
      "z": 0.5204389095306396,
      "time_usec": 95318143785
    },
    {
      "x": 9.76989459991455,
      "y": 0.020338991656899452,
      "z": 0.49651068449020386,
      "time_usec": 95318146039
    },
    {
      "x": 9.732208251953125,
      "y": 0.010767702013254166,
      "z": 0.46719861030578613,
      "time_usec": 95318148288
    },
    {
      "x": 9.6795654296875,
      "y": -0.003589233849197626,
      "z": 0.47676992416381836,
      "time_usec": 95318150556
    },
    {
      "x": 9.603593826293945,
      "y": -0.0077766734175384045,
      "z": 0.5096712112426758,
      "time_usec": 95318152813
    },
    {
      "x": 9.494122505187988,
      "y": -0.02632104977965355,
      "z": 0.5808576941490173,
      "time_usec": 95318155072
    },
    {
      "x": 9.412766456604004,
      "y": -0.049651071429252625,
      "z": 0.6664010882377625,
      "time_usec": 95318157323
    },
    {
      "x": 9.326624870300293,
      "y": -0.08733802288770676,
      "z": 0.7471588850021362,
      "time_usec": 95318159587
    },
    {
      "x": 9.264410972595215,
      "y": -0.10588239878416061,
      "z": 0.8327022790908813,
      "time_usec": 95318161843
    },
    {
      "x": 9.245268821716309,
      "y": -0.12023933976888657,
      "z": 0.8757730722427368,
      "time_usec": 95318164101
    },
    {
      "x": 9.239884376525879,
      "y": -0.16809579730033875,
      "z": 0.9134600162506104,
      "time_usec": 95318166351
    },
    {
      "x": 9.268000602722168,
      "y": -0.20159530639648438,
      "z": 0.9475577473640442,
      "time_usec": 95318168610
    },
    {
      "x": 9.286544799804688,
      "y": -0.22073788940906525,
      "z": 0.9954141974449158,
      "time_usec": 95318170871
    },
    {
      "x": 9.352945327758789,
      "y": -0.27397820353507996,
      "z": 1.0097711086273193,
      "time_usec": 95318173127
    },
    {
      "x": 9.438488960266113,
      "y": -0.3080759048461914,
      "z": 0.9720842242240906,
      "time_usec": 95318175388
    },
    {
      "x": 9.524032592773438,
      "y": -0.3320041298866272,
      "z": 0.9439685344696045,
      "time_usec": 95318177638
    },
    {
      "x": 9.608977317810059,
      "y": -0.3852444589138031,
      "z": 0.9254241585731506,
      "time_usec": 95318179892
    },
    {
      "x": 9.68494987487793,
      "y": -0.4336991012096405,
      "z": 0.8925228714942932,
      "time_usec": 95318182157
    },
    {
      "x": 9.746564865112305,
      "y": -0.4773681163787842,
      "z": 0.8638089895248413,
      "time_usec": 95318184405
    },
    {
      "x": 9.80817985534668,
      "y": -0.5108676552772522,
      "z": 0.8979067206382751,
      "time_usec": 95318186673
    },
    {
      "x": 9.80817985534668,
      "y": -0.5210371017456055,
      "z": 0.893121063709259,
      "time_usec": 95318188933
    },
    {
      "x": 9.817152976989746,
      "y": -0.5497509837150574,
      "z": 0.9314061999320984,
      "time_usec": 95318191192
    },
    {
      "x": 9.807581901550293,
      "y": -0.5300102233886719,
      "z": 0.9355936646461487,
      "time_usec": 95318193444
    },
    {
      "x": 9.817152976989746,
      "y": -0.5060819983482361,
      "z": 0.9834501147270203,
      "time_usec": 95318195702
    },
    {
      "x": 9.821938514709473,
      "y": -0.49172505736351013,
      "z": 1.0121639966964722,
      "time_usec": 95318197946
    },
    {
      "x": 9.864411354064941,
      "y": -0.4731806814670563,
      "z": 1.0319048166275024,
      "time_usec": 95318200208
    },
    {
      "x": 9.879366874694824,
      "y": -0.4492524564266205,
      "z": 1.0079765319824219,
      "time_usec": 95318202477
    },
    {
      "x": 9.860223770141602,
      "y": -0.4301098585128784,
      "z": 0.9840483069419861,
      "time_usec": 95318204737
    },
    {
      "x": 9.865009307861328,
      "y": -0.41575294733047485,
      "z": 0.9649057388305664,
      "time_usec": 95318206990
    },
    {
      "x": 9.851250648498535,
      "y": -0.4013960063457489,
      "z": 0.9314061999320984,
      "time_usec": 95318209248
    },
    {
      "x": 9.846465110778809,
      "y": -0.36729827523231506,
      "z": 0.9314061999320984,
      "time_usec": 95318211499
    },
    {
      "x": 9.837491989135742,
      "y": -0.33858439326286316,
      "z": 0.9026923179626465,
      "time_usec": 95318213767
    },
    {
      "x": 9.80937671661377,
      "y": -0.30987054109573364,
      "z": 0.8979067206382751,
      "time_usec": 95318216020
    },
    {
      "x": 9.804591178894043,
      "y": -0.2763710021972656,
      "z": 0.9026923179626465,
      "time_usec": 95318218276
    },
    {
      "x": 9.795019149780273,
      "y": -0.23808585107326508,
      "z": 0.893121063709259,
      "time_usec": 95318220538
    },
    {
      "x": 9.757332801818848,
      "y": -0.2476571500301361,
      "z": 0.8685946464538574,
      "time_usec": 95318222794
    },
    {
      "x": 9.729216575622559,
      "y": -0.22851456701755524,
      "z": 0.8207381963729858,
      "time_usec": 95318225052
    },
    {
      "x": 9.729815483093262,
      "y": -0.20937198400497437,
      "z": 0.7728816866874695,
      "time_usec": 95318227303
    },
    {
      "x": 9.663414001464844,
      "y": -0.18484555184841156,
      "z": 0.7489534616470337,
      "time_usec": 95318229561
    },
    {
      "x": 9.701101303100586,
      "y": -0.17527425289154053,
      "z": 0.7537391185760498,
      "time_usec": 95318231825
    },
    {
      "x": 9.710672378540039,
      "y": -0.15613168478012085,
      "z": 0.7585247755050659,
      "time_usec": 95318234081
    },
    {
      "x": 9.663414001464844,
      "y": -0.16091732680797577,
      "z": 0.7585247755050659,
      "time_usec": 95318236332
    },
    {
      "x": 9.65384292602539,
      "y": -0.15613168478012085,
      "z": 0.729810893535614,
      "time_usec": 95318238583
    },
    {
      "x": 9.611370086669922,
      "y": -0.1657029688358307,
      "z": 0.7106683254241943,
      "time_usec": 95318240855
    },
    {
      "x": 9.56889820098877,
      "y": -0.16510476171970367,
      "z": 0.6957131624221802,
      "time_usec": 95318243118
    },
    {
      "x": 9.54496955871582,
      "y": -0.16031911969184875,
      "z": 0.7004988193511963,
      "time_usec": 95318245370
    },
    {
      "x": 9.535398483276367,
      "y": -0.16510476171970367,
      "z": 0.7004988193511963,
      "time_usec": 95318247618
    },
    {
      "x": 9.516255378723145,
      "y": -0.19381862878799438,
      "z": 0.6909275650978088,
      "time_usec": 95318249882
    },
    {
      "x": 9.492327690124512,
      "y": -0.18424734473228455,
      "z": 0.714257538318634,
      "time_usec": 95318252137
    },
    {
      "x": 9.492327690124512,
      "y": -0.18424734473228455,
      "z": 0.7381857633590698,
      "time_usec": 95318254399
    },
    {
      "x": 9.487542152404785,
      "y": -0.19322042167186737,
      "z": 0.7525427341461182,
      "time_usec": 95318256650
    },
    {
      "x": 9.506684303283691,
      "y": -0.21296121180057526,
      "z": 0.7573283910751343,
      "time_usec": 95318258914
    },
    {
      "x": 9.530014038085938,
      "y": -0.24167509377002716,
      "z": 0.7627122402191162,
      "time_usec": 95318261168
    },
    {
      "x": 9.510871887207031,
      "y": -0.24167509377002716,
      "z": 0.7621139883995056,
      "time_usec": 95318263414
    },
    {
      "x": 9.525228500366211,
      "y": -0.26081767678260803,
      "z": 0.753140926361084,
      "time_usec": 95318265670
    },
    {
      "x": 9.510871887207031,
      "y": -0.29431718587875366,
      "z": 0.7668996453285217,
      "time_usec": 95318267932
    },
    {
      "x": 9.506086349487305,
      "y": -0.31345975399017334,
      "z": 0.747757077217102,
      "time_usec": 95318270204
    },
    {
      "x": 9.496515274047852,
      "y": -0.32303106784820557,
      "z": 0.747757077217102,
      "time_usec": 95318272462
    },
    {
      "x": 9.491130828857422,
      "y": -0.3565305769443512,
      "z": 0.7812566161155701,
      "time_usec": 95318274717
    },
    {
      "x": 9.500701904296875,
      "y": -0.36610186100006104,
      "z": 0.776470959186554,
      "time_usec": 95318276968
    },
    {
      "x": 9.515059471130371,
      "y": -0.3517449200153351,
      "z": 0.7483552694320679,
      "time_usec": 95318279230
    },
    {
      "x": 9.538987159729004,
      "y": -0.3565305769443512,
      "z": 0.7770691514015198,
      "time_usec": 95318281487
    },
    {
      "x": 9.538987159729004,
      "y": -0.3756731450557709,
      "z": 0.7770691514015198,
      "time_usec": 95318283745
    },
    {
      "x": 9.562317848205566,
      "y": -0.3756731450557709,
      "z": 0.7770691514015198,
      "time_usec": 95318286002
    },
    {
      "x": 9.591031074523926,
      "y": -0.4001995921134949,
      "z": 0.7627122402191162,
      "time_usec": 95318288255
    },
    {
      "x": 9.614959716796875,
      "y": -0.4001995921134949,
      "z": 0.7627122402191162,
      "time_usec": 95318290518
    },
    {
      "x": 9.595816612243652,
      "y": -0.4097708761692047,
      "z": 0.7770691514015198,
      "time_usec": 95318292776
    },
    {
      "x": 9.604789733886719,
      "y": -0.4384847581386566,
      "z": 0.7914260625839233,
      "time_usec": 95318295032
    },
    {
      "x": 9.604789733886719,
      "y": -0.45284169912338257,
      "z": 0.8153542876243591,
      "time_usec": 95318297284
    },
    {
      "x": 9.613762855529785,
      "y": -0.4576273262500763,
      "z": 0.8344969153404236,
      "time_usec": 95318299543
    },
    {
      "x": 9.613762855529785,
      "y": -0.44805604219436646,
      "z": 0.8823533654212952,
      "time_usec": 95318301805
    },
    {
      "x": 9.604191780090332,
      "y": -0.4576273262500763,
      "z": 0.8871390223503113,
      "time_usec": 95318304063
    },
    {
      "x": 9.628120422363281,
      "y": -0.46719861030578613,
      "z": 0.906281590461731,
      "time_usec": 95318306315
    },
    {
      "x": 9.665806770324707,
      "y": -0.4624129831790924,
      "z": 0.9014959335327148,
      "time_usec": 95318308569
    },
    {
      "x": 9.665806770324707,
      "y": -0.46719861030578613,
      "z": 0.906281590461731,
      "time_usec": 95318310821
    },
    {
      "x": 9.694520950317383,
      "y": -0.46719861030578613,
      "z": 0.8877372145652771,
      "time_usec": 95318313093
    },
    {
      "x": 9.728020668029785,
      "y": -0.486939400434494,
      "z": 0.8590233325958252,
      "time_usec": 95318315349
    },
    {
      "x": 9.728020668029785,
      "y": -0.47258245944976807,
      "z": 0.8446664214134216,
      "time_usec": 95318317605
    },
    {
      "x": 9.751948356628418,
      "y": -0.47258245944976807,
      "z": 0.8303094506263733,
      "time_usec": 95318319864
    },
    {
      "x": 9.756733894348145,
      "y": -0.4582255482673645,
      "z": 0.8446664214134216,
      "time_usec": 95318322119
    },
    {
      "x": 9.765707015991211,
      "y": -0.44386860728263855,
      "z": 0.849452018737793,
      "time_usec": 95318324379
    },
    {
      "x": 9.81356430053711,
      "y": -0.4295116662979126,
      "z": 0.859621524810791,
      "time_usec": 95318326632
    },
    {
      "x": 9.799206733703613,
      "y": -0.4103690981864929,
      "z": 0.8739784955978394,
      "time_usec": 95318328894
    },
    {
      "x": 9.799206733703613,
      "y": -0.4103690981864929,
      "z": 0.8739784955978394,
      "time_usec": 95318331145
    },
    {
      "x": 9.808777809143066,
      "y": -0.41515472531318665,
      "z": 0.8787640929222107,
      "time_usec": 95318333402
    },
    {
      "x": 9.818349838256836,
      "y": -0.4007977843284607,
      "z": 0.8835497498512268,
      "time_usec": 95318335665
    },
    {
      "x": 9.827920913696289,
      "y": -0.3774677813053131,
      "z": 0.8644071817398071,
      "time_usec": 95318337920
    },
    {
      "x": 9.7998046875,
      "y": -0.3242274820804596,
      "z": 0.8835497498512268,
      "time_usec": 95318340184
    },
    {
      "x": 9.828518867492676,
      "y": -0.30568310618400574,
      "z": 0.8165507316589355,
      "time_usec": 95318342436
    },
    {
      "x": 9.847661972045898,
      "y": -0.2961117923259735,
      "z": 0.7974081635475159,
      "time_usec": 95318344696
    },
    {
      "x": 9.862018585205078,
      "y": -0.2721835672855377,
      "z": 0.7878368496894836,
      "time_usec": 95318346945
    },
    {
      "x": 9.838688850402832,
      "y": -0.22911277413368225,
      "z": 0.768694281578064,
      "time_usec": 95318349201
    },
    {
      "x": 9.838688850402832,
      "y": -0.20997019112110138,
      "z": 0.7734799385070801,
      "time_usec": 95318351470
    },
    {
      "x": 9.853045463562012,
      "y": -0.22911277413368225,
      "z": 0.7926225066184998,
      "time_usec": 95318353727
    },
    {
      "x": 9.833903312683105,
      "y": -0.20518454909324646,
      "z": 0.7830511927604675,
      "time_usec": 95318355985
    },
    {
      "x": 9.81954574584961,
      "y": -0.19980068504810333,
      "z": 0.802193820476532,
      "time_usec": 95318358237
    },
    {
      "x": 9.814760208129883,
      "y": -0.1950150430202484,
      "z": 0.8165507316589355,
      "time_usec": 95318360498
    },
    {
      "x": 9.81954574584961,
      "y": -0.23330020904541016,
      "z": 0.8165507316589355,
      "time_usec": 95318362756
    },
    {
      "x": 9.81954574584961,
      "y": -0.21415762603282928,
      "z": 0.8213363885879517,
      "time_usec": 95318365014
    },
    {
      "x": 9.800403594970703,
      "y": -0.22372891008853912,
      "z": 0.802193820476532,
      "time_usec": 95318367265
    },
    {
      "x": 9.800403594970703,
      "y": -0.21415762603282928,
      "z": 0.8069794178009033,
      "time_usec": 95318369521
    },
    {
      "x": 9.795618057250977,
      "y": -0.19980068504810333,
      "z": 0.8069794178009033,
      "time_usec": 95318371772
    },
    {
      "x": 9.79083251953125,
      "y": -0.21415762603282928,
      "z": 0.7974081635475159,
      "time_usec": 95318374044
    },
    {
      "x": 9.781859397888184,
      "y": -0.20458634197711945,
      "z": 0.7878368496894836,
      "time_usec": 95318376297
    },
    {
      "x": 9.781859397888184,
      "y": -0.19980068504810333,
      "z": 0.768694281578064,
      "time_usec": 95318378556
    },
    {
      "x": 9.78664493560791,
      "y": -0.1950150430202484,
      "z": 0.7782655358314514,
      "time_usec": 95318380816
    },
    {
      "x": 9.772287368774414,
      "y": -0.21415762603282928,
      "z": 0.7591229677200317,
      "time_usec": 95318383071
    },
    {
      "x": 9.757930755615234,
      "y": -0.20458634197711945,
      "z": 0.7399803996086121,
      "time_usec": 95318385317
    },
    {
      "x": 9.748957633972168,
      "y": -0.20937198400497437,
      "z": 0.735194742679596,
      "time_usec": 95318387581
    },
    {
      "x": 9.748957633972168,
      "y": -0.2189432680606842,
      "z": 0.7160521745681763,
      "time_usec": 95318389840
    },
    {
      "x": 9.767501831054688,
      "y": -0.21415762603282928,
      "z": 0.7160521745681763,
      "time_usec": 95318392107
    },
    {
      "x": 9.758528709411621,
      "y": -0.2189432680606842,
      "z": 0.706480860710144,
      "time_usec": 95318394361
    },
    {
      "x": 9.758528709411621,
      "y": -0.2189432680606842,
      "z": 0.706480860710144,
      "time_usec": 95318396613
    },
    {
      "x": 9.767501831054688,
      "y": -0.22372891008853912,
      "z": 0.7016952633857727,
      "time_usec": 95318398873
    },
    {
      "x": 9.767501831054688,
      "y": -0.20458634197711945,
      "z": 0.7208378314971924,
      "time_usec": 95318401127
    },
    {
      "x": 9.762716293334961,
      "y": -0.20937198400497437,
      "z": 0.7256234884262085,
      "time_usec": 95318403391
    },
    {
      "x": 9.762716293334961,
      "y": -0.21415762603282928,
      "z": 0.7304090857505798,
      "time_usec": 95318405646
    },
    {
      "x": 9.743574142456055,
      "y": -0.20937198400497437,
      "z": 0.7591229677200317,
      "time_usec": 95318407901
    },
    {
      "x": 9.719645500183105,
      "y": -0.20877377688884735,
      "z": 0.8015955686569214,
      "time_usec": 95318410161
    },
    {
      "x": 9.729216575622559,
      "y": -0.20877377688884735,
      "z": 0.8111668825149536,
      "time_usec": 95318412414
    },
    {
      "x": 9.738788604736328,
      "y": -0.2476571500301361,
      "z": 0.8303094506263733,
      "time_usec": 95318414677
    },
    {
      "x": 9.747760772705078,
      "y": -0.22851456701755524,
      "z": 0.849452018737793,
      "time_usec": 95318416929
    },
    {
      "x": 9.7669038772583,
      "y": -0.23808585107326508,
      "z": 0.8446664214134216,
      "time_usec": 95318419192
    },
    {
      "x": 9.752547264099121,
      "y": -0.25722843408584595,
      "z": 0.8446664214134216,
      "time_usec": 95318421441
    },
    {
      "x": 9.786046028137207,
      "y": -0.26201409101486206,
      "z": 0.8404789566993713,
      "time_usec": 95318423701
    },
    {
      "x": 9.7998046875,
      "y": -0.2715853750705719,
      "z": 0.8500502705574036,
      "time_usec": 95318425963
    },
    {
      "x": 9.786046028137207,
      "y": -0.2667997181415558,
      "z": 0.8404789566993713,
      "time_usec": 95318428218
    },
    {
      "x": 9.804591178894043,
      "y": -0.2667997181415558,
      "z": 0.8787640929222107,
      "time_usec": 95318430482
    },
    {
      "x": 9.818947792053223,
      "y": -0.2715853750705719,
      "z": 0.8835497498512268,
      "time_usec": 95318432737
    },
    {
      "x": 9.828518867492676,
      "y": -0.26201409101486206,
      "z": 0.8835497498512268,
      "time_usec": 95318434995
    },
    {
      "x": 9.814162254333496,
      "y": -0.2476571500301361,
      "z": 0.8691928386688232,
      "time_usec": 95318437247
    },
    {
      "x": 9.842875480651855,
      "y": -0.25304099917411804,
      "z": 0.8452646136283875,
      "time_usec": 95318439505
    },
    {
      "x": 9.866804122924805,
      "y": -0.2626122832298279,
      "z": 0.8404789566993713,
      "time_usec": 95318441766
    },
    {
      "x": 9.847661972045898,
      "y": -0.243469700217247,
      "z": 0.8165507316589355,
      "time_usec": 95318444026
    },
    {
      "x": 9.848259925842285,
      "y": -0.243469700217247,
      "z": 0.7782655358314514,
      "time_usec": 95318446284
    },
    {
      "x": 9.857233047485352,
      "y": -0.24825534224510193,
      "z": 0.7974081635475159,
      "time_usec": 95318448534
    },
    {
      "x": 9.847661972045898,
      "y": -0.24825534224510193,
      "z": 0.8117650747299194,
      "time_usec": 95318450796
    },
    {
      "x": 9.847661972045898,
      "y": -0.24825534224510193,
      "z": 0.8452646136283875,
      "time_usec": 95318453053
    },
    {
      "x": 9.842875480651855,
      "y": -0.25304099917411804,
      "z": 0.8644071817398071,
      "time_usec": 95318455311
    },
    {
      "x": 9.847661972045898,
      "y": -0.25304099917411804,
      "z": 0.8644071817398071,
      "time_usec": 95318457562
    },
    {
      "x": 9.847661972045898,
      "y": -0.2386840581893921,
      "z": 0.8404789566993713,
      "time_usec": 95318459821
    },
    {
      "x": 9.862018585205078,
      "y": -0.22432711720466614,
      "z": 0.8500502705574036,
      "time_usec": 95318462084
    },
    {
      "x": 9.852447509765625,
      "y": -0.22911277413368225,
      "z": 0.8261220455169678,
      "time_usec": 95318464342
    },
    {
      "x": 9.853045463562012,
      "y": -0.21954147517681122,
      "z": 0.8213363885879517,
      "time_usec": 95318466595
    },
    {
      "x": 9.862616539001465,
      "y": -0.2147558331489563,
      "z": 0.8069794178009033,
      "time_usec": 95318468857
    },
    {
      "x": 9.876974105834961,
      "y": -0.2147558331489563,
      "z": 0.7932206988334656,
      "time_usec": 95318471118
    },
    {
      "x": 9.862616539001465,
      "y": -0.20518454909324646,
      "z": 0.7974081635475159,
      "time_usec": 95318473369
    },
    {
      "x": 9.862616539001465,
      "y": -0.20997019112110138,
      "z": 0.7645068168640137,
      "time_usec": 95318475613
    },
    {
      "x": 9.857831001281738,
      "y": -0.21954147517681122,
      "z": 0.7782655358314514,
      "time_usec": 95318477873
    },
    {
      "x": 9.838688850402832,
      "y": -0.20997019112110138,
      "z": 0.7782655358314514,
      "time_usec": 95318480135
    },
    {
      "x": 9.829116821289062,
      "y": -0.2147558331489563,
      "z": 0.8069794178009033,
      "time_usec": 95318482388
    },
    {
      "x": 9.814760208129883,
      "y": -0.2189432680606842,
      "z": 0.8309076428413391,
      "time_usec": 95318484647
    },
    {
      "x": 9.814760208129883,
      "y": -0.23330020904541016,
      "z": 0.8452646136283875,
      "time_usec": 95318486911
    },
    {
      "x": 9.81954574584961,
      "y": -0.2476571500301361,
      "z": 0.8452646136283875,
      "time_usec": 95318489175
    },
    {
      "x": 9.809974670410156,
      "y": -0.23330020904541016,
      "z": 0.8356932997703552,
      "time_usec": 95318491430
    },
    {
      "x": 9.800403594970703,
      "y": -0.2189432680606842,
      "z": 0.8500502705574036,
      "time_usec": 95318493689
    },
    {
      "x": 9.814760208129883,
      "y": -0.23808585107326508,
      "z": 0.8452646136283875,
      "time_usec": 95318495944
    },
    {
      "x": 9.824331283569336,
      "y": -0.23330020904541016,
      "z": 0.8356932997703552,
      "time_usec": 95318498199
    },
    {
      "x": 9.824331283569336,
      "y": -0.23389841616153717,
      "z": 0.802193820476532,
      "time_usec": 95318500462
    },
    {
      "x": 9.81954574584961,
      "y": -0.25304099917411804,
      "z": 0.7734799385070801,
      "time_usec": 95318502719
    },
    {
      "x": 9.829116821289062,
      "y": -0.243469700217247,
      "z": 0.7399803996086121,
      "time_usec": 95318504975
    },
    {
      "x": 9.833903312683105,
      "y": -0.22911277413368225,
      "z": 0.7495517134666443,
      "time_usec": 95318507226
    },
    {
      "x": 9.829116821289062,
      "y": -0.23389841616153717,
      "z": 0.735194742679596,
      "time_usec": 95318509484
    },
    {
      "x": 9.810572624206543,
      "y": -0.20458634197711945,
      "z": 0.768694281578064,
      "time_usec": 95318511735
    },
    {
      "x": 9.829116821289062,
      "y": -0.20997019112110138,
      "z": 0.7734799385070801,
      "time_usec": 95318514006
    },
    {
      "x": 9.81954574584961,
      "y": -0.19980068504810333,
      "z": 0.7926225066184998,
      "time_usec": 95318516262
    },
    {
      "x": 9.843474388122559,
      "y": -0.2147558331489563,
      "z": 0.8117650747299194,
      "time_usec": 95318518518
    },
    {
      "x": 9.848259925842285,
      "y": -0.22432711720466614,
      "z": 0.7926225066184998,
      "time_usec": 95318520778
    },
    {
      "x": 9.867402076721191,
      "y": -0.22911277413368225,
      "z": 0.7692924737930298,
      "time_usec": 95318523034
    },
    {
      "x": 9.910472869873047,
      "y": -0.23449662327766418,
      "z": 0.7214360237121582,
      "time_usec": 95318525292
    },
    {
      "x": 9.900901794433594,
      "y": -0.2392822653055191,
      "z": 0.6783652305603027,
      "time_usec": 95318527540
    },
    {
      "x": 9.90568733215332,
      "y": -0.2632105052471161,
      "z": 0.6544370055198669,
      "time_usec": 95318529794
    },
    {
      "x": 9.915258407592773,
      "y": -0.2871387302875519,
      "z": 0.6358926296234131,
      "time_usec": 95318532064
    },
    {
      "x": 9.905089378356934,
      "y": -0.31106695532798767,
      "z": 0.6592226624488831,
      "time_usec": 95318534322
    },
    {
      "x": 9.90987491607666,
      "y": -0.3158525824546814,
      "z": 0.6592226624488831,
      "time_usec": 95318536577
    },
    {
      "x": 9.89551830291748,
      "y": -0.33020952343940735,
      "z": 0.6783652305603027,
      "time_usec": 95318538838
    },
    {
      "x": 9.881160736083984,
      "y": -0.35413774847984314,
      "z": 0.6975077986717224,
      "time_usec": 95318541094
    },
    {
      "x": 9.885947227478027,
      "y": -0.35892340540885925,
      "z": 0.7262216806411743,
      "time_usec": 95318543353
    },
    {
      "x": 9.875777244567871,
      "y": -0.3774677813053131,
      "z": 0.7884350419044495,
      "time_usec": 95318545607
    },
    {
      "x": 9.880562782287598,
      "y": -0.39182472229003906,
      "z": 0.8267202377319336,
      "time_usec": 95318547860
    },
    {
      "x": 9.847063064575195,
      "y": -0.38225340843200684,
      "z": 0.8356932997703552,
      "time_usec": 95318550116
    },
    {
      "x": 9.847063064575195,
      "y": -0.41575294733047485,
      "z": 0.8261220455169678,
      "time_usec": 95318552365
    },
    {
      "x": 9.847063064575195,
      "y": -0.43968117237091064,
      "z": 0.7830511927604675,
      "time_usec": 95318554627
    },
    {
      "x": 9.823135375976562,
      "y": -0.4492524564266205,
      "z": 0.7734799385070801,
      "time_usec": 95318556890
    },
    {
      "x": 9.833304405212402,
      "y": -0.4301098585128784,
      "z": 0.7304090857505798,
      "time_usec": 95318559144
    },
    {
      "x": 9.838089942932129,
      "y": -0.4492524564266205,
      "z": 0.711864709854126,
      "time_usec": 95318561415
    },
    {
      "x": 9.833304405212402,
      "y": -0.4492524564266205,
      "z": 0.7256234884262085,
      "time_usec": 95318563666
    },
    {
      "x": 9.847063064575195,
      "y": -0.4588237404823303,
      "z": 0.745364248752594,
      "time_usec": 95318565915
    },
    {
      "x": 9.832706451416016,
      "y": -0.43968117237091064,
      "z": 0.768694281578064,
      "time_usec": 95318568177
    },
    {
      "x": 9.804591178894043,
      "y": -0.43489551544189453,
      "z": 0.8117650747299194,
      "time_usec": 95318570438
    },
    {
      "x": 9.804591178894043,
      "y": -0.41575294733047485,
      "z": 0.8165507316589355,
      "time_usec": 95318572702
    },
    {
      "x": 9.790233612060547,
      "y": -0.43968117237091064,
      "z": 0.8213363885879517,
      "time_usec": 95318574957
    },
    {
      "x": 9.790233612060547,
      "y": -0.4253242313861847,
      "z": 0.8117650747299194,
      "time_usec": 95318577208
    },
    {
      "x": 9.78544807434082,
      "y": -0.4486542344093323,
      "z": 0.7926225066184998,
      "time_usec": 95318579464
    },
    {
      "x": 9.790233612060547,
      "y": -0.4492524564266205,
      "z": 0.7830511927604675,
      "time_usec": 95318581715
    },
    {
      "x": 9.775876998901367,
      "y": -0.4582255482673645,
      "z": 0.768694281578064,
      "time_usec": 95318583983
    },
    {
      "x": 9.780662536621094,
      "y": -0.46360939741134644,
      "z": 0.7399803996086121,
      "time_usec": 95318586243
    },
    {
      "x": 9.77109146118164,
      "y": -0.4534398913383484,
      "z": 0.7543373107910156,
      "time_usec": 95318588498
    },
    {
      "x": 9.77109146118164,
      "y": -0.4540380835533142,
      "z": 0.7256234884262085,
      "time_usec": 95318590759
    },
    {
      "x": 9.78544807434082,
      "y": -0.4492524564266205,
      "z": 0.7208378314971924,
      "time_usec": 95318593016
    },
    {
      "x": 9.77109146118164,
      "y": -0.4588237404823303,
      "z": 0.7447660565376282,
      "time_usec": 95318595271
    },
    {
      "x": 9.78544807434082,
      "y": -0.43908295035362244,
      "z": 0.7974081635475159,
      "time_usec": 95318597518
    },
    {
      "x": 9.741779327392578,
      "y": -0.41515472531318665,
      "z": 0.9260223507881165,
      "time_usec": 95318599787
    },
    {
      "x": 9.704092025756836,
      "y": -0.4049852192401886,
      "z": 0.9308080077171326,
      "time_usec": 95318602045
    },
    {
      "x": 9.699904441833496,
      "y": -0.3475574851036072,
      "z": 0.882951557636261,
      "time_usec": 95318604304
    },
    {
      "x": 9.699904441833496,
      "y": -0.3236292600631714,
      "z": 0.9068797826766968,
      "time_usec": 95318606555
    },
    {
      "x": 9.704092025756836,
      "y": -0.3284149169921875,
      "z": 0.9828519225120544,
      "time_usec": 95318608819
    },
    {
      "x": 9.66102123260498,
      "y": -0.357128769159317,
      "z": 0.9828519225120544,
      "time_usec": 95318611079
    },
    {
      "x": 9.608977317810059,
      "y": -0.39481574296951294,
      "z": 0.9158528447151184,
      "time_usec": 95318613321
    },
    {
      "x": 9.580862045288086,
      "y": -0.47676992416381836,
      "z": 0.786640465259552,
      "time_usec": 95318615588
    },
    {
      "x": 9.595816612243652,
      "y": -0.5539384484291077,
      "z": 0.576670229434967,
      "time_usec": 95318617837
    },
    {
      "x": 9.610772132873535,
      "y": -0.6209374666213989,
      "z": 0.3523431420326233,
      "time_usec": 95318620095
    },
    {
      "x": 9.620942115783691,
      "y": -0.6693921089172363,
      "z": 0.1704886108636856,
      "time_usec": 95318622363
    },
    {
      "x": 9.635298728942871,
      "y": -0.7034898400306702,
      "z": 0.08973085135221481,
      "time_usec": 95318624619
    },
    {
      "x": 9.64965534210205,
      "y": -0.698704183101654,
      "z": 0.10408778488636017,
      "time_usec": 95318626874
    },
    {
      "x": 9.683155059814453,
      "y": -0.6699903607368469,
      "z": 0.14715859293937683,
      "time_usec": 95318629130
    },
    {
      "x": 9.725627899169922,
      "y": -0.5886343717575073,
      "z": 0.19980068504810333,
      "time_usec": 95318631392
    },
    {
      "x": 9.749555587768555,
      "y": -0.5120640397071838,
      "z": 0.2763710021972656,
      "time_usec": 95318633651
    },
    {
      "x": 9.759127616882324,
      "y": -0.4833501875400543,
      "z": 0.3242274820804596,
      "time_usec": 95318635907
    },
    {
      "x": 9.730413436889648,
      "y": -0.4588237404823303,
      "z": 0.3577269911766052,
      "time_usec": 95318638160
    },
    {
      "x": 9.68794059753418,
      "y": -0.44446679949760437,
      "z": 0.3242274820804596,
      "time_usec": 95318640426
    },
    {
      "x": 9.673583984375,
      "y": -0.4588237404823303,
      "z": 0.31405797600746155,
      "time_usec": 95318642679
    },
    {
      "x": 9.663414001464844,
      "y": -0.5018945336341858,
      "z": 0.39541393518447876,
      "time_usec": 95318644937
    },
    {
      "x": 9.629316329956055,
      "y": -0.5204389095306396,
      "z": 0.5096712112426758,
      "time_usec": 95318647187
    },
    {
      "x": 9.629316329956055,
      "y": -0.5539384484291077,
      "z": 0.5862415432929993,
      "time_usec": 95318649442
    },
    {
      "x": 9.652647018432617,
      "y": -0.6065805554389954,
      "z": 0.6245267391204834,
      "time_usec": 95318651709
    },
    {
      "x": 9.699904441833496,
      "y": -0.6167500615119934,
      "z": 0.6251249313354492,
      "time_usec": 95318653968
    },
    {
      "x": 9.723235130310059,
      "y": -0.6454638838768005,
      "z": 0.649053156375885,
      "time_usec": 95318656225
    },
    {
      "x": 9.737591743469238,
      "y": -0.6502495408058167,
      "z": 0.6921239495277405,
      "time_usec": 95318658476
    },
    {
      "x": 9.751350402832031,
      "y": -0.6550351977348328,
      "z": 0.7495517134666443,
      "time_usec": 95318660738
    },
    {
      "x": 9.751350402832031,
      "y": -0.6215356588363647,
      "z": 0.7824530005455017,
      "time_usec": 95318662995
    },
    {
      "x": 9.756135940551758,
      "y": -0.6167500615119934,
      "z": 0.8063812255859375,
      "time_usec": 95318665249
    },
    {
      "x": 9.722636222839355,
      "y": -0.5874379873275757,
      "z": 0.8159525394439697,
      "time_usec": 95318667506
    },
    {
      "x": 9.718449592590332,
      "y": -0.5587241053581238,
      "z": 0.8111668825149536,
      "time_usec": 95318669768
    },
    {
      "x": 9.680164337158203,
      "y": -0.5635097622871399,
      "z": 0.8015955686569214,
      "time_usec": 95318672027
    },
    {
      "x": 9.642477035522461,
      "y": -0.5581258535385132,
      "z": 0.7872386574745178,
      "time_usec": 95318674284
    },
    {
      "x": 9.642477035522461,
      "y": -0.5635097622871399,
      "z": 0.7680960893630981,
      "time_usec": 95318676535
    },
    {
      "x": 9.661619186401367,
      "y": -0.5300102233886719,
      "z": 0.7537391185760498,
      "time_usec": 95318678798
    },
    {
      "x": 9.643074989318848,
      "y": -0.5300102233886719,
      "z": 0.7154539823532104,
      "time_usec": 95318681056
    },
    {
      "x": 9.657432556152344,
      "y": -0.5300102233886719,
      "z": 0.6293123364448547,
      "time_usec": 95318683315
    },
    {
      "x": 9.724431037902832,
      "y": -0.5066801905632019,
      "z": 0.5868397355079651,
      "time_usec": 95318685569
    },
    {
      "x": 9.7669038772583,
      "y": -0.49710890650749207,
      "z": 0.5916253924369812,
      "time_usec": 95318687823
    },
    {
      "x": 9.78126049041748,
      "y": -0.5066801905632019,
      "z": 0.6251249313354492,
      "time_usec": 95318690085
    },
    {
      "x": 9.771689414978027,
      "y": -0.5210371017456055,
      "z": 0.6203392744064331,
      "time_usec": 95318692343
    },
    {
      "x": 9.762118339538574,
      "y": -0.5545366406440735,
      "z": 0.5868397355079651,
      "time_usec": 95318694600
    },
    {
      "x": 9.742975234985352,
      "y": -0.5784648656845093,
      "z": 0.582054078578949,
      "time_usec": 95318696853
    },
    {
      "x": 9.695717811584473,
      "y": -0.6071787476539612,
      "z": 0.5389832854270935,
      "time_usec": 95318699116
    },
    {
      "x": 9.67657470703125,
      "y": -0.597607433795929,
      "z": 0.5389832854270935,
      "time_usec": 95318701374
    },
    {
      "x": 9.657432556152344,
      "y": -0.592223584651947,
      "z": 0.5575276613235474,
      "time_usec": 95318703631
    },
    {
      "x": 9.65803050994873,
      "y": -0.5587241053581238,
      "z": 0.5527420043945312,
      "time_usec": 95318705886
    },
    {
      "x": 9.66221809387207,
      "y": -0.5395814776420593,
      "z": 0.5910272002220154,
      "time_usec": 95318708140
    },
    {
      "x": 9.66221809387207,
      "y": -0.5300102233886719,
      "z": 0.5958128571510315,
      "time_usec": 95318710400
    },
    {
      "x": 9.638289451599121,
      "y": -0.5539384484291077,
      "z": 0.605384111404419,
      "time_usec": 95318712658
    },
    {
      "x": 9.643074989318848,
      "y": -0.5635097622871399,
      "z": 0.6197410821914673,
      "time_usec": 95318714917
    },
    {
      "x": 9.628718376159668,
      "y": -0.5539384484291077,
      "z": 0.6293123364448547,
      "time_usec": 95318717170
    },
    {
      "x": 9.647860527038574,
      "y": -0.5252245664596558,
      "z": 0.638883650302887,
      "time_usec": 95318719433
    },
    {
      "x": 9.762118339538574,
      "y": -0.4492524564266205,
      "z": 0.6538388133049011,
      "time_usec": 95318721690
    },
    {
      "x": 9.762118339538574,
      "y": -0.511465847492218,
      "z": 0.6729813814163208,
      "time_usec": 95318723947
    },
    {
      "x": 9.604191780090332,
      "y": -0.6352944374084473,
      "z": 0.6957131624221802,
      "time_usec": 95318726198
    },
    {
