{
  "accelerations": [
    {
      "x": 9.812965393066406,
      "y": 0.08793623000383377,
      "z": 0.6837490797042847,
      "time_usec": 667832927070
    },
    {
      "x": 9.793225288391113,
      "y": 0.11246266216039658,
      "z": 0.7938188910484314,
      "time_usec": 667832929328
    },
    {
      "x": 9.778867721557617,
      "y": 0.11724831163883209,
      "z": 0.875174880027771,
      "time_usec": 667832931586
    },
    {
      "x": 9.764511108398438,
      "y": 0.13639089465141296,
      "z": 0.9176474809646606,
      "time_usec": 667832933843
    },
    {
      "x": 9.769296646118164,
      "y": 0.16031911969184875,
      "z": 0.9367900490760803,
      "time_usec": 667832936101
    },
    {
      "x": 9.78843879699707,
      "y": 0.18424734473228455,
      "z": 0.8847461938858032,
      "time_usec": 667832938360
    },
    {
      "x": 9.774680137634277,
      "y": 0.2225325107574463,
      "z": 0.8464609980583191,
      "time_usec": 667832940616
    },
    {
      "x": 9.798608779907227,
      "y": 0.23210379481315613,
      "z": 0.7986045479774475,
      "time_usec": 667832942874
    },
    {
      "x": 9.784850120544434,
      "y": 0.24167509377002716,
      "z": 0.7363911867141724,
      "time_usec": 667832945131
    },
    {
      "x": 9.78544807434082,
      "y": 0.23210379481315613,
      "z": 0.664606511592865,
      "time_usec": 667832947390
    },
    {
      "x": 9.790233612060547,
      "y": 0.2267199456691742,
      "z": 0.607776939868927,
      "time_usec": 667832949647
    },
    {
      "x": 9.776474952697754,
      "y": 0.2267199456691742,
      "z": 0.5599204897880554,
      "time_usec": 667832951901
    },
    {
      "x": 9.786046028137207,
      "y": 0.21714866161346436,
      "z": 0.5168496966362,
      "time_usec": 667832954149
    },
    {
      "x": 9.80518913269043,
      "y": 0.22193430364131927,
      "z": 0.46899324655532837,
      "time_usec": 667832956422
    },
    {
      "x": 9.814760208129883,
      "y": 0.19322042167186737,
      "z": 0.4450650215148926,
      "time_usec": 667832958678
    },
    {
      "x": 9.833903312683105,
      "y": 0.2069791555404663,
      "z": 0.43130627274513245,
      "time_usec": 667832960938
    },
    {
      "x": 9.833304405212402,
      "y": 0.1788634955883026,
      "z": 0.46899324655532837,
      "time_usec": 667832963192
    },
    {
      "x": 9.842875480651855,
      "y": 0.1495514214038849,
      "z": 0.4695914387702942,
      "time_usec": 667832965450
    },
    {
      "x": 9.842875480651855,
      "y": 0.16390834748744965,
      "z": 0.4785645306110382,
      "time_usec": 667832967708
    },
    {
      "x": 9.828518867492676,
      "y": 0.13040883839130402,
      "z": 0.4737788736820221,
      "time_usec": 667832969966
    },
    {
      "x": 9.842875480651855,
      "y": 0.10648060590028763,
      "z": 0.4504488706588745,
      "time_usec": 667832972220
    },
    {
      "x": 9.828518867492676,
      "y": 0.10648060590028763,
      "z": 0.43130627274513245,
      "time_usec": 667832974469
    },
    {
      "x": 9.80937671661377,
      "y": 0.10229317098855972,
      "z": 0.44027936458587646,
      "time_usec": 667832976739
    },
    {
      "x": 9.80937671661377,
      "y": 0.09690931439399719,
      "z": 0.41156548261642456,
      "time_usec": 667832978997
    },
    {
      "x": 9.80518913269043,
      "y": 0.11126625537872314,
      "z": 0.4019941985607147,
      "time_usec": 667832981257
    },
    {
      "x": 9.776474952697754,
      "y": 0.0975075215101242,
      "z": 0.35892340540885925,
      "time_usec": 667832983512
    },
    {
      "x": 9.743574142456055,
      "y": 0.07836493849754333,
      "z": 0.3397808074951172,
      "time_usec": 667832985769
    },
    {
      "x": 9.738788604736328,
      "y": 0.08793623000383377,
      "z": 0.3206382393836975,
      "time_usec": 667832988026
    },
    {
      "x": 9.738788604736328,
      "y": 0.08315058797597885,
      "z": 0.3206382393836975,
      "time_usec": 667832990284
    },
    {
      "x": 9.753145217895508,
      "y": 0.07836493849754333,
      "z": 0.30149564146995544,
      "time_usec": 667832992540
    },
    {
      "x": 9.734002113342285,
      "y": 0.0975075215101242,
      "z": 0.30628129839897156,
      "time_usec": 667832994788
    },
    {
      "x": 9.748359680175781,
      "y": 0.09272187948226929,
      "z": 0.30149564146995544,
      "time_usec": 667832997056
    },
    {
      "x": 9.738788604736328,
      "y": 0.12622138857841492,
      "z": 0.30628129839897156,
      "time_usec": 667832999309
    },
    {
      "x": 9.753145217895508,
      "y": 0.10229317098855972,
      "z": 0.31106695532798767,
      "time_usec": 667833001575
    },
    {
      "x": 9.719645500183105,
      "y": 0.10229317098855972,
      "z": 0.31106695532798767,
      "time_usec": 667833003830
    },
    {
      "x": 9.701101303100586,
      "y": 0.10707881301641464,
      "z": 0.3158525824546814,
      "time_usec": 667833006089
    },
    {
      "x": 9.705886840820312,
      "y": 0.13100704550743103,
      "z": 0.30628129839897156,
      "time_usec": 667833008346
    },
    {
      "x": 9.691530227661133,
      "y": 0.13100704550743103,
      "z": 0.31106695532798767,
      "time_usec": 667833010604
    },
    {
      "x": 9.686744689941406,
      "y": 0.12143574655056,
      "z": 0.33499518036842346,
      "time_usec": 667833012861
    },
    {
      "x": 9.677172660827637,
      "y": 0.12143574655056,
      "z": 0.33918261528015137,
      "time_usec": 667833015115
    },
    {
      "x": 9.67238712310791,
      "y": 0.0933200865983963,
      "z": 0.35832518339157104,
      "time_usec": 667833017363
    },
    {
      "x": 9.648459434509277,
      "y": 0.12203395366668701,
      "z": 0.38703906536102295,
      "time_usec": 667833019633
    },
    {
      "x": 9.667003631591797,
      "y": 0.08374879509210587,
      "z": 0.4013960063457489,
      "time_usec": 667833021891
    },
    {
      "x": 9.67657470703125,
      "y": 0.10767702013254166,
      "z": 0.4301098585128784,
      "time_usec": 667833024149
    },
    {
      "x": 9.7005033493042,
      "y": 0.10707881301641464,
      "z": 0.4540380835533142,
      "time_usec": 667833026394
    },
    {
      "x": 9.704689979553223,
      "y": 0.10767702013254166,
      "z": 0.5018945336341858,
      "time_usec": 667833028663
    },
    {
      "x": 9.704689979553223,
      "y": 0.12203395366668701,
      "z": 0.5258227586746216,
      "time_usec": 667833030908
    },
    {
      "x": 9.728618621826172,
      "y": 0.1459621787071228,
      "z": 0.5641079545021057,
      "time_usec": 667833033176
    },
    {
      "x": 9.737591743469238,
      "y": 0.16031911969184875,
      "z": 0.6167500615119934,
      "time_usec": 667833035432
    },
    {
      "x": 9.728020668029785,
      "y": 0.15553347766399384,
      "z": 0.664606511592865,
      "time_usec": 667833037693
    },
    {
      "x": 9.69930648803711,
      "y": 0.18424734473228455,
      "z": 0.6789634227752686,
      "time_usec": 667833039954
    },
    {
      "x": 9.675976753234863,
      "y": 0.1698904037475586,
      "z": 0.6735795736312866,
      "time_usec": 667833042212
    },
    {
      "x": 9.647262573242188,
      "y": 0.1657029688358307,
      "z": 0.6544370055198669,
      "time_usec": 667833044474
    },
    {
      "x": 9.609575271606445,
      "y": 0.19920247793197632,
      "z": 0.6352944374084473,
      "time_usec": 667833046721
    },
    {
      "x": 9.590433120727539,
      "y": 0.19920247793197632,
      "z": 0.6448656916618347,
      "time_usec": 667833048984
    },
    {
      "x": 9.600004196166992,
      "y": 0.21355941891670227,
      "z": 0.6305087804794312,
      "time_usec": 667833051241
    },
    {
      "x": 9.600004196166992,
      "y": 0.23270200192928314,
      "z": 0.6448656916618347,
      "time_usec": 667833053485
    },
    {
      "x": 9.609575271606445,
      "y": 0.26141586899757385,
      "z": 0.6640082597732544,
      "time_usec": 667833055750
    },
    {
      "x": 9.647860527038574,
      "y": 0.29012975096702576,
      "z": 0.6640082597732544,
      "time_usec": 667833058007
    },
    {
      "x": 9.667003631591797,
      "y": 0.28534409403800964,
      "z": 0.6544370055198669,
      "time_usec": 667833060275
    },
    {
      "x": 9.67657470703125,
      "y": 0.2997010350227356,
      "z": 0.6687939167022705,
      "time_usec": 667833062530
    },
    {
      "x": 9.690333366394043,
      "y": 0.275174617767334,
      "z": 0.664606511592865,
      "time_usec": 667833064787
    },
    {
      "x": 9.704689979553223,
      "y": 0.27038896083831787,
      "z": 0.6550351977348328,
      "time_usec": 667833067039
    },
    {
      "x": 9.68076229095459,
      "y": 0.2566302418708801,
      "z": 0.6640082597732544,
      "time_usec": 667833069299
    },
    {
      "x": 9.690333366394043,
      "y": 0.2512463629245758,
      "z": 0.6687939167022705,
      "time_usec": 667833071547
    },
    {
      "x": 9.704689979553223,
      "y": 0.2225325107574463,
      "z": 0.6933203339576721,
      "time_usec": 667833073817
    },
    {
      "x": 9.685547828674316,
      "y": 0.21774685382843018,
      "z": 0.6783652305603027,
      "time_usec": 667833076070
    },
    {
      "x": 9.690333366394043,
      "y": 0.20817556977272034,
      "z": 0.6879364848136902,
      "time_usec": 667833078335
    },
    {
      "x": 9.689735412597656,
      "y": 0.17946170270442963,
      "z": 0.6783652305603027,
      "time_usec": 667833080590
    },
    {
      "x": 9.69930648803711,
      "y": 0.1746760457754135,
      "z": 0.6598208546638489,
      "time_usec": 667833082850
    },
    {
      "x": 9.680164337158203,
      "y": 0.16031911969184875,
      "z": 0.6783652305603027,
      "time_usec": 667833085104
    },
    {
      "x": 9.69930648803711,
      "y": 0.14117653667926788,
      "z": 0.6693921089172363,
      "time_usec": 667833087354
    },
    {
      "x": 9.708877563476562,
      "y": 0.15074782073497772,
      "z": 0.6454638838768005,
      "time_usec": 667833089607
    },
    {
      "x": 9.690333366394043,
      "y": 0.15553347766399384,
      "z": 0.6502495408058167,
      "time_usec": 667833091878
    },
    {
      "x": 9.68494987487793,
      "y": 0.13639089465141296,
      "z": 0.6687939167022705,
      "time_usec": 667833094136
    },
    {
      "x": 9.689735412597656,
      "y": 0.11246266216039658,
      "z": 0.6640082597732544,
      "time_usec": 667833096391
    },
    {
      "x": 9.70349407196045,
      "y": 0.11246266216039658,
      "z": 0.6831508874893188,
      "time_usec": 667833098652
    },
    {
      "x": 9.694520950317383,
      "y": 0.11724831163883209,
      "z": 0.6735795736312866,
      "time_usec": 667833100911
    },
    {
      "x": 9.694520950317383,
      "y": 0.10767702013254166,
      "z": 0.6640082597732544,
      "time_usec": 667833103169
    },
    {
      "x": 9.698708534240723,
      "y": 0.08374879509210587,
      "z": 0.6783652305603027,
      "time_usec": 667833105428
    },
    {
      "x": 9.68494987487793,
      "y": 0.0933200865983963,
      "z": 0.6783652305603027,
      "time_usec": 667833107674
    },
    {
      "x": 9.69930648803711,
      "y": 0.0933200865983963,
      "z": 0.6502495408058167,
      "time_usec": 667833109928
    },
    {
      "x": 9.675378799438477,
      "y": 0.0933200865983963,
      "z": 0.6496513485908508,
      "time_usec": 667833112195
    },
    {
      "x": 9.665806770324707,
      "y": 0.0933200865983963,
      "z": 0.625723123550415,
      "time_usec": 667833114448
    },
    {
      "x": 9.656235694885254,
      "y": 0.08853443711996078,
      "z": 0.625723123550415,
      "time_usec": 667833116703
    },
    {
      "x": 9.65683364868164,
      "y": 0.08853443711996078,
      "z": 0.5593222975730896,
      "time_usec": 667833118971
    },
    {
      "x": 9.651450157165527,
      "y": 0.0891326442360878,
      "z": 0.6209374666213989,
      "time_usec": 667833121229
    },
    {
      "x": 9.643074989318848,
      "y": 0.10289137065410614,
      "z": 0.4492524564266205,
      "time_usec": 667833123489
    },
    {
      "x": 9.65683364868164,
      "y": 0.07896314561367035,
      "z": 0.5826523303985596,
      "time_usec": 667833125742
    },
    {
      "x": 9.67657470703125,
      "y": 0.11724831163883209,
      "z": 0.4013960063457489,
      "time_usec": 667833127998
    },
    {
      "x": 9.69511890411377,
      "y": 0.11724831163883209,
      "z": 0.47796630859375,
      "time_usec": 667833130258
    },
    {
      "x": 9.728618621826172,
      "y": 0.12203395366668701,
      "z": 0.49710890650749207,
      "time_usec": 667833132517
    },
    {
      "x": 9.729216575622559,
      "y": 0.13579268753528595,
      "z": 0.41156548261642456,
      "time_usec": 667833134779
    },
    {
      "x": 9.775876998901367,
      "y": 0.11665010452270508,
      "z": 0.5455635786056519,
      "time_usec": 667833137024
    },
    {
      "x": 9.78544807434082,
      "y": 0.12143574655056,
      "z": 0.49292147159576416,
      "time_usec": 667833139276
    },
    {
      "x": 9.761520385742188,
      "y": 0.09272187948226929,
      "z": 0.5168496966362,
      "time_usec": 667833141545
    },
    {
      "x": 9.751948356628418,
      "y": 0.06400800496339798,
      "z": 0.5545366406440735,
      "time_usec": 667833143804
    },
    {
      "x": 9.732806205749512,
      "y": 0.07357929646968842,
      "z": 0.5066801905632019,
      "time_usec": 667833146060
    },
    {
      "x": 9.732806205749512,
      "y": 0.04486542567610741,
      "z": 0.5066801905632019,
      "time_usec": 667833148319
    },
    {
      "x": 9.694520950317383,
      "y": 0.035892341285943985,
      "z": 0.5162515044212341,
      "time_usec": 667833150577
    },
    {
      "x": 9.704092025756836,
      "y": 0.02632104977965355,
      "z": 0.5162515044212341,
      "time_usec": 667833152836
    },
    {
      "x": 9.689735412597656,
      "y": 0.01196411345154047,
      "z": 0.511465847492218,
      "time_usec": 667833155092
    },
    {
      "x": 9.680164337158203,
      "y": -0.007178467698395252,
      "z": 0.5401797294616699,
      "time_usec": 667833157345
    },
    {
      "x": 9.704092025756836,
      "y": 0.01196411345154047,
      "z": 0.5497509837150574,
      "time_usec": 667833159604
    },
    {
      "x": 9.68494987487793,
      "y": -0.0023928226437419653,
      "z": 0.5593222975730896,
      "time_usec": 667833161852
    },
    {
      "x": 9.689735412597656,
      "y": -0.01196411345154047,
      "z": 0.5497509837150574,
      "time_usec": 667833164123
    },
    {
      "x": 9.708279609680176,
      "y": -0.01196411345154047,
      "z": 0.5688936114311218,
      "time_usec": 667833166376
    },
    {
      "x": 9.708877563476562,
      "y": 0.02632104977965355,
      "z": 0.5784648656845093,
      "time_usec": 667833168641
    },
    {
      "x": 9.713663101196289,
      "y": 0.02153540402650833,
      "z": 0.5688936114311218,
      "time_usec": 667833170896
    },
    {
      "x": 9.704092025756836,
      "y": 0.035892341285943985,
      "z": 0.5641079545021057,
      "time_usec": 667833173157
    },
    {
      "x": 9.670592308044434,
      "y": 0.040677983313798904,
      "z": 0.5641079545021057,
      "time_usec": 667833175410
    },
    {
      "x": 9.65683364868164,
      "y": 0.05024927482008934,
      "z": 0.5826523303985596,
      "time_usec": 667833177664
    },
    {
      "x": 9.69930648803711,
      "y": 0.09810572862625122,
      "z": 0.597607433795929,
      "time_usec": 667833179926
    },
    {
      "x": 9.708877563476562,
      "y": 0.10289137065410614,
      "z": 0.6167500615119934,
      "time_usec": 667833182183
    },
    {
      "x": 9.747162818908691,
      "y": 0.13639089465141296,
      "z": 0.6406782865524292,
      "time_usec": 667833184437
    },
    {
      "x": 9.761520385742188,
      "y": 0.1746760457754135,
      "z": 0.6502495408058167,
      "time_usec": 667833186691
    },
    {
      "x": 9.761520385742188,
      "y": 0.18424734473228455,
      "z": 0.6741777658462524,
      "time_usec": 667833188945
    },
    {
      "x": 9.780662536621094,
      "y": 0.21774685382843018,
      "z": 0.664606511592865,
      "time_usec": 667833191217
    },
    {
      "x": 9.77109146118164,
      "y": 0.21296121180057526,
      "z": 0.664606511592865,
      "time_usec": 667833193474
    },
    {
      "x": 9.780662536621094,
      "y": 0.2225325107574463,
      "z": 0.6741777658462524,
      "time_usec": 667833195728
    },
    {
      "x": 9.751948356628418,
      "y": 0.2225325107574463,
      "z": 0.6885347366333008,
      "time_usec": 667833197986
    },
    {
      "x": 9.713663101196289,
      "y": 0.19381862878799438,
      "z": 0.6933203339576721,
      "time_usec": 667833200245
    },
    {
      "x": 9.594620704650879,
      "y": 0.1178465187549591,
      "z": 0.6783652305603027,
      "time_usec": 667833202502
    },
    {
      "x": 9.917651176452637,
      "y": 0.18305093050003052,
      "z": 0.7034898400306702,
      "time_usec": 667833204749
    },
    {
      "x": 9.784252166748047,
      "y": 0.11665010452270508,
      "z": 0.6933203339576721,
      "time_usec": 667833207013
    },
    {
      "x": 9.613164901733398,
      "y": 0.0891326442360878,
      "z": 0.7022934556007385,
      "time_usec": 667833209277
    },
    {
      "x": 9.746564865112305,
      "y": 0.10767702013254166,
      "z": 0.7268198728561401,
      "time_usec": 667833211536
    },
    {
      "x": 9.774680137634277,
      "y": 0.0933200865983963,
      "z": 0.7459624409675598,
      "time_usec": 667833213791
    },
    {
      "x": 9.674779891967773,
      "y": 0.07477571070194244,
      "z": 0.7549355626106262,
      "time_usec": 667833216044
    },
    {
      "x": 9.6795654296875,
      "y": 0.09391828626394272,
      "z": 0.7740781307220459,
      "time_usec": 667833218307
    },
    {
      "x": 9.76989459991455,
      "y": 0.13160525262355804,
      "z": 0.8033902049064636,
      "time_usec": 667833220565
    },
    {
      "x": 9.760323524475098,
      "y": 0.13160525262355804,
      "z": 0.8273184299468994,
      "time_usec": 667833222823
    },
    {
      "x": 9.77408218383789,
      "y": 0.14117653667926788,
      "z": 0.8608179688453674,
      "time_usec": 667833225078
    },
    {
      "x": 9.802796363830566,
      "y": 0.16031911969184875,
      "z": 0.8656035661697388,
      "time_usec": 667833227333
    },
    {
      "x": 9.8267240524292,
      "y": 0.15553347766399384,
      "z": 0.875174880027771,
      "time_usec": 667833229594
    },
    {
      "x": 9.817152976989746,
      "y": 0.1459621787071228,
      "z": 0.8799605369567871,
      "time_usec": 667833231852
    },
    {
      "x": 9.821938514709473,
      "y": 0.14117653667926788,
      "z": 0.8847461938858032,
      "time_usec": 667833234099
    },
    {
      "x": 9.821938514709473,
      "y": 0.13639089465141296,
      "z": 0.8608179688453674,
      "time_usec": 667833236366
    },
    {
      "x": 9.784252166748047,
      "y": 0.13639089465141296,
      "z": 0.8129615187644958,
      "time_usec": 667833238628
    },
    {
      "x": 9.755537986755371,
      "y": 0.13160525262355804,
      "z": 0.8081758618354797,
      "time_usec": 667833240886
    },
    {
      "x": 9.713065147399902,
      "y": 0.12203395366668701,
      "z": 0.7597211599349976,
      "time_usec": 667833243142
    },
    {
      "x": 9.68913745880127,
      "y": 0.1178465187549591,
      "z": 0.7501499056816101,
      "time_usec": 667833245399
    },
    {
      "x": 9.680164337158203,
      "y": 0.16091732680797577,
      "z": 0.6927221417427063,
      "time_usec": 667833247651
    },
    {
      "x": 9.68494987487793,
      "y": 0.1459621787071228,
      "z": 0.6640082597732544,
      "time_usec": 667833249913
    },
    {
      "x": 9.685547828674316,
      "y": 0.1698904037475586,
      "z": 0.6400800347328186,
      "time_usec": 667833252172
    },
    {
      "x": 9.742377281188965,
      "y": 0.20338992774486542,
      "z": 0.6454638838768005,
      "time_usec": 667833254432
    },
    {
      "x": 9.77109146118164,
      "y": 0.20817556977272034,
      "z": 0.6071787476539612,
      "time_usec": 667833256681
    },
    {
      "x": 9.804591178894043,
      "y": 0.24586252868175507,
      "z": 0.6029912829399109,
      "time_usec": 667833258944
    },
    {
      "x": 9.814162254333496,
      "y": 0.26979073882102966,
      "z": 0.6173482537269592,
      "time_usec": 667833261198
    },
    {
      "x": 9.837491989135742,
      "y": 0.2841476798057556,
      "z": 0.6508477330207825,
      "time_usec": 667833263448
    },
    {
      "x": 9.851848602294922,
      "y": 0.2793620526790619,
      "z": 0.641276478767395,
      "time_usec": 667833265711
    },
    {
      "x": 9.851848602294922,
      "y": 0.2793620526790619,
      "z": 0.6604190468788147,
      "time_usec": 667833267967
    },
    {
      "x": 9.837491989135742,
      "y": 0.2602194547653198,
      "z": 0.698704183101654,
      "time_usec": 667833270222
    },
    {
      "x": 9.842277526855469,
      "y": 0.26500511169433594,
      "z": 0.7082754969596863,
      "time_usec": 667833272490
    },
    {
      "x": 9.808777809143066,
      "y": 0.24586252868175507,
      "z": 0.6837490797042847,
      "time_usec": 667833274744
    },
    {
      "x": 9.808777809143066,
      "y": 0.2315055876970291,
      "z": 0.6604190468788147,
      "time_usec": 667833277003
    },
    {
      "x": 9.814162254333496,
      "y": 0.24107688665390015,
      "z": 0.641276478767395,
      "time_usec": 667833279263
    },
    {
      "x": 9.832706451416016,
      "y": 0.24107688665390015,
      "z": 0.641276478767395,
      "time_usec": 667833281522
    },
    {
      "x": 9.827920913696289,
      "y": 0.23629122972488403,
      "z": 0.6317051649093628,
      "time_usec": 667833283778
    },
    {
      "x": 9.838089942932129,
      "y": 0.25064817070961,
      "z": 0.6125625967979431,
      "time_usec": 667833286030
    },
    {
      "x": 9.847661972045898,
      "y": 0.2602194547653198,
      "z": 0.5886343717575073,
      "time_usec": 667833288294
    },
    {
      "x": 9.842875480651855,
      "y": 0.24586252868175507,
      "z": 0.5982056856155396,
      "time_usec": 667833290551
    },
    {
      "x": 9.875777244567871,
      "y": 0.23629122972488403,
      "z": 0.5934200286865234,
      "time_usec": 667833292808
    },
    {
      "x": 9.856635093688965,
      "y": 0.22193430364131927,
      "z": 0.5934200286865234,
      "time_usec": 667833295056
    },
    {
      "x": 9.837491989135742,
      "y": 0.18843477964401245,
      "z": 0.5934200286865234,
      "time_usec": 667833297319
    },
    {
      "x": 9.7998046875,
      "y": 0.2027917206287384,
      "z": 0.6125625967979431,
      "time_usec": 667833299583
    },
    {
      "x": 9.81356430053711,
      "y": 0.1788634955883026,
      "z": 0.6173482537269592,
      "time_usec": 667833301841
    },
    {
      "x": 9.775876998901367,
      "y": 0.16929219663143158,
      "z": 0.6263213157653809,
      "time_usec": 667833304097
    },
    {
      "x": 9.780064582824707,
      "y": 0.1501496136188507,
      "z": 0.6358926296234131,
      "time_usec": 667833306349
    },
    {
      "x": 9.77527904510498,
      "y": 0.14057832956314087,
      "z": 0.6215356588363647,
      "time_usec": 667833308612
    },
    {
      "x": 9.78963565826416,
      "y": 0.11186445504426956,
      "z": 0.6125625967979431,
      "time_usec": 667833310869
    },
    {
      "x": 9.78963565826416,
      "y": 0.08793623000383377,
      "z": 0.5982056856155396,
      "time_usec": 667833313129
    },
    {
      "x": 9.78963565826416,
      "y": 0.07357929646968842,
      "z": 0.5934200286865234,
      "time_usec": 667833315385
    },
    {
      "x": 9.794421195983887,
      "y": 0.05922235921025276,
      "z": 0.6029912829399109,
      "time_usec": 667833317640
    },
    {
      "x": 9.784850120544434,
      "y": 0.0687936544418335,
      "z": 0.5886343717575073,
      "time_usec": 667833319900
    },
    {
      "x": 9.780064582824707,
      "y": 0.08315058797597885,
      "z": 0.5934200286865234,
      "time_usec": 667833322158
    },
    {
      "x": 9.784850120544434,
      "y": 0.08315058797597885,
      "z": 0.5886343717575073,
      "time_usec": 667833324416
    },
    {
      "x": 9.794421195983887,
      "y": 0.07357929646968842,
      "z": 0.5934200286865234,
      "time_usec": 667833326668
    },
    {
      "x": 9.808777809143066,
      "y": 0.07836493849754333,
      "z": 0.5838487148284912,
      "time_usec": 667833328931
    },
    {
      "x": 9.81356430053711,
      "y": 0.049651071429252625,
      "z": 0.550349235534668,
      "time_usec": 667833331187
    },
    {
      "x": 9.794421195983887,
      "y": 0.08315058797597885,
      "z": 0.5599204897880554,
      "time_usec": 667833333441
    },
    {
      "x": 9.827920913696289,
      "y": 0.0975075215101242,
      "z": 0.5742774605751038,
      "time_usec": 667833335697
    },
    {
      "x": 9.78963565826416,
      "y": 0.10707881301641464,
      "z": 0.5838487148284912,
      "time_usec": 667833337948
    },
    {
      "x": 9.737591743469238,
      "y": 0.12203395366668701,
      "z": 0.6023930907249451,
      "time_usec": 667833340208
    },
    {
      "x": 9.827920913696289,
      "y": 0.15972091257572174,
      "z": 0.5838487148284912,
      "time_usec": 667833342479
    },
    {
      "x": 9.780662536621094,
      "y": 0.1501496136188507,
      "z": 0.5790630578994751,
      "time_usec": 667833344740
    },
    {
      "x": 9.709476470947266,
      "y": 0.1746760457754135,
      "z": 0.6119644045829773,
      "time_usec": 667833346990
    },
    {
      "x": 9.723833084106445,
      "y": 0.17946170270442963,
      "z": 0.5880361795425415,
      "time_usec": 667833349250
    },
    {
      "x": 9.728020668029785,
      "y": 0.16031911969184875,
      "z": 0.6023930907249451,
      "time_usec": 667833351507
    },
    {
      "x": 9.699904441833496,
      "y": 0.18424734473228455,
      "z": 0.6215356588363647,
      "time_usec": 667833353765
    },
    {
      "x": 9.685547828674316,
      "y": 0.18903298676013947,
      "z": 0.6023930907249451,
      "time_usec": 667833356018
    },
    {
      "x": 9.69511890411377,
      "y": 0.19381862878799438,
      "z": 0.6167500615119934,
      "time_usec": 667833358280
    },
    {
      "x": 9.69511890411377,
      "y": 0.2273181527853012,
      "z": 0.6215356588363647,
      "time_usec": 667833360538
    },
    {
      "x": 9.719047546386719,
      "y": 0.23688943684101105,
      "z": 0.6215356588363647,
      "time_usec": 667833362796
    },
    {
      "x": 9.719047546386719,
      "y": 0.23210379481315613,
      "z": 0.6358926296234131,
      "time_usec": 667833365049
    },
    {
      "x": 9.719047546386719,
      "y": 0.24167509377002716,
      "z": 0.631106972694397,
      "time_usec": 667833367306
    },
    {
      "x": 9.742975234985352,
      "y": 0.2512463629245758,
      "z": 0.6358926296234131,
      "time_usec": 667833369569
    },
    {
      "x": 9.733404159545898,
      "y": 0.24646073579788208,
      "z": 0.6023930907249451,
      "time_usec": 667833371825
    },
    {
      "x": 9.747760772705078,
      "y": 0.23210379481315613,
      "z": 0.597607433795929,
      "time_usec": 667833374072
    },
    {
      "x": 9.742975234985352,
      "y": 0.23688943684101105,
      "z": 0.5736792087554932,
      "time_usec": 667833376333
    },
    {
      "x": 9.752547264099121,
      "y": 0.2512463629245758,
      "z": 0.5497509837150574,
      "time_usec": 667833378587
    },
    {
      "x": 9.729216575622559,
      "y": 0.26081767678260803,
      "z": 0.5497509837150574,
      "time_usec": 667833380860
    },
    {
      "x": 9.734002113342285,
      "y": 0.2512463629245758,
      "z": 0.5353940725326538,
      "time_usec": 667833383116
    },
    {
      "x": 9.724431037902832,
      "y": 0.2560320198535919,
      "z": 0.49232324957847595,
      "time_usec": 667833385374
    },
    {
      "x": 9.714859962463379,
      "y": 0.26560330390930176,
      "z": 0.49710890650749207,
      "time_usec": 667833387625
    },
    {
      "x": 9.681958198547363,
      "y": 0.26560330390930176,
      "z": 0.511465847492218,
      "time_usec": 667833389890
    },
    {
      "x": 9.69631576538086,
      "y": 0.2799602448940277,
      "z": 0.49710890650749207,
      "time_usec": 667833392146
    },
    {
      "x": 9.691530227661133,
      "y": 0.275174617767334,
      "z": 0.5162515044212341,
      "time_usec": 667833394403
    },
    {
      "x": 9.710074424743652,
      "y": 0.2847459018230438,
      "z": 0.5162515044212341,
      "time_usec": 667833396655
    },
    {
      "x": 9.705886840820312,
      "y": 0.2991028428077698,
      "z": 0.511465847492218,
      "time_usec": 667833398917
    },
    {
      "x": 9.691530227661133,
      "y": 0.275174617767334,
      "z": 0.5018945336341858,
      "time_usec": 667833401171
    },
    {
      "x": 9.719645500183105,
      "y": 0.2799602448940277,
      "z": 0.49232324957847595,
      "time_usec": 667833403429
    },
    {
      "x": 9.738788604736328,
      "y": 0.27038896083831787,
      "z": 0.5066801905632019,
      "time_usec": 667833405685
    },
    {
      "x": 9.738788604736328,
      "y": 0.28953152894973755,
      "z": 0.5401797294616699,
      "time_usec": 667833407945
    },
    {
      "x": 9.747760772705078,
      "y": 0.2991028428077698,
      "z": 0.5832505226135254,
      "time_usec": 667833410206
    },
    {
      "x": 9.757332801818848,
      "y": 0.29431718587875366,
      "z": 0.6167500615119934,
      "time_usec": 667833412461
    },
    {
      "x": 9.775876998901367,
      "y": 0.2991028428077698,
      "z": 0.6598208546638489,
      "time_usec": 667833414722
    },
    {
      "x": 9.766305923461914,
      "y": 0.3086741268634796,
      "z": 0.6981059908866882,
      "time_usec": 667833416974
    },
    {
      "x": 9.761520385742188,
      "y": 0.3038884699344635,
      "z": 0.7316055297851562,
      "time_usec": 667833419238
    },
    {
      "x": 9.742377281188965,
      "y": 0.28953152894973755,
      "z": 0.7172485589981079,
      "time_usec": 667833421494
    },
    {
      "x": 9.747162818908691,
      "y": 0.275174617767334,
      "z": 0.7124629616737366,
      "time_usec": 667833423750
    },
    {
      "x": 9.732806205749512,
      "y": 0.27038896083831787,
      "z": 0.7028916478157043,
      "time_usec": 667833426005
    },
    {
      "x": 9.719047546386719,
      "y": 0.24646073579788208,
      "z": 0.6598208546638489,
      "time_usec": 667833428268
    },
    {
      "x": 9.69511890411377,
      "y": 0.2273181527853012,
      "z": 0.6454638838768005,
      "time_usec": 667833430526
    },
    {
      "x": 9.69511890411377,
      "y": 0.20338992774486542,
      "z": 0.6167500615119934,
      "time_usec": 667833432784
    },
    {
      "x": 9.714262008666992,
      "y": 0.1986042857170105,
      "z": 0.5928218364715576,
      "time_usec": 667833435038
    },
    {
      "x": 9.690333366394043,
      "y": 0.18903298676013947,
      "z": 0.5832505226135254,
      "time_usec": 667833437288
    },
    {
      "x": 9.719047546386719,
      "y": 0.19381862878799438,
      "z": 0.5928218364715576,
      "time_usec": 667833439556
    },
    {
      "x": 9.728618621826172,
      "y": 0.18903298676013947,
      "z": 0.5928218364715576,
      "time_usec": 667833441814
    },
    {
      "x": 9.714262008666992,
      "y": 0.20338992774486542,
      "z": 0.5832505226135254,
      "time_usec": 667833444073
    },
    {
      "x": 9.709476470947266,
      "y": 0.2225325107574463,
      "z": 0.597607433795929,
      "time_usec": 667833446324
    },
    {
      "x": 9.699904441833496,
      "y": 0.21296121180057526,
      "z": 0.5928218364715576,
      "time_usec": 667833448586
    },
    {
      "x": 9.685547828674316,
      "y": 0.19381862878799438,
      "z": 0.5736792087554932,
      "time_usec": 667833450844
    },
    {
      "x": 9.675976753234863,
      "y": 0.1746760457754135,
      "z": 0.5784648656845093,
      "time_usec": 667833453103
    },
    {
      "x": 9.647860527038574,
      "y": 0.16510476171970367,
      "z": 0.5682953596115112,
      "time_usec": 667833455358
    },
    {
      "x": 9.638289451599121,
      "y": 0.12203395366668701,
      "z": 0.5682953596115112,
      "time_usec": 667833457610
    },
    {
      "x": 9.623334884643555,
      "y": 0.12741780281066895,
      "z": 0.5826523303985596,
      "time_usec": 667833459870
    },
    {
      "x": 9.623334884643555,
      "y": 0.12263216078281403,
      "z": 0.6065805554389954,
      "time_usec": 667833462134
    },
    {
      "x": 9.608977317810059,
      "y": 0.1178465187549591,
      "z": 0.6400800347328186,
      "time_usec": 667833464390
    },
    {
      "x": 9.618548393249512,
      "y": 0.09391828626394272,
      "z": 0.6592226624488831,
      "time_usec": 667833466643
    },
    {
      "x": 9.599406242370605,
      "y": 0.06999006122350693,
      "z": 0.6305087804794312,
      "time_usec": 667833468905
    },
    {
      "x": 9.622735977172852,
      "y": 0.04127619042992592,
      "z": 0.6305087804794312,
      "time_usec": 667833471163
    },
    {
      "x": 9.628120422363281,
      "y": 0.06999006122350693,
      "z": 0.625723123550415,
      "time_usec": 667833473424
    },
    {
      "x": 9.641879081726074,
      "y": 0.046061836183071136,
      "z": 0.625723123550415,
      "time_usec": 667833475672
    },
    {
      "x": 9.656235694885254,
      "y": 0.035892341285943985,
      "z": 0.6065805554389954,
      "time_usec": 667833477931
    },
    {
      "x": 9.680164337158203,
      "y": 0.05503492057323456,
      "z": 0.5928218364715576,
      "time_usec": 667833480192
    },
    {
      "x": 9.704092025756836,
      "y": 0.064606212079525,
      "z": 0.5832505226135254,
      "time_usec": 667833482447
    },
    {
      "x": 9.723235130310059,
      "y": 0.06939185410737991,
      "z": 0.5832505226135254,
      "time_usec": 667833484709
    },
    {
      "x": 9.732208251953125,
      "y": 0.07417750358581543,
      "z": 0.6071787476539612,
      "time_usec": 667833486961
    },
    {
      "x": 9.746564865112305,
      "y": 0.08374879509210587,
      "z": 0.597607433795929,
      "time_usec": 667833489225
    },
    {
      "x": 9.751350402832031,
      "y": 0.07417750358581543,
      "z": 0.631106972694397,
      "time_usec": 667833491484
    },
    {
      "x": 9.746564865112305,
      "y": 0.08374879509210587,
      "z": 0.6789634227752686,
      "time_usec": 667833493747
    },
    {
      "x": 9.745966911315918,
      "y": 0.08374879509210587,
      "z": 0.7028916478157043,
      "time_usec": 667833495989
    },
    {
      "x": 9.726823806762695,
      "y": 0.05503492057323456,
      "z": 0.7357929348945618,
      "time_usec": 667833498239
    },
    {
      "x": 9.717252731323242,
      "y": 0.035892341285943985,
      "z": 0.7549355626106262,
      "time_usec": 667833500496
    },
    {
      "x": 9.707681655883789,
      "y": 0.035892341285943985,
      "z": 0.7645068168640137,
      "time_usec": 667833502763
    },
    {
      "x": 9.698110580444336,
      "y": 0.05024927482008934,
      "z": 0.7645068168640137,
      "time_usec": 667833505016
    },
    {
      "x": 9.707681655883789,
      "y": 0.031106693670153618,
      "z": 0.7405785918235779,
      "time_usec": 667833507283
    },
    {
      "x": 9.693324089050293,
      "y": 0.02153540402650833,
      "z": 0.7262216806411743,
      "time_usec": 667833509544
    },
    {
      "x": 9.722038269042969,
      "y": 0.064606212079525,
      "z": 0.7310073375701904,
      "time_usec": 667833511803
    },
    {
      "x": 9.713065147399902,
      "y": 0.07896314561367035,
      "z": 0.7022934556007385,
      "time_usec": 667833514058
    },
    {
      "x": 9.736993789672852,
      "y": 0.09810572862625122,
      "z": 0.6885347366333008,
      "time_usec": 667833516312
    },
    {
      "x": 9.736993789672852,
      "y": 0.11724831163883209,
      "z": 0.7028916478157043,
      "time_usec": 667833518573
    },
    {
      "x": 9.713065147399902,
      "y": 0.10767702013254166,
      "z": 0.664606511592865,
      "time_usec": 667833520830
    },
    {
      "x": 9.722636222839355,
      "y": 0.10289137065410614,
      "z": 0.6598208546638489,
      "time_usec": 667833523089
    },
    {
      "x": 9.717850685119629,
      "y": 0.06939185410737991,
      "z": 0.631106972694397,
      "time_usec": 667833525345
    },
    {
      "x": 9.708877563476562,
      "y": 0.07417750358581543,
      "z": 0.6023930907249451,
      "time_usec": 667833527598
    },
    {
      "x": 9.68494987487793,
      "y": 0.059820566326379776,
      "z": 0.5545366406440735,
      "time_usec": 667833529857
    },
    {
      "x": 9.68076229095459,
      "y": 0.06939185410737991,
      "z": 0.5641079545021057,
      "time_usec": 667833532118
    },
    {
      "x": 9.671191215515137,
      "y": 0.07417750358581543,
      "z": 0.544965386390686,
      "time_usec": 667833534373
    },
    {
      "x": 9.647262573242188,
      "y": 0.07417750358581543,
      "z": 0.5353940725326538,
      "time_usec": 667833536632
    },
    {
      "x": 9.671191215515137,
      "y": 0.08374879509210587,
      "z": 0.5593222975730896,
      "time_usec": 667833538887
    },
    {
      "x": 9.671191215515137,
      "y": 0.07896314561367035,
      "z": 0.5641079545021057,
      "time_usec": 667833541151
    },
    {
      "x": 9.69511890411377,
      "y": 0.10767702013254166,
      "z": 0.5736792087554932,
      "time_usec": 667833543407
    },
    {
      "x": 9.699904441833496,
      "y": 0.12681959569454193,
      "z": 0.5688936114311218,
      "time_usec": 667833545660
    },
    {
      "x": 9.709476470947266,
      "y": 0.12203395366668701,
      "z": 0.5641079545021057,
      "time_usec": 667833547917
    },
    {
      "x": 9.733404159545898,
      "y": 0.14057832956314087,
      "z": 0.5497509837150574,
      "time_usec": 667833550180
    },
    {
      "x": 9.738189697265625,
      "y": 0.16510476171970367,
      "z": 0.5688936114311218,
      "time_usec": 667833552433
    },
    {
      "x": 9.761520385742188,
      "y": 0.15493527054786682,
      "z": 0.5551348328590393,
      "time_usec": 667833554683
    },
    {
      "x": 9.762118339538574,
      "y": 0.1740778535604477,
      "z": 0.5407779216766357,
      "time_usec": 667833556948
    },
    {
      "x": 9.780662536621094,
      "y": 0.16450655460357666,
      "z": 0.5455635786056519,
      "time_usec": 667833559209
    },
    {
      "x": 9.7669038772583,
      "y": 0.1501496136188507,
      "z": 0.5216353535652161,
      "time_usec": 667833561456
    },
    {
      "x": 9.775876998901367,
      "y": 0.15972091257572174,
      "z": 0.5264210104942322,
      "time_usec": 667833563713
    },
    {
      "x": 9.762118339538574,
      "y": 0.13579268753528595,
      "z": 0.5120640397071838,
      "time_usec": 667833565976
    },
    {
      "x": 9.775876998901367,
      "y": 0.1453639715909958,
      "z": 0.5312066078186035,
      "time_usec": 667833568234
    },
    {
      "x": 9.751948356628418,
      "y": 0.13579268753528595,
      "z": 0.544965386390686,
      "time_usec": 667833570502
    },
    {
      "x": 9.761520385742188,
      "y": 0.1501496136188507,
      "z": 0.5736792087554932,
      "time_usec": 667833572749
    },
    {
      "x": 9.77109146118164,
      "y": 0.12143574655056,
      "z": 0.5790630578994751,
      "time_usec": 667833575004
    },
    {
      "x": 9.794421195983887,
      "y": 0.12143574655056,
      "z": 0.6221339106559753,
      "time_usec": 667833577261
    },
    {
      "x": 9.80399227142334,
      "y": 0.11665010452270508,
      "z": 0.6364908218383789,
      "time_usec": 667833579518
    },
    {
      "x": 9.817750930786133,
      "y": 0.09272187948226929,
      "z": 0.6652047038078308,
      "time_usec": 667833581777
    },
    {
      "x": 9.7938232421875,
      "y": 0.0975075215101242,
      "z": 0.6741777658462524,
      "time_usec": 667833584045
    },
    {
      "x": 9.817750930786133,
      "y": 0.07836493849754333,
      "z": 0.6843472719192505,
      "time_usec": 667833586300
    },
    {
      "x": 9.803394317626953,
      "y": 0.08315058797597885,
      "z": 0.6837490797042847,
      "time_usec": 667833588561
    },
    {
      "x": 9.7938232421875,
      "y": 0.049651071429252625,
      "z": 0.6741777658462524,
      "time_usec": 667833590802
    },
    {
      "x": 9.798608779907227,
      "y": 0.0687936544418335,
      "z": 0.6741777658462524,
      "time_usec": 667833593061
    },
    {
      "x": 9.798608779907227,
      "y": 0.06400800496339798,
      "z": 0.6550351977348328,
      "time_usec": 667833595317
    },
    {
      "x": 9.77527904510498,
      "y": 0.0687936544418335,
      "z": 0.631106972694397,
      "time_usec": 667833597581
    },
    {
      "x": 9.789037704467773,
      "y": 0.04007977992296219,
      "z": 0.631106972694397,
      "time_usec": 667833599849
    },
    {
      "x": 9.784252166748047,
      "y": 0.03529413416981697,
      "z": 0.6406782865524292,
      "time_usec": 667833602106
    },
    {
      "x": 9.77527904510498,
      "y": 0.049651071429252625,
      "z": 0.6167500615119934,
      "time_usec": 667833604356
    },
    {
      "x": 9.770493507385254,
      "y": 0.01615155301988125,
      "z": 0.5928218364715576,
      "time_usec": 667833606616
    },
    {
      "x": 9.746564865112305,
      "y": 0.025722842663526535,
      "z": 0.5832505226135254,
      "time_usec": 667833608864
    },
    {
      "x": 9.77527904510498,
      "y": 0.025722842663526535,
      "z": 0.5407779216766357,
      "time_usec": 667833611124
    },
    {
      "x": 9.756135940551758,
      "y": 0.04007977992296219,
      "z": 0.5264210104942322,
      "time_usec": 667833613379
    },
    {
      "x": 9.737591743469238,
      "y": 0.03529413416981697,
      "z": 0.5162515044212341,
      "time_usec": 667833615641
    },
    {
      "x": 9.742377281188965,
      "y": 0.05922235921025276,
      "z": 0.5018945336341858,
      "time_usec": 667833617908
    },
    {
      "x": 9.747162818908691,
      "y": 0.049651071429252625,
      "z": 0.4737788736820221,
      "time_usec": 667833620167
    },
    {
      "x": 9.756733894348145,
      "y": 0.054436713457107544,
      "z": 0.5072783827781677,
      "time_usec": 667833622415
    },
    {
      "x": 9.77109146118164,
      "y": 0.08315058797597885,
      "z": 0.5168496966362,
      "time_usec": 667833624681
    },
    {
      "x": 9.77109146118164,
      "y": 0.09272187948226929,
      "z": 0.5120640397071838,
      "time_usec": 667833626927
    },
    {
      "x": 9.78963565826416,
      "y": 0.10229317098855972,
      "z": 0.5599204897880554,
      "time_usec": 667833629200
    },
    {
      "x": 9.78963565826416,
      "y": 0.09272187948226929,
      "z": 0.5742774605751038,
      "time_usec": 667833631451
    },
    {
      "x": 9.780064582824707,
      "y": 0.08315058797597885,
      "z": 0.5928218364715576,
      "time_usec": 667833633715
    },
    {
      "x": 9.77527904510498,
      "y": 0.08315058797597885,
      "z": 0.597607433795929,
      "time_usec": 667833635965
    },
    {
      "x": 9.760921478271484,
      "y": 0.05922235921025276,
      "z": 0.5928218364715576,
      "time_usec": 667833638229
    },
    {
      "x": 9.756135940551758,
      "y": 0.064606212079525,
      "z": 0.6119644045829773,
      "time_usec": 667833640486
    },
    {
      "x": 9.722636222839355,
      "y": 0.08374879509210587,
      "z": 0.6406782865524292,
      "time_usec": 667833642746
    },
    {
      "x": 9.717850685119629,
      "y": 0.07896314561367035,
      "z": 0.6454638838768005,
      "time_usec": 667833645000
    },
    {
      "x": 9.722636222839355,
      "y": 0.07896314561367035,
      "z": 0.6454638838768005,
      "time_usec": 667833647254
    },
    {
      "x": 9.722636222839355,
      "y": 0.11246266216039658,
      "z": 0.6598208546638489,
      "time_usec": 667833649517
    },
    {
      "x": 9.746564865112305,
      "y": 0.14117653667926788,
      "z": 0.6693921089172363,
      "time_usec": 667833651776
    },
    {
      "x": 9.732806205749512,
      "y": 0.16510476171970367,
      "z": 0.6598208546638489,
      "time_usec": 667833654032
    },
    {
      "x": 9.765707015991211,
      "y": 0.17946170270442963,
      "z": 0.6837490797042847,
      "time_usec": 667833656284
    },
    {
      "x": 9.784850120544434,
      "y": 0.20817556977272034,
      "z": 0.7316055297851562,
      "time_usec": 667833658547
    },
    {
      "x": 9.77527904510498,
      "y": 0.2273181527853012,
      "z": 0.7603194117546082,
      "time_usec": 667833660806
    },
    {
      "x": 9.784850120544434,
      "y": 0.2273181527853012,
      "z": 0.7746763229370117,
      "time_usec": 667833663064
    },
    {
      "x": 9.780064582824707,
      "y": 0.21774685382843018,
      "z": 0.7698906660079956,
      "time_usec": 667833665318
    },
    {
      "x": 9.760921478271484,
      "y": 0.2225325107574463,
      "z": 0.7794619798660278,
      "time_usec": 667833667572
    },
    {
      "x": 9.756135940551758,
      "y": 0.21774685382843018,
      "z": 0.7698906660079956,
      "time_usec": 667833669832
    },
    {
      "x": 9.746564865112305,
      "y": 0.21774685382843018,
      "z": 0.7651050686836243,
      "time_usec": 667833672093
    },
    {
      "x": 9.727422714233398,
      "y": 0.21774685382843018,
      "z": 0.7692924737930298,
      "time_usec": 667833674351
    },
    {
      "x": 9.708279609680176,
      "y": 0.1944168359041214,
      "z": 0.7692924737930298,
      "time_usec": 667833676605
    },
    {
      "x": 9.70349407196045,
      "y": 0.18963119387626648,
      "z": 0.7645068168640137,
      "time_usec": 667833678866
    },
    {
      "x": 9.68494987487793,
      "y": 0.16091732680797577,
      "z": 0.745364248752594,
      "time_usec": 667833681114
    },
    {
      "x": 9.713663101196289,
      "y": 0.17946170270442963,
      "z": 0.7214360237121582,
      "time_usec": 667833683381
    },
    {
      "x": 9.718449592590332,
      "y": 0.16031911969184875,
      "z": 0.6981059908866882,
      "time_usec": 667833685632
    },
    {
      "x": 9.742377281188965,
      "y": 0.16031911969184875,
      "z": 0.664606511592865,
      "time_usec": 667833687894
    },
    {
      "x": 9.747162818908691,
      "y": 0.1698904037475586,
      "z": 0.6167500615119934,
      "time_usec": 667833690154
    },
    {
      "x": 9.780662536621094,
      "y": 0.16929219663143158,
      "z": 0.5838487148284912,
      "time_usec": 667833692410
    },
    {
      "x": 9.790233612060547,
      "y": 0.1740778535604477,
      "z": 0.5694918036460876,
      "time_usec": 667833694657
    },
    {
      "x": 9.78544807434082,
      "y": 0.15493527054786682,
      "z": 0.5312066078186035,
      "time_usec": 667833696923
    },
    {
      "x": 9.78544807434082,
      "y": 0.14057832956314087,
      "z": 0.4977070987224579,
      "time_usec": 667833699184
    },
    {
      "x": 9.814162254333496,
      "y": 0.12622138857841492,
      "z": 0.46420758962631226,
      "time_usec": 667833701441
    },
    {
      "x": 9.82373332977295,
      "y": 0.11665010452270508,
      "z": 0.4546363055706024,
      "time_usec": 667833703700
    },
    {
      "x": 9.804591178894043,
      "y": 0.11186445504426956,
      "z": 0.44027936458587646,
      "time_usec": 667833705952
    },
    {
      "x": 9.80937671661377,
      "y": 0.08793623000383377,
      "z": 0.45942193269729614,
      "time_usec": 667833708217
    },
    {
      "x": 9.790233612060547,
      "y": 0.07836493849754333,
      "z": 0.43549370765686035,
      "time_usec": 667833710474
    },
    {
      "x": 9.795019149780273,
      "y": 0.0687936544418335,
      "z": 0.44027936458587646,
      "time_usec": 667833712733
    },
    {
      "x": 9.7998046875,
      "y": 0.05922235921025276,
      "z": 0.4450650215148926,
      "time_usec": 667833714988
    },
    {
      "x": 9.790233612060547,
      "y": 0.04486542567610741,
      "z": 0.46420758962631226,
      "time_usec": 667833717241
    },
    {
      "x": 9.766305923461914,
      "y": 0.03529413416981697,
      "z": 0.4785645306110382,
      "time_usec": 667833719501
    },
    {
      "x": 9.77109146118164,
      "y": 0.049651071429252625,
      "z": 0.48813581466674805,
      "time_usec": 667833721750
    },
    {
      "x": 9.78544807434082,
      "y": 0.04486542567610741,
      "z": 0.4785645306110382,
      "time_usec": 667833724019
    },
    {
      "x": 9.780662536621094,
      "y": 0.030508488416671753,
      "z": 0.46420758962631226,
      "time_usec": 667833726271
    },
    {
      "x": 9.780064582824707,
      "y": 0.020937198773026466,
      "z": 0.4737788736820221,
      "time_usec": 667833728537
    },
    {
      "x": 9.80399227142334,
      "y": 0.03529413416981697,
      "z": 0.49292147159576416,
      "time_usec": 667833730792
    },
    {
      "x": 9.799206733703613,
      "y": 0.030508488416671753,
      "z": 0.5216353535652161,
      "time_usec": 667833733048
    },
    {
      "x": 9.794421195983887,
      "y": 0.05922235921025276,
      "z": 0.5216353535652161,
      "time_usec": 667833735291
    },
    {
      "x": 9.799206733703613,
      "y": 0.04486542567610741,
      "z": 0.5168496966362,
      "time_usec": 667833737551
    },
    {
      "x": 9.780064582824707,
      "y": 0.03529413416981697,
      "z": 0.5264210104942322,
      "time_usec": 667833739817
    },
    {
      "x": 9.770493507385254,
      "y": 0.049651071429252625,
      "z": 0.5216353535652161,
      "time_usec": 667833742081
    },
    {
      "x": 9.747162818908691,
      "y": 0.04007977992296219,
      "z": 0.5066801905632019,
      "time_usec": 667833744328
    },
    {
      "x": 9.694520950317383,
      "y": 0.02153540402650833,
      "z": 0.5018945336341858,
      "time_usec": 667833746592
    },
    {
      "x": 9.675976753234863,
      "y": 0.04546362906694412,
      "z": 0.4875376224517822,
      "time_usec": 667833748854
    },
    {
      "x": 9.652048110961914,
      "y": 0.05024927482008934,
      "z": 0.49232324957847595,
      "time_usec": 667833751116
    },
    {
      "x": 9.661619186401367,
      "y": 0.05024927482008934,
      "z": 0.5018945336341858,
      "time_usec": 667833753368
    },
    {
      "x": 9.647860527038574,
      "y": 0.06939185410737991,
      "z": 0.49710890650749207,
      "time_usec": 667833755620
    },
    {
      "x": 9.68076229095459,
      "y": 0.064606212079525,
      "z": 0.49710890650749207,
      "time_usec": 667833757878
    },
    {
      "x": 9.69511890411377,
      "y": 0.07896314561367035,
      "z": 0.5306084156036377,
      "time_usec": 667833760141
    },
    {
      "x": 9.699904441833496,
      "y": 0.08853443711996078,
      "z": 0.544965386390686,
      "time_usec": 667833762401
    },
    {
      "x": 9.718449592590332,
      "y": 0.10289137065410614,
      "z": 0.5784648656845093,
      "time_usec": 667833764657
    },
    {
      "x": 9.732806205749512,
      "y": 0.11246266216039658,
      "z": 0.6071787476539612,
      "time_usec": 667833766909
    },
    {
      "x": 9.732806205749512,
      "y": 0.12681959569454193,
      "z": 0.631106972694397,
      "time_usec": 667833769173
    },
    {
      "x": 9.737591743469238,
      "y": 0.14117653667926788,
      "z": 0.6502495408058167,
      "time_usec": 667833771431
    },
    {
      "x": 9.737591743469238,
      "y": 0.13160525262355804,
      "z": 0.6598208546638489,
      "time_usec": 667833773687
    },
    {
      "x": 9.736993789672852,
      "y": 0.11724831163883209,
      "z": 0.6550351977348328,
      "time_usec": 667833775940
    },
    {
      "x": 9.751350402832031,
      "y": 0.10767702013254166,
      "z": 0.6454638838768005,
      "time_usec": 667833778201
    },
    {
      "x": 9.718449592590332,
      "y": 0.0933200865983963,
      "z": 0.6358926296234131,
      "time_usec": 667833780456
    },
    {
      "x": 9.732806205749512,
      "y": 0.10289137065410614,
      "z": 0.6023930907249451,
      "time_usec": 667833782719
    },
    {
      "x": 9.708877563476562,
      "y": 0.08374879509210587,
      "z": 0.5928218364715576,
      "time_usec": 667833784974
    },
    {
      "x": 9.718449592590332,
      "y": 0.10289137065410614,
      "z": 0.5784648656845093,
      "time_usec": 667833787230
    },
    {
      "x": 9.718449592590332,
      "y": 0.12203395366668701,
      "z": 0.5880361795425415,
      "time_usec": 667833789491
    },
    {
      "x": 9.728020668029785,
      "y": 0.10767702013254166,
      "z": 0.5593222975730896,
      "time_usec": 667833791746
    },
    {
      "x": 9.737591743469238,
      "y": 0.12622138857841492,
      "z": 0.5353940725326538,
      "time_usec": 667833794005
    },
    {
      "x": 9.728020668029785,
      "y": 0.13160525262355804,
      "z": 0.5641079545021057,
      "time_usec": 667833796255
    },
    {
      "x": 9.728020668029785,
      "y": 0.15074782073497772,
      "z": 0.5784648656845093,
      "time_usec": 667833798519
    },
    {
      "x": 9.737591743469238,
      "y": 0.11246266216039658,
      "z": 0.5928218364715576,
      "time_usec": 667833800779
    },
    {
      "x": 9.728020668029785,
      "y": 0.14117653667926788,
      "z": 0.631106972694397,
      "time_usec": 667833803039
    },
    {
      "x": 9.723235130310059,
      "y": 0.13639089465141296,
      "z": 0.6119644045829773,
      "time_usec": 667833805295
    },
    {
      "x": 9.723235130310059,
      "y": 0.13639089465141296,
      "z": 0.6215356588363647,
      "time_usec": 667833807546
    },
    {
      "x": 9.723235130310059,
      "y": 0.11246266216039658,
      "z": 0.5880361795425415,
      "time_usec": 667833809806
    },
    {
      "x": 9.732806205749512,
      "y": 0.11724831163883209,
      "z": 0.5928218364715576,
      "time_usec": 667833812064
    },
    {
      "x": 9.728020668029785,
      "y": 0.12681959569454193,
      "z": 0.597607433795929,
      "time_usec": 667833814313
    },
    {
      "x": 9.742377281188965,
      "y": 0.11724831163883209,
      "z": 0.6071787476539612,
      "time_usec": 667833816578
    },
    {
      "x": 9.756733894348145,
      "y": 0.11665010452270508,
      "z": 0.6071787476539612,
      "time_usec": 667833818840
    },
    {
      "x": 9.747162818908691,
      "y": 0.11724831163883209,
      "z": 0.6215356588363647,
      "time_usec": 667833821101
    },
    {
      "x": 9.760921478271484,
      "y": 0.11665010452270508,
      "z": 0.631106972694397,
      "time_usec": 667833823358
    },
    {
      "x": 9.77527904510498,
      "y": 0.12622138857841492,
      "z": 0.6598208546638489,
      "time_usec": 667833825608
    },
    {
      "x": 9.770493507385254,
      "y": 0.13160525262355804,
      "z": 0.6693921089172363,
      "time_usec": 667833827862
    },
    {
      "x": 9.77527904510498,
      "y": 0.13100704550743103,
      "z": 0.6693921089172363,
      "time_usec": 667833830115
    },
    {
      "x": 9.784850120544434,
      "y": 0.12143574655056,
      "z": 0.6454638838768005,
      "time_usec": 667833832387
    },
    {
      "x": 9.799206733703613,
      "y": 0.12622138857841492,
      "z": 0.6029912829399109,
      "time_usec": 667833834642
    },
    {
      "x": 9.827920913696289,
      "y": 0.13100704550743103,
      "z": 0.5838487148284912,
      "time_usec": 667833836890
    },
    {
      "x": 9.827920913696289,
      "y": 0.14057832956314087,
      "z": 0.5455635786056519,
      "time_usec": 667833839152
    },
    {
      "x": 9.828518867492676,
      "y": 0.13579268753528595,
      "z": 0.5168496966362,
      "time_usec": 667833841419
    },
    {
      "x": 9.852447509765625,
      "y": 0.15912270545959473,
      "z": 0.4983053207397461,
      "time_usec": 667833843677
    },
    {
      "x": 9.866804122924805,
      "y": 0.15912270545959473,
      "z": 0.4743770956993103,
      "time_usec": 667833845928
    },
    {
      "x": 9.871589660644531,
      "y": 0.1782652884721756,
      "z": 0.4743770956993103,
      "time_usec": 667833848188
    },
    {
      "x": 9.871589660644531,
      "y": 0.17347964644432068,
      "z": 0.46002015471458435,
      "time_usec": 667833850442
    },
    {
      "x": 9.880562782287598,
      "y": 0.17347964644432068,
      "z": 0.5030909776687622,
      "time_usec": 667833852706
    },
    {
      "x": 9.866206169128418,
      "y": 0.1495514214038849,
      "z": 0.5174478888511658,
      "time_usec": 667833854961
    },
    {
      "x": 9.856635093688965,
      "y": 0.1495514214038849,
      "z": 0.5120640397071838,
      "time_usec": 667833857216
    },
    {
      "x": 9.861420631408691,
      "y": 0.15912270545959473,
      "z": 0.5222335457801819,
      "time_usec": 667833859481
    },
    {
      "x": 9.842277526855469,
      "y": 0.15972091257572174,
      "z": 0.5551348328590393,
      "time_usec": 667833861742
    },
    {
      "x": 9.827920913696289,
      "y": 0.13579268753528595,
      "z": 0.5742774605751038,
      "time_usec": 667833863993
    },
    {
      "x": 9.837491989135742,
      "y": 0.1501496136188507,
      "z": 0.6029912829399109,
      "time_usec": 667833866245
    },
    {
      "x": 9.818349838256836,
      "y": 0.1740778535604477,
      "z": 0.5934200286865234,
      "time_usec": 667833868505
    },
    {
      "x": 9.818947792053223,
      "y": 0.16929219663143158,
      "z": 0.5742774605751038,
      "time_usec": 667833870761
    },
    {
      "x": 9.832706451416016,
      "y": 0.16450655460357666,
      "z": 0.5934200286865234,
      "time_usec": 667833873024
    },
    {
      "x": 9.842277526855469,
      "y": 0.18843477964401245,
      "z": 0.5982056856155396,
      "time_usec": 667833875280
    },
    {
      "x": 9.80937671661377,
      "y": 0.19322042167186737,
      "z": 0.5838487148284912,
      "time_usec": 667833877533
    },
    {
      "x": 9.7998046875,
      "y": 0.20757736265659332,
      "z": 0.5694918036460876,
      "time_usec": 667833879784
    },
    {
      "x": 9.804591178894043,
      "y": 0.20757736265659332,
      "z": 0.5838487148284912,
      "time_usec": 667833882054
    },
    {
      "x": 9.804591178894043,
      "y": 0.2267199456691742,
      "z": 0.5934200286865234,
      "time_usec": 667833884312
    },
    {
      "x": 9.7998046875,
      "y": 0.25064817070961,
      "z": 0.5790630578994751,
      "time_usec": 667833886567
    },
    {
      "x": 9.790233612060547,
      "y": 0.24586252868175507,
      "z": 0.5982056856155396,
      "time_usec": 667833888827
    },
    {
      "x": 9.762118339538574,
      "y": 0.2512463629245758,
      "z": 0.597607433795929,
      "time_usec": 667833891085
    },
    {
      "x": 9.780662536621094,
      "y": 0.2554338276386261,
      "z": 0.6029912829399109,
      "time_usec": 667833893344
    },
    {
      "x": 9.766305923461914,
      "y": 0.24167509377002716,
      "z": 0.6119644045829773,
      "time_usec": 667833895601
    },
    {
      "x": 9.742975234985352,
      "y": 0.20338992774486542,
      "z": 0.6023930907249451,
      "time_usec": 667833897852
    },
    {
      "x": 9.756733894348145,
      "y": 0.18424734473228455,
      "z": 0.5880361795425415,
      "time_usec": 667833900115
    },
    {
      "x": 9.77109146118164,
      "y": 0.1788634955883026,
      "z": 0.6119644045829773,
      "time_usec": 667833902372
    },
    {
      "x": 9.732806205749512,
      "y": 0.16031911969184875,
      "z": 0.631106972694397,
      "time_usec": 667833904630
    },
    {
      "x": 9.742377281188965,
      "y": 0.15553347766399384,
      "z": 0.6406782865524292,
      "time_usec": 667833906883
    },
    {
      "x": 9.742377281188965,
      "y": 0.16510476171970367,
      "z": 0.6454638838768005,
      "time_usec": 667833909146
    },
    {
