{
  "accelerations": [
    {
      "x": 9.783653259277344,
      "y": -0.06640082597732544,
      "z": 0.0891326442360878,
      "time_usec": 99769211221
    },
    {
      "x": 9.806983947753906,
      "y": -0.04247260093688965,
      "z": 0.12741780281066895,
      "time_usec": 99769213478
    },
    {
      "x": 9.81655502319336,
      "y": -0.028115665540099144,
      "z": 0.13220344483852386,
      "time_usec": 99769215735
    },
    {
      "x": 9.79262638092041,
      "y": 5.982056609354913E-4,
      "z": 0.16510476171970367,
      "time_usec": 99769217992
    },
    {
      "x": 9.78843879699707,
      "y": 0.005383851006627083,
      "z": 0.15553347766399384,
      "time_usec": 99769220251
    },
    {
      "x": 9.764511108398438,
      "y": 0.010169495828449726,
      "z": 0.16510476171970367,
      "time_usec": 99769222509
    },
    {
      "x": 9.745368003845215,
      "y": 0.010767702013254166,
      "z": 0.15074782073497772,
      "time_usec": 99769224763
    },
    {
      "x": 9.716654777526855,
      "y": 0.005982056725770235,
      "z": 0.15553347766399384,
      "time_usec": 99769227020
    },
    {
      "x": 9.68375301361084,
      "y": 0.005982056725770235,
      "z": 0.1501496136188507,
      "time_usec": 99769229278
    },
    {
      "x": 9.664610862731934,
      "y": -0.017946170642971992,
      "z": 0.1453639715909958,
      "time_usec": 99769231536
    },
    {
      "x": 9.645467758178711,
      "y": -0.02273181453347206,
      "z": 0.15493527054786682,
      "time_usec": 99769233792
    },
    {
      "x": 9.659825325012207,
      "y": -0.017946170642971992,
      "z": 0.12143574655056,
      "time_usec": 99769236050
    },
    {
      "x": 9.68375301361084,
      "y": 0.0011964113218709826,
      "z": 0.12681959569454193,
      "time_usec": 99769238308
    },
    {
      "x": 9.698110580444336,
      "y": -0.02273181453347206,
      "z": 0.14117653667926788,
      "time_usec": 99769240566
    },
    {
      "x": 9.735796928405762,
      "y": -0.008374879136681557,
      "z": 0.15553347766399384,
      "time_usec": 99769242828
    },
    {
      "x": 9.731011390686035,
      "y": -0.008374879136681557,
      "z": 0.14117653667926788,
      "time_usec": 99769245087
    },
    {
      "x": 9.731609344482422,
      "y": 0.0011964113218709826,
      "z": 0.13639089465141296,
      "time_usec": 99769247339
    },
    {
      "x": 9.745368003845215,
      "y": -0.008973085321485996,
      "z": 0.11724831163883209,
      "time_usec": 99769249605
    },
    {
      "x": 9.745368003845215,
      "y": -0.008973085321485996,
      "z": 0.11724831163883209,
      "time_usec": 99769251848
    },
    {
      "x": 9.759725570678711,
      "y": -0.008973085321485996,
      "z": 0.09810572862625122,
      "time_usec": 99769254108
    },
    {
      "x": 9.769296646118164,
      "y": -0.023330021649599075,
      "z": 0.07477571070194244,
      "time_usec": 99769256363
    },
    {
      "x": 9.755537986755371,
      "y": -0.018544375896453857,
      "z": 0.05024927482008934,
      "time_usec": 99769258621
    },
    {
      "x": 9.765109062194824,
      "y": -0.023330021649599075,
      "z": 0.04127619042992592,
      "time_usec": 99769260881
    },
    {
      "x": 9.779465675354004,
      "y": -0.008973085321485996,
      "z": 0.04127619042992592,
      "time_usec": 99769263145
    },
    {
      "x": 9.803394317626953,
      "y": 0.010169495828449726,
      "z": 0.022133609279990196,
      "time_usec": 99769265393
    },
    {
      "x": 9.822537422180176,
      "y": 0.014356935396790504,
      "z": 0.0029910283628851175,
      "time_usec": 99769267653
    },
    {
      "x": 9.836296081542969,
      "y": 0.03349951654672623,
      "z": 0.012562318705022335,
      "time_usec": 99769269921
    },
    {
      "x": 9.851250648498535,
      "y": 0.08614161610603333,
      "z": 0.0029910283628851175,
      "time_usec": 99769272181
    },
    {
      "x": 9.893723487854004,
      "y": 0.11964113265275955,
      "z": -0.0011964113218709826,
      "time_usec": 99769274437
    },
    {
      "x": 9.870393753051758,
      "y": 0.1339980661869049,
      "z": -0.02512463741004467,
      "time_usec": 99769276687
    },
    {
      "x": 9.856635093688965,
      "y": 0.17706887423992157,
      "z": -0.039481572806835175,
      "time_usec": 99769278949
    },
    {
      "x": 9.856635093688965,
      "y": 0.1818545162677765,
      "z": -0.06340979784727097,
      "time_usec": 99769281206
    },
    {
      "x": 9.861420631408691,
      "y": 0.1579262912273407,
      "z": -0.08255238085985184,
      "time_usec": 99769283463
    },
    {
      "x": 9.837491989135742,
      "y": 0.17228323221206665,
      "z": -0.09212367236614227,
      "time_usec": 99769285715
    },
    {
      "x": 9.833304405212402,
      "y": 0.17706887423992157,
      "z": -0.10648060590028763,
      "time_usec": 99769287974
    },
    {
      "x": 9.837491989135742,
      "y": 0.15314064919948578,
      "z": -0.10648060590028763,
      "time_usec": 99769290222
    },
    {
      "x": 9.847063064575195,
      "y": 0.13878370821475983,
      "z": -0.09212367236614227,
      "time_usec": 99769292491
    },
    {
      "x": 9.851848602294922,
      "y": 0.12921242415905,
      "z": -0.06819544732570648,
      "time_usec": 99769294737
    },
    {
      "x": 9.837491989135742,
      "y": 0.14356936514377594,
      "z": -0.03469592705368996,
      "time_usec": 99769297004
    },
    {
      "x": 9.851250648498535,
      "y": 0.11485548317432404,
      "z": -0.015553346835076809,
      "time_usec": 99769299263
    },
    {
      "x": 9.851250648498535,
      "y": 0.13878370821475983,
      "z": -0.0011964113218709826,
      "time_usec": 99769301524
    },
    {
      "x": 9.856036186218262,
      "y": 0.15314064919948578,
      "z": 0.013160524889826775,
      "time_usec": 99769303778
    },
    {
      "x": 9.841679573059082,
      "y": 0.14835500717163086,
      "z": 0.0077766734175384045,
      "time_usec": 99769306027
    },
    {
      "x": 9.875179290771484,
      "y": 0.16271193325519562,
      "z": 0.017946170642971992,
      "time_usec": 99769308280
    },
    {
      "x": 9.884750366210938,
      "y": 0.1866401731967926,
      "z": -0.0011964113218709826,
      "time_usec": 99769310550
    },
    {
      "x": 9.908679008483887,
      "y": 0.1866401731967926,
      "z": 0.003589233849197626,
      "time_usec": 99769312807
    },
    {
      "x": 9.908679008483887,
      "y": 0.20099709928035736,
      "z": -0.005982056725770235,
      "time_usec": 99769315062
    },
    {
      "x": 9.93260669708252,
      "y": 0.19142581522464752,
      "z": -0.015553346835076809,
      "time_usec": 99769317316
    },
    {
      "x": 9.941579818725586,
      "y": 0.19142581522464752,
      "z": 0.003589233849197626,
      "time_usec": 99769319578
    },
    {
      "x": 9.946365356445312,
      "y": 0.19142581522464752,
      "z": 0.02751746028661728,
      "time_usec": 99769321836
    },
    {
      "x": 9.932008743286133,
      "y": 0.17706887423992157,
      "z": 0.02751746028661728,
      "time_usec": 99769324093
    },
    {
      "x": 9.927223205566406,
      "y": 0.16749759018421173,
      "z": 0.02751746028661728,
      "time_usec": 99769326346
    },
    {
      "x": 9.908080101013184,
      "y": 0.17228323221206665,
      "z": 0.0323031060397625,
      "time_usec": 99769328608
    },
    {
      "x": 9.903892517089844,
      "y": 0.17228323221206665,
      "z": 0.017946170642971992,
      "time_usec": 99769330864
    },
    {
      "x": 9.879366874694824,
      "y": 0.14356936514377594,
      "z": 0.07956135272979736,
      "time_usec": 99769333121
    },
    {
      "x": 9.865009307861328,
      "y": 0.14835500717163086,
      "z": 0.09391828626394272,
      "time_usec": 99769335373
    },
    {
      "x": 9.822537422180176,
      "y": 0.14416755735874176,
      "z": 0.09870393574237823,
      "time_usec": 99769337631
    },
    {
      "x": 9.817152976989746,
      "y": 0.13459627330303192,
      "z": 0.13698910176753998,
      "time_usec": 99769339893
    },
    {
      "x": 9.779465675354004,
      "y": 0.11545369029045105,
      "z": 0.13639089465141296,
      "time_usec": 99769342151
    },
    {
      "x": 9.745966911315918,
      "y": 0.11605189740657806,
      "z": 0.15074782073497772,
      "time_usec": 99769344405
    },
    {
      "x": 9.741181373596191,
      "y": 0.10648060590028763,
      "z": 0.13160525262355804,
      "time_usec": 99769346653
    },
    {
      "x": 9.731609344482422,
      "y": 0.08255238085985184,
      "z": 0.11246266216039658,
      "time_usec": 99769348922
    },
    {
      "x": 9.727422714233398,
      "y": 0.09690931439399719,
      "z": 0.10767702013254166,
      "time_usec": 99769351179
    },
    {
      "x": 9.722636222839355,
      "y": 0.10648060590028763,
      "z": 0.06939185410737991,
      "time_usec": 99769353438
    },
    {
      "x": 9.755537986755371,
      "y": 0.0771685317158699,
      "z": 0.0933200865983963,
      "time_usec": 99769355688
    },
    {
      "x": 9.751350402832031,
      "y": 0.08195417374372482,
      "z": 0.022133609279990196,
      "time_usec": 99769357950
    },
    {
      "x": 9.778867721557617,
      "y": 0.05802594870328903,
      "z": 0.11724831163883209,
      "time_usec": 99769360209
    },
    {
      "x": 9.78963565826416,
      "y": 0.08673982322216034,
      "z": -0.025722842663526535,
      "time_usec": 99769362470
    },
    {
      "x": 9.784252166748047,
      "y": 0.08673982322216034,
      "z": 0.09870393574237823,
      "time_usec": 99769364722
    },
    {
      "x": 9.803394317626953,
      "y": 0.09152546525001526,
      "z": 0.04127619042992592,
      "time_usec": 99769366975
    },
    {
      "x": 9.798608779907227,
      "y": 0.1010967567563057,
      "z": 0.03170489892363548,
      "time_usec": 99769369235
    },
    {
      "x": 9.817152976989746,
      "y": 0.06281159073114395,
      "z": 0.17527425289154053,
      "time_usec": 99769371493
    },
    {
      "x": 9.803394317626953,
      "y": 0.07238288223743439,
      "z": 0.022133609279990196,
      "time_usec": 99769373751
    },
    {
      "x": 9.79801082611084,
      "y": 0.08195417374372482,
      "z": 0.13220344483852386,
      "time_usec": 99769376003
    },
    {
      "x": 9.81236743927002,
      "y": 0.048454657196998596,
      "z": 0.13220344483852386,
      "time_usec": 99769378265
    },
    {
      "x": 9.7938232421875,
      "y": 0.0771685317158699,
      "z": 0.10348957777023315,
      "time_usec": 99769380523
    },
    {
      "x": 9.783653259277344,
      "y": 0.053240302950143814,
      "z": 0.1746760457754135,
      "time_usec": 99769382782
    },
    {
      "x": 9.802796363830566,
      "y": 0.053240302950143814,
      "z": 0.15613168478012085,
      "time_usec": 99769385037
    },
    {
      "x": 9.817152976989746,
      "y": 0.05802594870328903,
      "z": 0.1657029688358307,
      "time_usec": 99769387290
    },
    {
      "x": 9.817152976989746,
      "y": 0.07238288223743439,
      "z": 0.1704886108636856,
      "time_usec": 99769389551
    },
    {
      "x": 9.831509590148926,
      "y": 0.06281159073114395,
      "z": 0.1417747437953949,
      "time_usec": 99769391809
    },
    {
      "x": 9.873982429504395,
      "y": 0.07178468257188797,
      "z": 0.16091732680797577,
      "time_usec": 99769394060
    },
    {
      "x": 9.90269660949707,
      "y": 0.08135596662759781,
      "z": 0.16091732680797577,
      "time_usec": 99769396318
    },
    {
      "x": 9.91705322265625,
      "y": 0.10049854964017868,
      "z": 0.14715859293937683,
      "time_usec": 99769398580
    },
    {
      "x": 9.950552940368652,
      "y": 0.11485548317432404,
      "z": 0.1423729509115219,
      "time_usec": 99769400840
    },
    {
      "x": 9.969097137451172,
      "y": 0.12442677468061447,
      "z": 0.12801600992679596,
      "time_usec": 99769403095
    },
    {
      "x": 9.9409818649292,
      "y": 0.11485548317432404,
      "z": 0.10887342691421509,
      "time_usec": 99769405346
    },
    {
      "x": 9.917651176452637,
      "y": 0.12442677468061447,
      "z": 0.06580262631177902,
      "time_usec": 99769407606
    },
    {
      "x": 9.91286563873291,
      "y": 0.11964113265275955,
      "z": 0.061016976833343506,
      "time_usec": 99769409866
    },
    {
      "x": 9.908080101013184,
      "y": 0.11964113265275955,
      "z": 0.08973085135221481,
      "time_usec": 99769412122
    },
    {
      "x": 9.888937950134277,
      "y": 0.09092725813388824,
      "z": 0.09451649338006973,
      "time_usec": 99769414373
    },
    {
      "x": 9.841081619262695,
      "y": 0.06759724020957947,
      "z": 0.13220344483852386,
      "time_usec": 99769416632
    },
    {
      "x": 9.8267240524292,
      "y": 0.04366901144385338,
      "z": 0.13220344483852386,
      "time_usec": 99769418896
    },
    {
      "x": 9.79801082611084,
      "y": 0.03888336941599846,
      "z": 0.15074782073497772,
      "time_usec": 99769421154
    },
    {
      "x": 9.77408218383789,
      "y": 0.014955141581594944,
      "z": 0.16031911969184875,
      "time_usec": 99769423409
    },
    {
      "x": 9.735796928405762,
      "y": 0.0011964113218709826,
      "z": 0.1746760457754135,
      "time_usec": 99769425658
    },
    {
      "x": 9.716654777526855,
      "y": -0.013160524889826775,
      "z": 0.19381862878799438,
      "time_usec": 99769427910
    },
    {
      "x": 9.697511672973633,
      "y": -0.037088751792907715,
      "z": 0.21714866161346436,
      "time_usec": 99769430181
    },
    {
      "x": 9.70229721069336,
      "y": -0.04666004329919815,
      "z": 0.23629122972488403,
      "time_usec": 99769432439
    },
    {
      "x": 9.68794059753418,
      "y": -0.05144568532705307,
      "z": 0.2554338276386261,
      "time_usec": 99769434697
    },
    {
      "x": 9.673583984375,
      "y": -0.061016976833343506,
      "z": 0.2554338276386261,
      "time_usec": 99769436949
    },
    {
      "x": 9.659226417541504,
      "y": -0.06580262631177902,
      "z": 0.24107688665390015,
      "time_usec": 99769439210
    },
    {
      "x": 9.659226417541504,
      "y": -0.05144568532705307,
      "z": 0.2554338276386261,
      "time_usec": 99769441464
    },
    {
      "x": 9.673583984375,
      "y": -0.06580262631177902,
      "z": 0.25064817070961,
      "time_usec": 99769443711
    },
    {
      "x": 9.668798446655273,
      "y": -0.05623133108019829,
      "z": 0.2554338276386261,
      "time_usec": 99769445973
    },
    {
      "x": 9.70229721069336,
      "y": -0.037088751792907715,
      "z": 0.23629122972488403,
      "time_usec": 99769448225
    },
    {
      "x": 9.70229721069336,
      "y": -0.04187439754605293,
      "z": 0.21236300468444824,
      "time_usec": 99769450495
    },
    {
      "x": 9.68794059753418,
      "y": -0.05623133108019829,
      "z": 0.1788634955883026,
      "time_usec": 99769452741
    },
    {
      "x": 9.664610862731934,
      "y": -0.04666004329919815,
      "z": 0.14057832956314087,
      "time_usec": 99769455011
    },
    {
      "x": 9.659825325012207,
      "y": -0.05144568532705307,
      "z": 0.14057832956314087,
      "time_usec": 99769457254
    },
    {
      "x": 9.66939640045166,
      "y": -0.0323031060397625,
      "z": 0.13579268753528595,
      "time_usec": 99769459528
    },
    {
      "x": 9.635896682739258,
      "y": -0.037088751792907715,
      "z": 0.1501496136188507,
      "time_usec": 99769461782
    },
    {
      "x": 9.641280174255371,
      "y": 0.0011964113218709826,
      "z": 0.15493527054786682,
      "time_usec": 99769464043
    },
    {
      "x": 9.664610862731934,
      "y": 0.0011964113218709826,
      "z": 0.16450655460357666,
      "time_usec": 99769466290
    },
    {
      "x": 9.702896118164062,
      "y": 0.015553346835076809,
      "z": 0.15553347766399384,
      "time_usec": 99769468553
    },
    {
      "x": 9.678967475891113,
      "y": 0.02512463741004467,
      "z": 0.13579268753528595,
      "time_usec": 99769470807
    },
    {
      "x": 9.68375301361084,
      "y": 0.0011964113218709826,
      "z": 0.13160525262355804,
      "time_usec": 99769473055
    },
    {
      "x": 9.698110580444336,
      "y": -0.008374879136681557,
      "z": 0.12203395366668701,
      "time_usec": 99769475318
    },
    {
      "x": 9.68375301361084,
      "y": 0.005982056725770235,
      "z": 0.10767702013254166,
      "time_usec": 99769477576
    },
    {
      "x": 9.684351921081543,
      "y": 0.015553346835076809,
      "z": 0.059820566326379776,
      "time_usec": 99769479842
    },
    {
      "x": 9.702896118164062,
      "y": -0.017946170642971992,
      "z": 0.05503492057323456,
      "time_usec": 99769482095
    },
    {
      "x": 9.6795654296875,
      "y": 0.0011964113218709826,
      "z": 0.06939185410737991,
      "time_usec": 99769484341
    },
    {
      "x": 9.693922996520996,
      "y": 0.005982056725770235,
      "z": 0.06939185410737991,
      "time_usec": 99769486605
    },
    {
      "x": 9.70349407196045,
      "y": 0.039481572806835175,
      "z": 0.05024927482008934,
      "time_usec": 99769488867
    },
    {
      "x": 9.698708534240723,
      "y": 0.05383851006627083,
      "z": 0.064606212079525,
      "time_usec": 99769491127
    },
    {
      "x": 9.713065147399902,
      "y": 0.03409772366285324,
      "z": 0.040677983313798904,
      "time_usec": 99769493376
    },
    {
      "x": 9.732208251953125,
      "y": 0.05802594870328903,
      "z": 0.05503492057323456,
      "time_usec": 99769495634
    },
    {
      "x": 9.741779327392578,
      "y": 0.08195417374372482,
      "z": 0.05503492057323456,
      "time_usec": 99769497896
    },
    {
      "x": 9.732208251953125,
      "y": 0.06759724020957947,
      "z": 0.05503492057323456,
      "time_usec": 99769500152
    },
    {
      "x": 9.746564865112305,
      "y": 0.1010967567563057,
      "z": 0.031106693670153618,
      "time_usec": 99769502396
    },
    {
      "x": 9.751350402832031,
      "y": 0.11066804826259613,
      "z": 0.03170489892363548,
      "time_usec": 99769504652
    },
    {
      "x": 9.746564865112305,
      "y": 0.12023933976888657,
      "z": 0.0077766734175384045,
      "time_usec": 99769506907
    },
    {
      "x": 9.751948356628418,
      "y": 0.1537388563156128,
      "z": 0.0077766734175384045,
      "time_usec": 99769509172
    },
    {
      "x": 9.737591743469238,
      "y": 0.13459627330303192,
      "z": 0.01196411345154047,
      "time_usec": 99769511439
    },
    {
      "x": 9.747162818908691,
      "y": 0.16331014037132263,
      "z": -0.001794616924598813,
      "time_usec": 99769513695
    },
    {
      "x": 9.737591743469238,
      "y": 0.13938191533088684,
      "z": 0.007178467698395252,
      "time_usec": 99769515951
    },
    {
      "x": 9.747162818908691,
      "y": 0.14416755735874176,
      "z": 0.012562318705022335,
      "time_usec": 99769518211
    },
    {
      "x": 9.746564865112305,
      "y": 0.14895321428775787,
      "z": 0.031106693670153618,
      "time_usec": 99769520468
    },
    {
      "x": 9.732208251953125,
      "y": 0.12502498924732208,
      "z": 0.035892341285943985,
      "time_usec": 99769522727
    },
    {
      "x": 9.708279609680176,
      "y": 0.11605189740657806,
      "z": 0.07417750358581543,
      "time_usec": 99769524982
    },
    {
      "x": 9.70349407196045,
      "y": 0.11126625537872314,
      "z": 0.08374879509210587,
      "time_usec": 99769527236
    },
    {
      "x": 9.717850685119629,
      "y": 0.09690931439399719,
      "z": 0.08374879509210587,
      "time_usec": 99769529500
    },
    {
      "x": 9.708279609680176,
      "y": 0.06340979784727097,
      "z": 0.10767702013254166,
      "time_usec": 99769531755
    },
    {
      "x": 9.717252731323242,
      "y": 0.06340979784727097,
      "z": 0.12203395366668701,
      "time_usec": 99769534010
    },
    {
      "x": 9.726823806762695,
      "y": 0.06340979784727097,
      "z": 0.13160525262355804,
      "time_usec": 99769536258
    },
    {
      "x": 9.717252731323242,
      "y": 0.04905286431312561,
      "z": 0.12203395366668701,
      "time_usec": 99769538525
    },
    {
      "x": 9.712467193603516,
      "y": 0.04905286431312561,
      "z": 0.11724831163883209,
      "time_usec": 99769540783
    },
    {
      "x": 9.698708534240723,
      "y": 0.039481572806835175,
      "z": 0.10289137065410614,
      "time_usec": 99769543046
    },
    {
      "x": 9.693922996520996,
      "y": 0.020338991656899452,
      "z": 0.07896314561367035,
      "time_usec": 99769545292
    },
    {
      "x": 9.693922996520996,
      "y": 0.03469592705368996,
      "z": 0.08853443711996078,
      "time_usec": 99769547549
    },
    {
      "x": 9.693922996520996,
      "y": 0.010767702013254166,
      "z": 0.07417750358581543,
      "time_usec": 99769549809
    },
    {
      "x": 9.522835731506348,
      "y": -0.04127619042992592,
      "z": 0.03469592705368996,
      "time_usec": 99769552065
    },
    {
      "x": 9.779465675354004,
      "y": 0.053240302950143814,
      "z": 0.07956135272979736,
      "time_usec": 99769554326
    },
    {
      "x": 9.789037704467773,
      "y": 0.048454657196998596,
      "z": 0.07477571070194244,
      "time_usec": 99769556578
    },
    {
      "x": 9.57487964630127,
      "y": -0.0077766734175384045,
      "z": 0.0687936544418335,
      "time_usec": 99769558842
    },
    {
      "x": 9.65085220336914,
      "y": 0.0011964113218709826,
      "z": 0.05024927482008934,
      "time_usec": 99769561099
    },
    {
      "x": 9.708279609680176,
      "y": 0.029910283163189888,
      "z": 0.059820566326379776,
      "time_usec": 99769563361
    },
    {
      "x": 9.631709098815918,
      "y": 0.0011964113218709826,
      "z": 0.0687936544418335,
      "time_usec": 99769565605
    },
    {
      "x": 9.612566947937012,
      "y": -0.02751746028661728,
      "z": 0.08793623000383377,
      "time_usec": 99769567863
    },
    {
      "x": 9.655637741088867,
      "y": 0.0011964113218709826,
      "z": 0.10707881301641464,
      "time_usec": 99769570123
    },
    {
      "x": 9.646066665649414,
      "y": 0.02512463741004467,
      "z": 0.10707881301641464,
      "time_usec": 99769572374
    },
    {
      "x": 9.636494636535645,
      "y": -0.02273181453347206,
      "z": 0.12143574655056,
      "time_usec": 99769574627
    },
    {
      "x": 9.66520881652832,
      "y": 0.015553346835076809,
      "z": 0.11665010452270508,
      "time_usec": 99769576886
    },
    {
      "x": 9.68375301361084,
      "y": 0.010767702013254166,
      "z": 0.11246266216039658,
      "time_usec": 99769579156
    },
    {
      "x": 9.68375301361084,
      "y": 0.029910283163189888,
      "z": 0.13160525262355804,
      "time_usec": 99769581415
    },
    {
      "x": 9.698110580444336,
      "y": 0.010767702013254166,
      "z": 0.13639089465141296,
      "time_usec": 99769583671
    },
    {
      "x": 9.693324089050293,
      "y": 0.029910283163189888,
      "z": 0.13639089465141296,
      "time_usec": 99769585924
    },
    {
      "x": 9.712467193603516,
      "y": 0.03469592705368996,
      "z": 0.12203395366668701,
      "time_usec": 99769588184
    },
    {
      "x": 9.722038269042969,
      "y": 0.04426721855998039,
      "z": 0.10767702013254166,
      "time_usec": 99769590441
    },
    {
      "x": 9.745966911315918,
      "y": 0.048454657196998596,
      "z": 0.12681959569454193,
      "time_usec": 99769592700
    },
    {
      "x": 9.793225288391113,
      "y": 0.05802594870328903,
      "z": 0.11306086927652359,
      "time_usec": 99769594952
    },
    {
      "x": 9.793225288391113,
      "y": 0.06759724020957947,
      "z": 0.12741780281066895,
      "time_usec": 99769597200
    },
    {
      "x": 9.8267240524292,
      "y": 0.05802594870328903,
      "z": 0.1417747437953949,
      "time_usec": 99769599471
    },
    {
      "x": 9.859625816345215,
      "y": 0.0771685317158699,
      "z": 0.13698910176753998,
      "time_usec": 99769601727
    },
    {
      "x": 9.883553504943848,
      "y": 0.09092725813388824,
      "z": 0.1417747437953949,
      "time_usec": 99769603987
    },
    {
      "x": 9.893125534057617,
      "y": 0.09092725813388824,
      "z": 0.1657029688358307,
      "time_usec": 99769606236
    },
    {
      "x": 9.916455268859863,
      "y": 0.07657032459974289,
      "z": 0.18963119387626648,
      "time_usec": 99769608499
    },
    {
      "x": 9.93559741973877,
      "y": 0.09571290761232376,
      "z": 0.2183450609445572,
      "time_usec": 99769610756
    },
    {
      "x": 9.916455268859863,
      "y": 0.07657032459974289,
      "z": 0.251844584941864,
      "time_usec": 99769613013
    },
    {
      "x": 9.916455268859863,
      "y": 0.05742774158716202,
      "z": 0.24227328598499298,
      "time_usec": 99769615263
    },
    {
      "x": 9.896714210510254,
      "y": 0.029312077909708023,
      "z": 0.26620152592658997,
      "time_usec": 99769617523
    },
    {
      "x": 9.868598937988281,
      "y": 0.010169495828449726,
      "z": 0.2757728099822998,
      "time_usec": 99769619786
    },
    {
      "x": 9.853643417358398,
      "y": -0.01375873014330864,
      "z": 0.31824541091918945,
      "time_usec": 99769622048
    },
    {
      "x": 9.8207426071167,
      "y": -0.004187439568340778,
      "z": 0.3278166949748993,
      "time_usec": 99769624299
    },
    {
      "x": 9.801599502563477,
      "y": -0.02751746028661728,
      "z": 0.3326023519039154,
      "time_usec": 99769626551
    },
    {
      "x": 9.820143699645996,
      "y": -0.018544375896453857,
      "z": 0.3565305769443512,
      "time_usec": 99769628811
    },
    {
      "x": 9.834501266479492,
      "y": -0.028115665540099144,
      "z": 0.380458801984787,
      "time_usec": 99769631066
    },
    {
      "x": 9.805787086486816,
      "y": -0.05144568532705307,
      "z": 0.39960137009620667,
      "time_usec": 99769633329
    },
    {
      "x": 9.805787086486816,
      "y": -0.037088751792907715,
      "z": 0.39481574296951294,
      "time_usec": 99769635581
    },
    {
      "x": 9.767501831054688,
      "y": -0.04666004329919815,
      "z": 0.40378883481025696,
      "time_usec": 99769637843
    },
    {
      "x": 9.758528709411621,
      "y": -0.04187439754605293,
      "z": 0.39421752095222473,
      "time_usec": 99769640101
    },
    {
      "x": 9.753743171691895,
      "y": -0.037088751792907715,
      "z": 0.39421752095222473,
      "time_usec": 99769642363
    },
    {
      "x": 9.739386558532715,
      "y": -0.05623133108019829,
      "z": 0.3846462368965149,
      "time_usec": 99769644613
    },
    {
      "x": 9.739386558532715,
      "y": -0.06580262631177902,
      "z": 0.39900317788124084,
      "time_usec": 99769646864
    },
    {
      "x": 9.734601020812988,
      "y": -0.05144568532705307,
      "z": 0.389431893825531,
      "time_usec": 99769649112
    },
    {
      "x": 9.729216575622559,
      "y": -0.09451649338006973,
      "z": 0.40378883481025696,
      "time_usec": 99769651376
    },
    {
      "x": 9.729815483093262,
      "y": -0.09451649338006973,
      "z": 0.39421752095222473,
      "time_usec": 99769653643
    },
    {
      "x": 9.719645500183105,
      "y": -0.1423729509115219,
      "z": 0.40378883481025696,
      "time_usec": 99769655898
    },
    {
      "x": 9.719645500183105,
      "y": -0.14715859293937683,
      "z": 0.3798605799674988,
      "time_usec": 99769658159
    },
    {
      "x": 9.701101303100586,
      "y": -0.13280165195465088,
      "z": 0.3798605799674988,
      "time_usec": 99769660414
    },
    {
      "x": 9.701101303100586,
      "y": -0.15672987699508667,
      "z": 0.37507495284080505,
      "time_usec": 99769662672
    },
    {
      "x": 9.677172660827637,
      "y": -0.17587246000766754,
      "z": 0.355932354927063,
      "time_usec": 99769664927
    },
    {
      "x": 9.69631576538086,
      "y": -0.15194423496723175,
      "z": 0.34636107087135315,
      "time_usec": 99769667180
    },
    {
      "x": 9.725028991699219,
      "y": -0.137587308883667,
      "z": 0.3080759048461914,
      "time_usec": 99769669440
    },
    {
      "x": 9.748957633972168,
      "y": -0.13280165195465088,
      "z": 0.31764721870422363,
      "time_usec": 99769671688
    },
    {
      "x": 9.777671813964844,
      "y": -0.1094716340303421,
      "z": 0.2799602448940277,
      "time_usec": 99769673958
    },
    {
      "x": 9.806385040283203,
      "y": -0.11425728350877762,
      "z": 0.26560330390930176,
      "time_usec": 99769676210
    },
    {
      "x": 9.787242889404297,
      "y": -0.09990034252405167,
      "z": 0.23210379481315613,
      "time_usec": 99769678474
    },
    {
      "x": 9.773484230041504,
      "y": -0.09511470049619675,
      "z": 0.19381862878799438,
      "time_usec": 99769680729
    },
    {
      "x": 9.768698692321777,
      "y": -0.09511470049619675,
      "z": 0.16031911969184875,
      "time_usec": 99769682985
    },
    {
      "x": 9.726225852966309,
      "y": -0.07118647545576096,
      "z": 0.14117653667926788,
      "time_usec": 99769685237
    },
    {
      "x": 9.754940032958984,
      "y": -0.03290131315588951,
      "z": 0.15553347766399384,
      "time_usec": 99769687495
    },
    {
      "x": 9.68375301361084,
      "y": -0.04666004329919815,
      "z": 0.14117653667926788,
      "time_usec": 99769689759
    },
    {
      "x": 9.674181938171387,
      "y": -0.013160524889826775,
      "z": 0.12203395366668701,
      "time_usec": 99769692016
    },
    {
      "x": 9.722038269042969,
      "y": -0.004187439568340778,
      "z": 0.0933200865983963,
      "time_usec": 99769694272
    },
    {
      "x": 9.698708534240723,
      "y": 0.0011964113218709826,
      "z": 0.07417750358581543,
      "time_usec": 99769696523
    },
    {
      "x": 9.6795654296875,
      "y": 0.02512463741004467,
      "z": 0.08374879509210587,
      "time_usec": 99769698780
    },
    {
      "x": 9.698708534240723,
      "y": 0.029910283163189888,
      "z": 0.10289137065410614,
      "time_usec": 99769701030
    },
    {
      "x": 9.698110580444336,
      "y": 0.029910283163189888,
      "z": 0.11724831163883209,
      "time_usec": 99769703301
    },
    {
      "x": 9.6795654296875,
      "y": 0.0011964113218709826,
      "z": 0.11246266216039658,
      "time_usec": 99769705553
    },
    {
      "x": 9.66520881652832,
      "y": 0.020338991656899452,
      "z": 0.10707881301641464,
      "time_usec": 99769707818
    },
    {
      "x": 9.669994354248047,
      "y": 0.029910283163189888,
      "z": 0.13100704550743103,
      "time_usec": 99769710068
    },
    {
      "x": 9.655637741088867,
      "y": 0.029910283163189888,
      "z": 0.10707881301641464,
      "time_usec": 99769712331
    },
    {
      "x": 9.626923561096191,
      "y": 0.03469592705368996,
      "z": 0.12143574655056,
      "time_usec": 99769714586
    },
    {
      "x": 9.617950439453125,
      "y": 0.039481572806835175,
      "z": 0.0975075215101242,
      "time_usec": 99769716842
    },
    {
      "x": 9.627521514892578,
      "y": 0.039481572806835175,
      "z": 0.08793623000383377,
      "time_usec": 99769719102
    },
    {
      "x": 9.656235694885254,
      "y": 0.05383851006627083,
      "z": 0.07896314561367035,
      "time_usec": 99769721364
    },
    {
      "x": 9.66102123260498,
      "y": 0.039481572806835175,
      "z": 0.05024927482008934,
      "time_usec": 99769723615
    },
    {
      "x": 9.665806770324707,
      "y": 0.039481572806835175,
      "z": 0.05024927482008934,
      "time_usec": 99769725869
    },
    {
      "x": 9.680164337158203,
      "y": 0.05383851006627083,
      "z": 0.035892341285943985,
      "time_usec": 99769728126
    },
    {
      "x": 9.717850685119629,
      "y": 0.03888336941599846,
      "z": 0.040677983313798904,
      "time_usec": 99769730376
    },
    {
      "x": 9.717850685119629,
      "y": 0.05802594870328903,
      "z": 0.031106693670153618,
      "time_usec": 99769732642
    },
    {
      "x": 9.727422714233398,
      "y": 0.03409772366285324,
      "z": 0.035892341285943985,
      "time_usec": 99769734887
    },
    {
      "x": 9.732208251953125,
      "y": 0.03409772366285324,
      "z": 0.016749758273363113,
      "time_usec": 99769737156
    },
    {
      "x": 9.736993789672852,
      "y": 0.03888336941599846,
      "z": 0.02153540402650833,
      "time_usec": 99769739415
    },
    {
      "x": 9.732208251953125,
      "y": 0.03888336941599846,
      "z": 0.02153540402650833,
      "time_usec": 99769741676
    },
    {
      "x": 9.746564865112305,
      "y": 0.05802594870328903,
      "z": 0.012562318705022335,
      "time_usec": 99769743931
    },
    {
      "x": 9.746564865112305,
      "y": 0.06281159073114395,
      "z": 0.02153540402650833,
      "time_usec": 99769746182
    },
    {
      "x": 9.736993789672852,
      "y": 0.07238288223743439,
      "z": 0.0023928226437419653,
      "time_usec": 99769748445
    },
    {
      "x": 9.751350402832031,
      "y": 0.06759724020957947,
      "z": 0.02632104977965355,
      "time_usec": 99769750701
    },
    {
      "x": 9.722636222839355,
      "y": 0.11126625537872314,
      "z": 0.02153540402650833,
      "time_usec": 99769752961
    },
    {
      "x": 9.732208251953125,
      "y": 0.11605189740657806,
      "z": 0.040677983313798904,
      "time_usec": 99769755219
    },
    {
      "x": 9.727422714233398,
      "y": 0.12083754688501358,
      "z": 0.05503492057323456,
      "time_usec": 99769757468
    },
    {
      "x": 9.722636222839355,
      "y": 0.11126625537872314,
      "z": 0.05024927482008934,
      "time_usec": 99769759731
    },
    {
      "x": 9.722636222839355,
      "y": 0.10169496387243271,
      "z": 0.05024927482008934,
      "time_usec": 99769761987
    },
    {
      "x": 9.70349407196045,
      "y": 0.11126625537872314,
      "z": 0.05503492057323456,
      "time_usec": 99769764245
    },
    {
      "x": 9.698708534240723,
      "y": 0.11126625537872314,
      "z": 0.08374879509210587,
      "time_usec": 99769766497
    },
    {
      "x": 9.684351921081543,
      "y": 0.10169496387243271,
      "z": 0.08374879509210587,
      "time_usec": 99769768756
    },
    {
      "x": 9.698708534240723,
      "y": 0.09212367236614227,
      "z": 0.09810572862625122,
      "time_usec": 99769771004
    },
    {
      "x": 9.693922996520996,
      "y": 0.08255238085985184,
      "z": 0.09810572862625122,
      "time_usec": 99769773273
    },
    {
      "x": 9.68913745880127,
      "y": 0.10169496387243271,
      "z": 0.07417750358581543,
      "time_usec": 99769775525
    },
    {
      "x": 9.70349407196045,
      "y": 0.08733802288770676,
      "z": 0.064606212079525,
      "time_usec": 99769777792
    },
    {
      "x": 9.717850685119629,
      "y": 0.09212367236614227,
      "z": 0.064606212079525,
      "time_usec": 99769780051
    },
    {
      "x": 9.722636222839355,
      "y": 0.10169496387243271,
      "z": 0.07417750358581543,
      "time_usec": 99769782304
    },
    {
      "x": 9.736993789672852,
      "y": 0.10169496387243271,
      "z": 0.07896314561367035,
      "time_usec": 99769784558
    },
    {
      "x": 9.741181373596191,
      "y": 0.0771685317158699,
      "z": 0.07896314561367035,
      "time_usec": 99769786809
    },
    {
      "x": 9.750752449035645,
      "y": 0.07238288223743439,
      "z": 0.08853443711996078,
      "time_usec": 99769789070
    },
    {
      "x": 9.765109062194824,
      "y": 0.09631111472845078,
      "z": 0.11724831163883209,
      "time_usec": 99769791331
    },
    {
      "x": 9.789037704467773,
      "y": 0.08195417374372482,
      "z": 0.09391828626394272,
      "time_usec": 99769793588
    },
    {
      "x": 9.817152976989746,
      "y": 0.06281159073114395,
      "z": 0.0891326442360878,
      "time_usec": 99769795841
    },
    {
      "x": 9.841081619262695,
      "y": 0.0771685317158699,
      "z": 0.07956135272979736,
      "time_usec": 99769798102
    },
    {
      "x": 9.845867156982422,
      "y": 0.0526420995593071,
      "z": 0.07477571070194244,
      "time_usec": 99769800361
    },
    {
      "x": 9.860223770141602,
      "y": 0.05742774158716202,
      "z": 0.046061836183071136,
      "time_usec": 99769802618
    },
    {
      "x": 9.874580383300781,
      "y": 0.05742774158716202,
      "z": 0.037088751792907715,
      "time_usec": 99769804873
    },
    {
      "x": 9.874580383300781,
      "y": 0.05742774158716202,
      "z": 0.017946170642971992,
      "time_usec": 99769807123
    },
    {
      "x": 9.893723487854004,
      "y": 0.09092725813388824,
      "z": 0.037088751792907715,
      "time_usec": 99769809376
    },
    {
      "x": 9.874580383300781,
      "y": 0.07178468257188797,
      "z": 0.04187439754605293,
      "time_usec": 99769811646
    },
    {
      "x": 9.89850902557373,
      "y": 0.08614161610603333,
      "z": 0.05144568532705307,
      "time_usec": 99769813903
    },
    {
      "x": 9.89850902557373,
      "y": 0.09571290761232376,
      "z": 0.06580262631177902,
      "time_usec": 99769816159
    },
    {
      "x": 9.912267684936523,
      "y": 0.11485548317432404,
      "z": 0.1136590763926506,
      "time_usec": 99769818417
    },
    {
      "x": 9.921838760375977,
      "y": 0.09571290761232376,
      "z": 0.1136590763926506,
      "time_usec": 99769820676
    },
    {
      "x": 9.888937950134277,
      "y": 0.1052841991186142,
      "z": 0.10827522724866867,
      "time_usec": 99769822933
    },
    {
      "x": 9.879366874694824,
      "y": 0.11485548317432404,
      "z": 0.11306086927652359,
      "time_usec": 99769825188
    },
    {
      "x": 9.869196891784668,
      "y": 0.09092725813388824,
      "z": 0.12741780281066895,
      "time_usec": 99769827441
    },
    {
      "x": 9.860223770141602,
      "y": 0.06699903309345245,
      "z": 0.1178465187549591,
      "time_usec": 99769829703
    },
    {
      "x": 9.817152976989746,
      "y": 0.05802594870328903,
      "z": 0.12263216078281403,
      "time_usec": 99769831961
    },
    {
      "x": 9.807581901550293,
      "y": 0.06281159073114395,
      "z": 0.1417747437953949,
      "time_usec": 99769834219
    },
    {
      "x": 9.81236743927002,
      "y": 0.05802594870328903,
      "z": 0.18484555184841156,
      "time_usec": 99769836470
    },
    {
      "x": 9.783653259277344,
      "y": 0.048454657196998596,
      "z": 0.20817556977272034,
      "time_usec": 99769838732
    },
    {
      "x": 9.80219841003418,
      "y": 0.048454657196998596,
      "z": 0.23210379481315613,
      "time_usec": 99769840989
    },
    {
      "x": 9.783055305480957,
      "y": 0.010169495828449726,
      "z": 0.2560320198535919,
      "time_usec": 99769843246
    },
    {
      "x": 9.773484230041504,
      "y": -0.003589233849197626,
      "z": 0.2799602448940277,
      "time_usec": 99769845499
    },
    {
      "x": 9.749555587768555,
      "y": -0.017946170642971992,
      "z": 0.29431718587875366,
      "time_usec": 99769847761
    },
    {
      "x": 9.768099784851074,
      "y": -0.037088751792907715,
      "z": 0.31345975399017334,
      "time_usec": 99769850019
    },
    {
      "x": 9.758528709411621,
      "y": -0.04666004329919815,
      "z": 0.31824541091918945,
      "time_usec": 99769852278
    },
    {
      "x": 9.768099784851074,
      "y": -0.05144568532705307,
      "z": 0.3326023519039154,
      "time_usec": 99769854531
    },
    {
      "x": 9.777671813964844,
      "y": -0.04187439754605293,
      "z": 0.3517449200153351,
      "time_usec": 99769856785
    },
    {
      "x": 9.80100154876709,
      "y": -0.052043892443180084,
      "z": 0.3565305769443512,
      "time_usec": 99769859050
    },
    {
      "x": 9.810572624206543,
      "y": -0.0568295381963253,
      "z": 0.37088751792907715,
      "time_usec": 99769861304
    },
    {
      "x": 9.829715728759766,
      "y": -0.047258246690034866,
      "z": 0.37088751792907715,
      "time_usec": 99769863561
    },
    {
      "x": 9.857831001281738,
      "y": -0.052043892443180084,
      "z": 0.37088751792907715,
      "time_usec": 99769865811
    },
    {
      "x": 9.858428955078125,
      "y": -0.023330021649599075,
      "z": 0.3756731450557709,
      "time_usec": 99769868071
    },
    {
      "x": 9.882357597351074,
      "y": 5.982056609354913E-4,
      "z": 0.37088751792907715,
      "time_usec": 99769870335
    },
    {
      "x": 9.920044898986816,
      "y": -0.014356935396790504,
      "z": 0.3475574851036072,
      "time_usec": 99769872591
    },
    {
      "x": 9.92961597442627,
      "y": -0.02392822690308094,
      "z": 0.3332005441188812,
      "time_usec": 99769874847
    },
    {
      "x": 9.934401512145996,
      "y": -0.02392822690308094,
      "z": 0.3332005441188812,
      "time_usec": 99769877099
    },
    {
      "x": 9.934401512145996,
      "y": -0.02392822690308094,
      "z": 0.3332005441188812,
      "time_usec": 99769879360
    },
    {
      "x": 9.910472869873047,
      "y": 5.982056609354913E-4,
      "z": 0.33798620104789734,
      "time_usec": 99769881620
    },
    {
      "x": 9.915258407592773,
      "y": -0.019142581149935722,
      "z": 0.33798620104789734,
      "time_usec": 99769883876
    },
    {
      "x": 9.900901794433594,
      "y": -0.018544375896453857,
      "z": 0.34277185797691345,
      "time_usec": 99769886129
    },
    {
      "x": 9.900901794433594,
      "y": -0.023330021649599075,
      "z": 0.3475574851036072,
      "time_usec": 99769888395
    },
    {
      "x": 9.877572059631348,
      "y": 5.982056609354913E-4,
      "z": 0.36610186100006104,
      "time_usec": 99769890648
    },
    {
      "x": 9.877572059631348,
      "y": -0.03290131315588951,
      "z": 0.3523431420326233,
      "time_usec": 99769892907
    },
    {
      "x": 9.877572059631348,
      "y": -0.018544375896453857,
      "z": 0.3475574851036072,
      "time_usec": 99769895159
    },
    {
      "x": 9.89133071899414,
      "y": -0.03768695518374443,
      "z": 0.357128769159317,
      "time_usec": 99769897411
    },
    {
      "x": 9.881759643554688,
      "y": -0.052043892443180084,
      "z": 0.33798620104789734,
      "time_usec": 99769899664
    },
    {
      "x": 9.877572059631348,
      "y": -0.028115665540099144,
      "z": 0.3284149169921875,
      "time_usec": 99769901933
    },
    {
      "x": 9.891928672790527,
      "y": -0.038285162299871445,
      "z": 0.2757728099822998,
      "time_usec": 99769904191
    },
    {
      "x": 9.906285285949707,
      "y": -0.02871387079358101,
      "z": 0.2757728099822998,
      "time_usec": 99769906447
    },
    {
      "x": 9.920642852783203,
      "y": -0.019142581149935722,
      "z": 0.28534409403800964,
      "time_usec": 99769908705
    },
    {
      "x": 9.906285285949707,
      "y": -0.02392822690308094,
      "z": 0.2805584669113159,
      "time_usec": 99769910962
    },
    {
      "x": 9.896714210510254,
      "y": -0.004785645287483931,
      "z": 0.2709871530532837,
      "time_usec": 99769913219
    },
    {
      "x": 9.930213928222656,
      "y": -0.0,
      "z": 0.2709871530532837,
      "time_usec": 99769915471
    },
    {
      "x": 9.930213928222656,
      "y": -0.009571290574967861,
      "z": 0.2566302418708801,
      "time_usec": 99769917734
    },
    {
      "x": 9.93978500366211,
      "y": -0.004785645287483931,
      "z": 0.251844584941864,
      "time_usec": 99769919991
    },
    {
      "x": 9.930213928222656,
      "y": 0.014356935396790504,
      "z": 0.21355941891670227,
      "time_usec": 99769922250
    },
    {
      "x": 9.915857315063477,
      "y": -0.0,
      "z": 0.23270200192928314,
      "time_usec": 99769924505
    },
    {
      "x": 9.920642852783203,
      "y": -0.014356935396790504,
      "z": 0.23270200192928314,
      "time_usec": 99769926757
    },
    {
      "x": 9.891928672790527,
      "y": -0.009571290574967861,
      "z": 0.251844584941864,
      "time_usec": 99769929020
    },
    {
      "x": 9.859027862548828,
      "y": 0.010169495828449726,
      "z": 0.23748764395713806,
      "time_usec": 99769931274
    },
    {
      "x": 9.859027862548828,
      "y": 0.005383851006627083,
      "z": 0.21355941891670227,
      "time_usec": 99769933519
    },
    {
      "x": 9.835697174072266,
      "y": 0.005383851006627083,
      "z": 0.19920247793197632,
      "time_usec": 99769935778
    },
    {
      "x": 9.80219841003418,
      "y": 5.982056609354913E-4,
      "z": 0.2225325107574463,
      "time_usec": 99769938048
    },
    {
      "x": 9.787840843200684,
      "y": -0.008973085321485996,
      "z": 0.2225325107574463,
      "time_usec": 99769940309
    },
    {
      "x": 9.79262638092041,
      "y": -0.01375873014330864,
      "z": 0.21774685382843018,
      "time_usec": 99769942567
    },
    {
      "x": 9.77826976776123,
      "y": -0.018544375896453857,
      "z": 0.2225325107574463,
      "time_usec": 99769944819
    },
    {
      "x": 9.77826976776123,
      "y": -0.047258246690034866,
      "z": 0.20338992774486542,
      "time_usec": 99769947073
    },
    {
      "x": 9.768698692321777,
      "y": -0.07597211748361588,
      "z": 0.18903298676013947,
      "time_usec": 99769949335
    },
    {
      "x": 9.754940032958984,
      "y": -0.04247260093688965,
      "z": 0.1746760457754135,
      "time_usec": 99769951592
    },
    {
      "x": 9.76391315460205,
      "y": -0.052043892443180084,
      "z": 0.1698904037475586,
      "time_usec": 99769953848
    },
    {
      "x": 9.76391315460205,
      "y": -0.047258246690034866,
      "z": 0.1698904037475586,
      "time_usec": 99769956100
    },
    {
      "x": 9.754940032958984,
      "y": -0.047258246690034866,
      "z": 0.16510476171970367,
      "time_usec": 99769958360
    },
    {
      "x": 9.735796928405762,
      "y": -0.0568295381963253,
      "z": 0.15553347766399384,
      "time_usec": 99769960621
    },
    {
      "x": 9.702896118164062,
      "y": -0.05144568532705307,
      "z": 0.13639089465141296,
      "time_usec": 99769962879
    },
    {
      "x": 9.678967475891113,
      "y": -0.037088751792907715,
      "z": 0.13579268753528595,
      "time_usec": 99769965135
    },
    {
      "x": 9.659825325012207,
      "y": -0.04666004329919815,
      "z": 0.1501496136188507,
      "time_usec": 99769967386
    },
    {
      "x": 9.631111145019531,
      "y": -0.04666004329919815,
      "z": 0.15493527054786682,
      "time_usec": 99769969646
    },
    {
      "x": 9.626923561096191,
      "y": -0.037088751792907715,
      "z": 0.1453639715909958,
      "time_usec": 99769971894
    },
    {
      "x": 9.622138023376465,
      "y": -0.008374879136681557,
      "z": 0.13579268753528595,
      "time_usec": 99769974164
    },
    {
      "x": 9.622138023376465,
      "y": -0.017946170642971992,
      "z": 0.12622138857841492,
      "time_usec": 99769976416
    },
    {
      "x": 9.626923561096191,
      "y": -0.02273181453347206,
      "z": 0.14057832956314087,
      "time_usec": 99769978682
    },
    {
      "x": 9.626923561096191,
      "y": -0.003589233849197626,
      "z": 0.13579268753528595,
      "time_usec": 99769980935
    },
    {
      "x": 9.641280174255371,
      "y": -0.008374879136681557,
      "z": 0.13100704550743103,
      "time_usec": 99769983192
    },
    {
      "x": 9.650253295898438,
      "y": -0.013160524889826775,
      "z": 0.14057832956314087,
      "time_usec": 99769985444
    },
    {
      "x": 9.66939640045166,
      "y": -0.02273181453347206,
      "z": 0.12143574655056,
      "time_usec": 99769987707
    },
    {
      "x": 9.698110580444336,
      "y": -0.013160524889826775,
      "z": 0.11724831163883209,
      "time_usec": 99769989964
    },
    {
      "x": 9.707681655883789,
      "y": -0.013160524889826775,
      "z": 0.09810572862625122,
      "time_usec": 99769992223
    },
    {
      "x": 9.731609344482422,
      "y": -0.004187439568340778,
      "z": 0.09810572862625122,
      "time_usec": 99769994477
    },
    {
      "x": 9.726823806762695,
      "y": 0.019740786403417587,
      "z": 0.0933200865983963,
      "time_usec": 99769996732
    },
    {
      "x": 9.745966911315918,
      "y": 0.029312077909708023,
      "z": 0.07896314561367035,
      "time_usec": 99769998996
    },
    {
      "x": 9.784252166748047,
      "y": 0.04366901144385338,
      "z": 0.06041877344250679,
      "time_usec": 99770001250
    },
    {
      "x": 9.76989459991455,
      "y": 0.05802594870328903,
      "z": 0.07477571070194244,
      "time_usec": 99770003507
    },
    {
      "x": 9.803394317626953,
      "y": 0.0771685317158699,
      "z": 0.05563312768936157,
      "time_usec": 99770005758
    },
    {
      "x": 9.80817985534668,
      "y": 0.0771685317158699,
      "z": 0.03170489892363548,
      "time_usec": 99770008022
    },
    {
      "x": 9.817750930786133,
      "y": 0.08195417374372482,
      "z": 0.03170489892363548,
      "time_usec": 99770010279
    },
    {
      "x": 9.817750930786133,
      "y": 0.08673982322216034,
      "z": 0.026919255033135414,
      "time_usec": 99770012538
    },
    {
      "x": 9.789037704467773,
      "y": 0.08673982322216034,
      "z": 0.026919255033135414,
      "time_usec": 99770014794
    },
    {
      "x": 9.798608779907227,
      "y": 0.09631111472845078,
      "z": 0.03170489892363548,
      "time_usec": 99770017047
    },
    {
      "x": 9.789037704467773,
      "y": 0.08195417374372482,
      "z": 0.03170489892363548,
      "time_usec": 99770019307
    },
    {
      "x": 9.765109062194824,
      "y": 0.06759724020957947,
      "z": 0.050847481936216354,
      "time_usec": 99770021564
    },
    {
      "x": 9.750752449035645,
      "y": 0.05802594870328903,
      "z": 0.064606212079525,
      "time_usec": 99770023822
    },
    {
      "x": 9.708279609680176,
      "y": 0.04905286431312561,
      "z": 0.05024927482008934,
      "time_usec": 99770026075
    },
    {
      "x": 9.70349407196045,
      "y": 0.058624155819416046,
      "z": 0.05024927482008934,
      "time_usec": 99770028336
    },
    {
      "x": 9.68913745880127,
      "y": 0.04905286431312561,
      "z": 0.035892341285943985,
      "time_usec": 99770030594
    },
    {
      "x": 9.665806770324707,
      "y": 0.058624155819416046,
      "z": 0.031106693670153618,
      "time_usec": 99770032849
    },
    {
      "x": 9.641879081726074,
      "y": 0.039481572806835175,
      "z": 0.031106693670153618,
      "time_usec": 99770035092
    },
    {
      "x": 9.656235694885254,
      "y": 0.03469592705368996,
      "z": 0.02632104977965355,
      "time_usec": 99770037350
    },
    {
      "x": 9.651450157165527,
      "y": 0.04905286431312561,
      "z": 0.031106693670153618,
      "time_usec": 99770039609
    },
    {
      "x": 9.656235694885254,
      "y": 0.06819544732570648,
      "z": 0.01196411345154047,
      "time_usec": 99770041883
    },
    {
      "x": 9.656235694885254,
      "y": 0.058624155819416046,
      "z": -0.0023928226437419653,
      "time_usec": 99770044138
    },
    {
      "x": 9.680164337158203,
      "y": 0.06819544732570648,
      "z": -0.007178467698395252,
      "time_usec": 99770046391
    },
    {
      "x": 9.680164337158203,
      "y": 0.05383851006627083,
      "z": -0.0023928226437419653,
      "time_usec": 99770048651
    },
    {
      "x": 9.68494987487793,
      "y": 0.04905286431312561,
      "z": -0.0023928226437419653,
      "time_usec": 99770050909
    },
    {
      "x": 9.722636222839355,
      "y": 0.06759724020957947,
      "z": 0.0023928226437419653,
      "time_usec": 99770053165
    },
    {
      "x": 9.741779327392578,
      "y": 0.0771685317158699,
      "z": 0.0077766734175384045,
      "time_usec": 99770055416
    },
    {
      "x": 9.732208251953125,
      "y": 0.0771685317158699,
      "z": 0.01196411345154047,
      "time_usec": 99770057676
    },
    {
      "x": 9.765109062194824,
      "y": 0.06759724020957947,
      "z": 0.046061836183071136,
      "time_usec": 99770059937
    },
    {
      "x": 9.784252166748047,
      "y": 0.05802594870328903,
      "z": 0.0364905446767807,
      "time_usec": 99770062195
    },
    {
      "x": 9.803394317626953,
      "y": 0.08195417374372482,
      "z": 0.06041877344250679,
      "time_usec": 99770064451
    },
    {
      "x": 9.80817985534668,
      "y": 0.09631111472845078,
      "z": 0.07956135272979736,
      "time_usec": 99770066704
    },
    {
      "x": 9.8267240524292,
      "y": 0.0771685317158699,
      "z": 0.11306086927652359,
      "time_usec": 99770068964
    },
    {
      "x": 9.865009307861328,
      "y": 0.06699903309345245,
      "z": 0.09391828626394272,
      "time_usec": 99770071210
    },
    {
      "x": 9.850652694702148,
      "y": 0.06699903309345245,
      "z": 0.09870393574237823,
      "time_usec": 99770073479
    },
    {
      "x": 9.841081619262695,
      "y": 0.02871387079358101,
      "z": 0.08434699475765228,
      "time_usec": 99770075732
    },
    {
      "x": 9.836296081542969,
      "y": 0.06281159073114395,
      "z": 0.09391828626394272,
      "time_usec": 99770077998
    },
    {
      "x": 9.817152976989746,
      "y": 0.05802594870328903,
      "z": 0.08434699475765228,
      "time_usec": 99770080252
    },
    {
      "x": 9.817152976989746,
      "y": 0.06281159073114395,
      "z": 0.08434699475765228,
      "time_usec": 99770082510
    },
    {
      "x": 9.831509590148926,
      "y": 0.09152546525001526,
      "z": 0.09391828626394272,
      "time_usec": 99770084765
    },
    {
      "x": 9.817750930786133,
      "y": 0.09631111472845078,
      "z": 0.10348957777023315,
      "time_usec": 99770087019
    },
    {
      "x": 9.841081619262695,
      "y": 0.09631111472845078,
      "z": 0.12741780281066895,
      "time_usec": 99770089280
    },
    {
      "x": 9.841081619262695,
      "y": 0.09631111472845078,
      "z": 0.15134602785110474,
      "time_usec": 99770091538
    },
    {
      "x": 9.836296081542969,
      "y": 0.09631111472845078,
      "z": 0.18005990982055664,
      "time_usec": 99770093793
    },
    {
      "x": 9.8267240524292,
      "y": 0.09631111472845078,
      "z": 0.18005990982055664,
      "time_usec": 99770096040
    },
    {
      "x": 9.845269203186035,
      "y": 0.09152546525001526,
      "z": 0.20877377688884735,
      "time_usec": 99770098312
    },
    {
      "x": 9.840482711791992,
      "y": 0.08195417374372482,
      "z": 0.2470589429140091,
      "time_usec": 99770100566
    },
    {
      "x": 9.835697174072266,
      "y": 0.07238288223743439,
      "z": 0.28953152894973755,
      "time_usec": 99770102826
    },
    {
      "x": 9.835099220275879,
      "y": 0.05802594870328903,
      "z": 0.3038884699344635,
      "time_usec": 99770105076
    },
    {
      "x": 9.854242324829102,
      "y": 0.03409772366285324,
      "z": 0.3086741268634796,
      "time_usec": 99770107334
    },
    {
      "x": 9.835099220275879,
      "y": 0.024526432156562805,
      "z": 0.3086741268634796,
      "time_usec": 99770109596
    },
    {
      "x": 9.849455833435059,
      "y": 0.005383851006627083,
      "z": 0.31824541091918945,
      "time_usec": 99770111853
    },
    {
      "x": 9.835099220275879,
      "y": 0.005383851006627083,
      "z": 0.31824541091918945,
      "time_usec": 99770114107
    },
    {
      "x": 9.844670295715332,
      "y": 0.005383851006627083,
      "z": 0.3086741268634796,
      "time_usec": 99770116354
    },
    {
      "x": 9.858428955078125,
      "y": -0.018544375896453857,
      "z": 0.29012975096702576,
      "time_usec": 99770118624
    },
    {
      "x": 9.853643417358398,
      "y": -0.004187439568340778,
      "z": 0.31345975399017334,
      "time_usec": 99770120882
    },
    {
      "x": 9.848857879638672,
      "y": -0.023330021649599075,
      "z": 0.31824541091918945,
      "time_usec": 99770123140
    },
    {
      "x": 9.844072341918945,
      "y": -0.008973085321485996,
      "z": 0.32303106784820557,
      "time_usec": 99770125390
    },
    {
      "x": 9.834501266479492,
      "y": -0.018544375896453857,
      "z": 0.3517449200153351,
      "time_usec": 99770127665
    },
    {
      "x": 9.806385040283203,
      "y": -0.008973085321485996,
      "z": 0.3565305769443512,
      "time_usec": 99770129909
    },
    {
      "x": 9.787242889404297,
      "y": 0.0011964113218709826,
      "z": 0.37088751792907715,
      "time_usec": 99770132168
    },
    {
      "x": 9.777671813964844,
      "y": 0.0011964113218709826,
      "z": 0.380458801984787,
      "time_usec": 99770134415
    },
    {
      "x": 9.753743171691895,
      "y": 0.010767702013254166,
      "z": 0.3798605799674988,
      "time_usec": 99770136676
    },
    {
      "x": 9.763314247131348,
      "y": 0.005982056725770235,
      "z": 0.3846462368965149,
      "time_usec": 99770138939
    },
    {
      "x": 9.754341125488281,
      "y": 0.02512463741004467,
      "z": 0.37028929591178894,
      "time_usec": 99770141198
    },
    {
      "x": 9.773484230041504,
      "y": 0.039481572806835175,
      "z": 0.34695929288864136,
      "time_usec": 99770143453
    },
    {
      "x": 9.773484230041504,
      "y": 0.039481572806835175,
      "z": 0.3038884699344635,
      "time_usec": 99770145705
    },
    {
      "x": 9.773484230041504,
      "y": 0.05383851006627083,
      "z": 0.3038884699344635,
      "time_usec": 99770147968
    },
    {
      "x": 9.769296646118164,
      "y": 0.058624155819416046,
      "z": 0.2560320198535919,
      "time_usec": 99770150225
    },
    {
      "x": 9.787840843200684,
      "y": 0.08733802288770676,
      "z": 0.275174617767334,
      "time_usec": 99770152483
    },
    {
      "x": 9.802796363830566,
      "y": 0.10588239878416061,
      "z": 0.2512463629245758,
      "time_usec": 99770154737
    },
    {
      "x": 9.793225288391113,
      "y": 0.10588239878416061,
      "z": 0.2225325107574463,
      "time_usec": 99770156991
    },
    {
      "x": 9.81236743927002,
      "y": 0.09631111472845078,
      "z": 0.21774685382843018,
      "time_usec": 99770159254
    },
    {
      "x": 9.821938514709473,
      "y": 0.13459627330303192,
      "z": 0.20398813486099243,
      "time_usec": 99770161511
    },
    {
      "x": 9.8267240524292,
      "y": 0.1537388563156128,
      "z": 0.17527425289154053,
      "time_usec": 99770163768
    },
    {
      "x": 9.822537422180176,
      "y": 0.17288143932819366,
      "z": 0.1657029688358307,
      "time_usec": 99770166020
    },
    {
      "x": 9.817750930786133,
      "y": 0.16331014037132263,
      "z": 0.1417747437953949,
      "time_usec": 99770168279
    },
    {
      "x": 9.832108497619629,
      "y": 0.1824527233839035,
      "z": 0.13698910176753998,
      "time_usec": 99770170526
    },
    {
      "x": 9.841679573059082,
      "y": 0.19680966436862946,
      "z": 0.1178465187549591,
      "time_usec": 99770172796
    },
    {
      "x": 9.841679573059082,
      "y": 0.1824527233839035,
      "z": 0.1178465187549591,
      "time_usec": 99770175048
    },
    {
      "x": 9.856036186218262,
      "y": 0.1824527233839035,
      "z": 0.07477571070194244,
      "time_usec": 99770177310
    },
    {
      "x": 9.856036186218262,
      "y": 0.1866401731967926,
      "z": 0.06999006122350693,
      "time_usec": 99770179568
    },
    {
      "x": 9.856036186218262,
      "y": 0.1866401731967926,
      "z": 0.05563312768936157,
      "time_usec": 99770181826
    },
    {
      "x": 9.860821723937988,
      "y": 0.19142581522464752,
      "z": 0.05563312768936157,
      "time_usec": 99770184078
    },
    {
      "x": 9.884750366210938,
      "y": 0.1866401731967926,
      "z": 0.05144568532705307,
      "time_usec": 99770186335
    },
    {
      "x": 9.946365356445312,
      "y": 0.22492532432079315,
      "z": 0.037088751792907715,
