{
  "accelerations": [
    {
      "x": 9.4121675491333,
      "y": -0.22911277413368225,
      "z": 1.114457130432129,
      "time_usec": 151612505069
    },
    {
      "x": 9.42173957824707,
      "y": -0.25304099917411804,
      "z": 1.1054840087890625,
      "time_usec": 151612507326
    },
    {
      "x": 9.388239860534668,
      "y": -0.25304099917411804,
      "z": 1.1431710720062256,
      "time_usec": 151612509584
    },
    {
      "x": 9.425926208496094,
      "y": -0.25782662630081177,
      "z": 1.1479566097259521,
      "time_usec": 151612511841
    },
    {
      "x": 9.425926208496094,
      "y": -0.2961117923259735,
      "z": 1.1575279235839844,
      "time_usec": 151612514099
    },
    {
      "x": 9.41635513305664,
      "y": -0.30568310618400574,
      "z": 1.1527422666549683,
      "time_usec": 151612516356
    },
    {
      "x": 9.435498237609863,
      "y": -0.30568310618400574,
      "z": 1.1389836072921753,
      "time_usec": 151612518613
    },
    {
      "x": 9.45464038848877,
      "y": -0.30628129839897156,
      "z": 1.1389836072921753,
      "time_usec": 151612520870
    },
    {
      "x": 9.459425926208496,
      "y": -0.2919243574142456,
      "z": 1.1485549211502075,
      "time_usec": 151612523128
    },
    {
      "x": 9.506684303283691,
      "y": -0.28235307335853577,
      "z": 1.124626636505127,
      "time_usec": 151612525382
    },
    {
      "x": 9.54496955871582,
      "y": -0.2632105052471161,
      "z": 1.1060823202133179,
      "time_usec": 151612527633
    },
    {
      "x": 9.550353050231934,
      "y": -0.22073788940906525,
      "z": 1.0534402132034302,
      "time_usec": 151612529897
    },
    {
      "x": 9.602396965026855,
      "y": -0.21595224738121033,
      "z": 1.0295119285583496,
      "time_usec": 151612532143
    },
    {
      "x": 9.650253295898438,
      "y": -0.2021935135126114,
      "z": 0.9726824164390564,
      "time_usec": 151612534401
    },
    {
      "x": 9.684351921081543,
      "y": -0.1543370634317398,
      "z": 0.9158528447151184,
      "time_usec": 151612536657
    },
    {
      "x": 9.70349407196045,
      "y": -0.1782652884721756,
      "z": 0.8584251403808594,
      "time_usec": 151612538916
    },
    {
      "x": 9.736993789672852,
      "y": -0.1740778535604477,
      "z": 0.8057830333709717,
      "time_usec": 151612541175
    },
    {
      "x": 9.746564865112305,
      "y": -0.13579268753528595,
      "z": 0.8015955686569214,
      "time_usec": 151612543431
    },
    {
      "x": 9.760921478271484,
      "y": -0.11665010452270508,
      "z": 0.7872386574745178,
      "time_usec": 151612545692
    },
    {
      "x": 9.747162818908691,
      "y": -0.08315058797597885,
      "z": 0.7585247755050659,
      "time_usec": 151612547961
    },
    {
      "x": 9.747162818908691,
      "y": -0.0687936544418335,
      "z": 0.7441678643226624,
      "time_usec": 151612550214
    },
    {
      "x": 9.751948356628418,
      "y": -0.07836493849754333,
      "z": 0.7250252366065979,
      "time_usec": 151612552464
    },
    {
      "x": 9.747162818908691,
      "y": -0.07836493849754333,
      "z": 0.729810893535614,
      "time_usec": 151612554728
    },
    {
      "x": 9.733404159545898,
      "y": -0.049651071429252625,
      "z": 0.7154539823532104,
      "time_usec": 151612556976
    },
    {
      "x": 9.733404159545898,
      "y": -0.05922235921025276,
      "z": 0.7058826684951782,
      "time_usec": 151612559249
    },
    {
      "x": 9.732806205749512,
      "y": -0.09272187948226929,
      "z": 0.7010970115661621,
      "time_usec": 151612561503
    },
    {
      "x": 9.737591743469238,
      "y": -0.08315058797597885,
      "z": 0.7010970115661621,
      "time_usec": 151612563763
    },
    {
      "x": 9.742377281188965,
      "y": -0.10229317098855972,
      "z": 0.7010970115661621,
      "time_usec": 151612566005
    },
    {
      "x": 9.732806205749512,
      "y": -0.08793623000383377,
      "z": 0.7489534616470337,
      "time_usec": 151612568273
    },
    {
      "x": 9.708877563476562,
      "y": -0.08793623000383377,
      "z": 0.7387840151786804,
      "time_usec": 151612570519
    },
    {
      "x": 9.728020668029785,
      "y": -0.11186445504426956,
      "z": 0.7776673436164856,
      "time_usec": 151612572792
    },
    {
      "x": 9.698708534240723,
      "y": -0.1495514214038849,
      "z": 0.8153542876243591,
      "time_usec": 151612575042
    },
    {
      "x": 9.70349407196045,
      "y": -0.1495514214038849,
      "z": 0.8297112584114075,
      "time_usec": 151612577308
    },
    {
      "x": 9.698708534240723,
      "y": -0.14476576447486877,
      "z": 0.8297112584114075,
      "time_usec": 151612579562
    },
    {
      "x": 9.684351921081543,
      "y": -0.18783657252788544,
      "z": 0.8584251403808594,
      "time_usec": 151612581820
    },
    {
      "x": 9.698708534240723,
      "y": -0.18305093050003052,
      "z": 0.844068169593811,
      "time_usec": 151612584077
    },
    {
      "x": 9.698708534240723,
      "y": -0.19262222945690155,
      "z": 0.8679963946342468,
      "time_usec": 151612586335
    },
    {
      "x": 9.712467193603516,
      "y": -0.2021935135126114,
      "z": 0.877567708492279,
      "time_usec": 151612588591
    },
    {
      "x": 9.712467193603516,
      "y": -0.18783657252788544,
      "z": 0.8871390223503113,
      "time_usec": 151612590849
    },
    {
      "x": 9.731609344482422,
      "y": -0.1740778535604477,
      "z": 0.9110672473907471,
      "time_usec": 151612593106
    },
    {
      "x": 9.741181373596191,
      "y": -0.1788634955883026,
      "z": 0.8967102766036987,
      "time_usec": 151612595363
    },
    {
      "x": 9.76989459991455,
      "y": -0.1453639715909958,
      "z": 0.9014959335327148,
      "time_usec": 151612597621
    },
    {
      "x": 9.7938232421875,
      "y": -0.16450655460357666,
      "z": 0.8638089895248413,
      "time_usec": 151612599877
    },
    {
      "x": 9.817152976989746,
      "y": -0.1788634955883026,
      "z": 0.8542376756668091,
      "time_usec": 151612602131
    },
    {
      "x": 9.817152976989746,
      "y": -0.1453639715909958,
      "z": 0.8638089895248413,
      "time_usec": 151612604394
    },
    {
      "x": 9.836296081542969,
      "y": -0.15553347766399384,
      "z": 0.8542376756668091,
      "time_usec": 151612606651
    },
    {
      "x": 9.827322959899902,
      "y": -0.12622138857841492,
      "z": 0.8542376756668091,
      "time_usec": 151612608908
    },
    {
      "x": 9.817750930786133,
      "y": -0.13100704550743103,
      "z": 0.882951557636261,
      "time_usec": 151612611156
    },
    {
      "x": 9.817152976989746,
      "y": -0.1501496136188507,
      "z": 0.882951557636261,
      "time_usec": 151612613423
    },
    {
      "x": 9.8267240524292,
      "y": -0.13100704550743103,
      "z": 0.9068797826766968,
      "time_usec": 151612615680
    },
    {
      "x": 9.831509590148926,
      "y": -0.12622138857841492,
      "z": 0.9403793215751648,
      "time_usec": 151612617938
    },
    {
      "x": 9.841081619262695,
      "y": -0.12622138857841492,
      "z": 0.9451649188995361,
      "time_usec": 151612620190
    },
    {
      "x": 9.845867156982422,
      "y": -0.13579268753528595,
      "z": 0.9308080077171326,
      "time_usec": 151612622449
    },
    {
      "x": 9.864411354064941,
      "y": -0.16510476171970367,
      "z": 0.9403793215751648,
      "time_usec": 151612624707
    },
    {
      "x": 9.873982429504395,
      "y": -0.1746760457754135,
      "z": 0.9451649188995361,
      "time_usec": 151612626957
    },
    {
      "x": 9.88833999633789,
      "y": -0.1698904037475586,
      "z": 0.9355936646461487,
      "time_usec": 151612629223
    },
    {
      "x": 9.92124080657959,
      "y": -0.1746760457754135,
      "z": 0.9170492887496948,
      "time_usec": 151612631475
    },
    {
      "x": 9.931410789489746,
      "y": -0.15074782073497772,
      "z": 0.9074779748916626,
      "time_usec": 151612633738
    },
    {
      "x": 9.936196327209473,
      "y": -0.1459621787071228,
      "z": 0.8883354067802429,
      "time_usec": 151612635996
    },
    {
      "x": 9.954740524291992,
      "y": -0.15134602785110474,
      "z": 0.8883354067802429,
      "time_usec": 151612638255
    },
    {
      "x": 9.91705322265625,
      "y": -0.1698904037475586,
      "z": 0.8835497498512268,
      "time_usec": 151612640511
    },
    {
      "x": 9.90269660949707,
      "y": -0.16031911969184875,
      "z": 0.8787640929222107,
      "time_usec": 151612642763
    },
    {
      "x": 9.874580383300781,
      "y": -0.1459621787071228,
      "z": 0.8644071817398071,
      "time_usec": 151612645025
    },
    {
      "x": 9.855438232421875,
      "y": -0.15074782073497772,
      "z": 0.8398807644844055,
      "time_usec": 151612647282
    },
    {
      "x": 9.841081619262695,
      "y": -0.16510476171970367,
      "z": 0.8350951075553894,
      "time_usec": 151612649540
    },
    {
      "x": 9.846465110778809,
      "y": -0.1459621787071228,
      "z": 0.8063812255859375,
      "time_usec": 151612651792
    },
    {
      "x": 9.860223770141602,
      "y": -0.16031911969184875,
      "z": 0.8165507316589355,
      "time_usec": 151612654055
    },
    {
      "x": 9.869794845581055,
      "y": -0.11724831163883209,
      "z": 0.8356932997703552,
      "time_usec": 151612656313
    },
    {
      "x": 9.855438232421875,
      "y": -0.09810572862625122,
      "z": 0.8638089895248413,
      "time_usec": 151612658571
    },
    {
      "x": 9.841081619262695,
      "y": -0.11186445504426956,
      "z": 0.8925228714942932,
      "time_usec": 151612660819
    },
    {
      "x": 9.845867156982422,
      "y": -0.0975075215101242,
      "z": 0.9260223507881165,
      "time_usec": 151612663072
    },
    {
      "x": 9.860223770141602,
      "y": -0.07896314561367035,
      "z": 0.9116654396057129,
      "time_usec": 151612665341
    },
    {
      "x": 9.850652694702148,
      "y": -0.07836493849754333,
      "z": 0.916451096534729,
      "time_usec": 151612667597
    },
    {
      "x": 9.855438232421875,
      "y": -0.07836493849754333,
      "z": 0.9355936646461487,
      "time_usec": 151612669846
    },
    {
      "x": 9.88415241241455,
      "y": -0.08374879509210587,
      "z": 0.9403793215751648,
      "time_usec": 151612672109
    },
    {
      "x": 9.90269660949707,
      "y": -0.05024927482008934,
      "z": 0.9499505758285522,
      "time_usec": 151612674372
    },
    {
      "x": 9.897911071777344,
      "y": -0.031106693670153618,
      "z": 0.9978070259094238,
      "time_usec": 151612676633
    },
    {
      "x": 9.921838760375977,
      "y": -0.016749758273363113,
      "z": 1.007378339767456,
      "time_usec": 151612678886
    },
    {
      "x": 9.926624298095703,
      "y": -0.01196411345154047,
      "z": 1.0265209674835205,
      "time_usec": 151612681139
    },
    {
      "x": 9.945767402648926,
      "y": 0.0023928226437419653,
      "z": 1.0223335027694702,
      "time_usec": 151612683401
    },
    {
      "x": 9.959526062011719,
      "y": -0.0023928226437419653,
      "z": 1.0319048166275024,
      "time_usec": 151612685658
    },
    {
      "x": 9.973882675170898,
      "y": -0.01196411345154047,
      "z": 1.0223335027694702,
      "time_usec": 151612687916
    },
    {
      "x": 9.959526062011719,
      "y": -0.02153540402650833,
      "z": 1.0319048166275024,
      "time_usec": 151612690168
    },
    {
      "x": 9.936196327209473,
      "y": -0.02632104977965355,
      "z": 1.012762188911438,
      "time_usec": 151612692426
    },
    {
      "x": 9.912267684936523,
      "y": -0.006580262444913387,
      "z": 1.031306505203247,
      "time_usec": 151612694689
    },
    {
      "x": 9.897911071777344,
      "y": -0.04486542567610741,
      "z": 1.0456634759902954,
      "time_usec": 151612696943
    },
    {
      "x": 9.874580383300781,
      "y": -0.04486542567610741,
      "z": 0.9834501147270203,
      "time_usec": 151612699190
    },
    {
      "x": 9.850054740905762,
      "y": -0.054436713457107544,
      "z": 1.0929217338562012,
      "time_usec": 151612701456
    },
    {
      "x": 9.836894035339355,
      "y": -0.04007977992296219,
      "z": 0.9068797826766968,
      "time_usec": 151612703718
    },
    {
      "x": 9.826126098632812,
      "y": -0.05922235921025276,
      "z": 1.0785647630691528,
      "time_usec": 151612705978
    },
    {
      "x": 9.817152976989746,
      "y": -0.06400800496339798,
      "z": 0.973878800868988,
      "time_usec": 151612708233
    },
    {
      "x": 9.798608779907227,
      "y": -0.05922235921025276,
      "z": 0.96370929479599,
      "time_usec": 151612710487
    },
    {
      "x": 9.778867721557617,
      "y": -0.04905286431312561,
      "z": 1.059422254562378,
      "time_usec": 151612712738
    },
    {
      "x": 9.765109062194824,
      "y": -0.05922235921025276,
      "z": 0.9349954724311829,
      "time_usec": 151612715004
    },
    {
      "x": 9.745966911315918,
      "y": -0.0729810893535614,
      "z": 0.9828519225120544,
      "time_usec": 151612717261
    },
    {
      "x": 9.750752449035645,
      "y": -0.0729810893535614,
      "z": 0.96370929479599,
      "time_usec": 151612719520
    },
    {
      "x": 9.722636222839355,
      "y": -0.0729810893535614,
      "z": 0.9541380405426025,
      "time_usec": 151612721771
    },
    {
      "x": 9.732208251953125,
      "y": -0.0729810893535614,
      "z": 0.9397810697555542,
      "time_usec": 151612724033
    },
    {
      "x": 9.727422714233398,
      "y": -0.06340979784727097,
      "z": 0.9206385016441345,
      "time_usec": 151612726290
    },
    {
      "x": 9.722636222839355,
      "y": -0.05383851006627083,
      "z": 0.8823533654212952,
      "time_usec": 151612728547
    },
    {
      "x": 9.713065147399902,
      "y": -0.058624155819416046,
      "z": 0.8823533654212952,
      "time_usec": 151612730794
    },
    {
      "x": 9.704092025756836,
      "y": -0.06819544732570648,
      "z": 0.8632107973098755,
      "time_usec": 151612733059
    },
    {
      "x": 9.689735412597656,
      "y": -0.05383851006627083,
      "z": 0.8584251403808594,
      "time_usec": 151612735320
    },
    {
      "x": 9.68494987487793,
      "y": -0.06819544732570648,
      "z": 0.8679963946342468,
      "time_usec": 151612737581
    },
    {
      "x": 9.675378799438477,
      "y": -0.058624155819416046,
      "z": 0.8488538265228271,
      "time_usec": 151612739835
    },
    {
      "x": 9.65683364868164,
      "y": -0.05383851006627083,
      "z": 0.8297112584114075,
      "time_usec": 151612742088
    },
    {
      "x": 9.637691497802734,
      "y": -0.04905286431312561,
      "z": 0.8344969153404236,
      "time_usec": 151612744350
    },
    {
      "x": 9.647262573242188,
      "y": -0.04905286431312561,
      "z": 0.8153542876243591,
      "time_usec": 151612746608
    },
    {
      "x": 9.647262573242188,
      "y": -0.039481572806835175,
      "z": 0.7914260625839233,
      "time_usec": 151612748866
    },
    {
      "x": 9.647262573242188,
      "y": -0.05383851006627083,
      "z": 0.7914260625839233,
      "time_usec": 151612751117
    },
    {
      "x": 9.647262573242188,
      "y": -0.05383851006627083,
      "z": 0.8201399445533752,
      "time_usec": 151612753380
    },
    {
      "x": 9.642477035522461,
      "y": -0.08255238085985184,
      "z": 0.8344969153404236,
      "time_usec": 151612755637
    },
    {
      "x": 9.656235694885254,
      "y": -0.08255238085985184,
      "z": 0.8584251403808594,
      "time_usec": 151612757895
    },
    {
      "x": 9.665806770324707,
      "y": -0.10169496387243271,
      "z": 0.877567708492279,
      "time_usec": 151612760149
    },
    {
      "x": 9.66102123260498,
      "y": -0.12083754688501358,
      "z": 0.9056833982467651,
      "time_usec": 151612762403
    },
    {
      "x": 9.660423278808594,
      "y": -0.16869398951530457,
      "z": 0.9296116232872009,
      "time_usec": 151612764666
    },
    {
      "x": 9.66520881652832,
      "y": -0.1782652884721756,
      "z": 0.9631111025810242,
      "time_usec": 151612766925
    },
    {
      "x": 9.66939640045166,
      "y": -0.19262222945690155,
      "z": 0.98703932762146,
      "time_usec": 151612769181
    },
    {
      "x": 9.678967475891113,
      "y": -0.19262222945690155,
      "z": 1.0157532691955566,
      "time_usec": 151612771433
    },
    {
      "x": 9.697511672973633,
      "y": -0.19262222945690155,
      "z": 1.0301101207733154,
      "time_usec": 151612773692
    },
    {
      "x": 9.692726135253906,
      "y": -0.21176479756832123,
      "z": 1.0444670915603638,
      "time_usec": 151612775940
    },
    {
      "x": 9.721440315246582,
      "y": -0.2069791555404663,
      "z": 1.0307083129882812,
      "time_usec": 151612778211
    },
    {
      "x": 9.726225852966309,
      "y": -0.19740787148475647,
      "z": 1.0546365976333618,
      "time_usec": 151612780463
    },
    {
      "x": 9.731011390686035,
      "y": -0.22133609652519226,
      "z": 1.0546365976333618,
      "time_usec": 151612782725
    },
    {
      "x": 9.721440315246582,
      "y": -0.19262222945690155,
      "z": 1.0546365976333618,
      "time_usec": 151612784983
    },
    {
      "x": 9.711869239807129,
      "y": -0.21176479756832123,
      "z": 1.0683952569961548,
      "time_usec": 151612787239
    },
    {
      "x": 9.707083702087402,
      "y": -0.1782652884721756,
      "z": 1.0205388069152832,
      "time_usec": 151612789488
    },
    {
      "x": 9.721440315246582,
      "y": -0.16869398951530457,
      "z": 1.0163514614105225,
      "time_usec": 151612791753
    },
    {
      "x": 9.722038269042969,
      "y": -0.17347964644432068,
      "z": 0.9780662655830383,
      "time_usec": 151612794012
    },
    {
      "x": 9.702896118164062,
      "y": -0.16869398951530457,
      "z": 0.9684949517250061,
      "time_usec": 151612796272
    },
    {
      "x": 9.731609344482422,
      "y": -0.17347964644432068,
      "z": 0.9541380405426025,
      "time_usec": 151612798527
    },
    {
      "x": 9.702896118164062,
      "y": -0.16390834748744965,
      "z": 0.9254241585731506,
      "time_usec": 151612800778
    },
    {
      "x": 9.712467193603516,
      "y": -0.16869398951530457,
      "z": 0.9397810697555542,
      "time_usec": 151612803036
    },
    {
      "x": 9.68913745880127,
      "y": -0.16390834748744965,
      "z": 0.9397810697555542,
      "time_usec": 151612805285
    },
    {
      "x": 9.66520881652832,
      "y": -0.17347964644432068,
      "z": 0.9583254456520081,
      "time_usec": 151612807557
    },
    {
      "x": 9.664610862731934,
      "y": -0.1782652884721756,
      "z": 0.9822536706924438,
      "time_usec": 151612809812
    },
    {
      "x": 9.660423278808594,
      "y": -0.17347964644432068,
      "z": 0.9774680733680725,
      "time_usec": 151612812069
    },
    {
      "x": 9.659825325012207,
      "y": -0.17347964644432068,
      "z": 1.0205388069152832,
      "time_usec": 151612814328
    },
    {
      "x": 9.659825325012207,
      "y": -0.1782652884721756,
      "z": 1.0492527484893799,
      "time_usec": 151612816582
    },
    {
      "x": 9.668798446655273,
      "y": -0.18305093050003052,
      "z": 1.077966570854187,
      "time_usec": 151612818830
    },
    {
      "x": 9.659226417541504,
      "y": -0.19202402234077454,
      "z": 1.0827522277832031,
      "time_usec": 151612821096
    },
    {
      "x": 9.683155059814453,
      "y": -0.18783657252788544,
      "z": 1.0923235416412354,
      "time_usec": 151612823358
    },
    {
      "x": 9.70229721069336,
      "y": -0.18783657252788544,
      "z": 1.0971091985702515,
      "time_usec": 151612825619
    },
    {
      "x": 9.697511672973633,
      "y": -0.16869398951530457,
      "z": 1.0875378847122192,
      "time_usec": 151612827874
    },
    {
      "x": 9.692726135253906,
      "y": -0.16869398951530457,
      "z": 1.1018948554992676,
      "time_usec": 151612830128
    },
    {
      "x": 9.731011390686035,
      "y": -0.1543370634317398,
      "z": 1.1018948554992676,
      "time_usec": 151612832382
    },
    {
      "x": 9.707083702087402,
      "y": -0.16390834748744965,
      "z": 1.1018948554992676,
      "time_usec": 151612834644
    },
    {
      "x": 9.70229721069336,
      "y": -0.1495514214038849,
      "z": 1.0971091985702515,
      "time_usec": 151612836902
    },
    {
      "x": 9.707681655883789,
      "y": -0.12083754688501358,
      "z": 1.0115658044815063,
      "time_usec": 151612839161
    },
    {
      "x": 9.688538551330566,
      "y": -0.12083754688501358,
      "z": 0.9822536706924438,
      "time_usec": 151612841413
    },
    {
      "x": 9.712467193603516,
      "y": -0.11605189740657806,
      "z": 0.9589236974716187,
      "time_usec": 151612843674
    },
    {
      "x": 9.698708534240723,
      "y": -0.09690931439399719,
      "z": 0.9254241585731506,
      "time_usec": 151612845931
    },
    {
      "x": 9.504291534423828,
      "y": -0.11964113265275955,
      "z": 0.8715856671333313,
      "time_usec": 151612848188
    },
    {
      "x": 9.770493507385254,
      "y": -0.030508488416671753,
      "z": 0.849452018737793,
      "time_usec": 151612850440
    },
    {
      "x": 9.795019149780273,
      "y": 0.01734796352684498,
      "z": 0.8015955686569214,
      "time_usec": 151612852698
    },
    {
      "x": 9.552745819091797,
      "y": -0.03409772366285324,
      "z": 0.7621139883995056,
      "time_usec": 151612854961
    },
    {
      "x": 9.57188892364502,
      "y": -0.014955141581594944,
      "z": 0.7190431952476501,
      "time_usec": 151612857219
    },
    {
      "x": 9.643074989318848,
      "y": 0.008374879136681557,
      "z": 0.7052844762802124,
      "time_usec": 151612859470
    },
    {
      "x": 9.567103385925293,
      "y": 0.01375873014330864,
      "z": 0.714257538318634,
      "time_usec": 151612861731
    },
    {
      "x": 9.524630546569824,
      "y": -0.005383851006627083,
      "z": 0.7286145091056824,
      "time_usec": 151612863990
    },
    {
      "x": 9.567103385925293,
      "y": 0.008973085321485996,
      "z": 0.7190431952476501,
      "time_usec": 151612866249
    },
    {
      "x": 9.581459999084473,
      "y": 0.023330021649599075,
      "z": 0.7334001660346985,
      "time_usec": 151612868504
    },
    {
      "x": 9.591031074523926,
      "y": -0.0011964113218709826,
      "z": 0.7100701332092285,
      "time_usec": 151612870754
    },
    {
      "x": 9.605388641357422,
      "y": -0.010767702013254166,
      "z": 0.6765705943107605,
      "time_usec": 151612873016
    },
    {
      "x": 9.647860527038574,
      "y": -0.0011964113218709826,
      "z": 0.7148557901382446,
      "time_usec": 151612875273
    },
    {
      "x": 9.66221809387207,
      "y": -0.010767702013254166,
      "z": 0.7339983582496643,
      "time_usec": 151612877529
    },
    {
      "x": 9.675976753234863,
      "y": -0.03469592705368996,
      "z": 0.7627122402191162,
      "time_usec": 151612879790
    },
    {
      "x": 9.685547828674316,
      "y": -0.020338991656899452,
      "z": 0.7914260625839233,
      "time_usec": 151612882043
    },
    {
      "x": 9.68076229095459,
      "y": -0.015553346835076809,
      "z": 0.8297112584114075,
      "time_usec": 151612884305
    },
    {
      "x": 9.675378799438477,
      "y": -0.03469592705368996,
      "z": 0.8632107973098755,
      "time_usec": 151612886551
    },
    {
      "x": 9.66102123260498,
      "y": -0.06340979784727097,
      "z": 0.8967102766036987,
      "time_usec": 151612888821
    },
    {
      "x": 9.641879081726074,
      "y": -0.0729810893535614,
      "z": 0.8961120843887329,
      "time_usec": 151612891074
    },
    {
      "x": 9.622735977172852,
      "y": -0.10588239878416061,
      "z": 0.9056833982467651,
      "time_usec": 151612893340
    },
    {
      "x": 9.637093544006348,
      "y": -0.09690931439399719,
      "z": 0.9248259663581848,
      "time_usec": 151612895594
    },
    {
      "x": 9.617950439453125,
      "y": -0.09690931439399719,
      "z": 0.9152546525001526,
      "time_usec": 151612897853
    },
    {
      "x": 9.589835166931152,
      "y": -0.08673982322216034,
      "z": 0.9248259663581848,
      "time_usec": 151612900107
    },
    {
      "x": 9.585049629211426,
      "y": -0.09631111472845078,
      "z": 0.9296116232872009,
      "time_usec": 151612902360
    },
    {
      "x": 9.594620704650879,
      "y": -0.0771685317158699,
      "z": 0.9248259663581848,
      "time_usec": 151612904623
    },
    {
      "x": 9.599406242370605,
      "y": -0.06759724020957947,
      "z": 0.8913264274597168,
      "time_usec": 151612906877
    },
    {
      "x": 9.57607650756836,
      "y": -0.03888336941599846,
      "z": 0.8721838593482971,
      "time_usec": 151612909125
    },
    {
      "x": 9.580862045288086,
      "y": -0.05802594870328903,
      "z": 0.8721838593482971,
      "time_usec": 151612911391
    },
    {
      "x": 9.57607650756836,
      "y": -0.053240302950143814,
      "z": 0.8578268885612488,
      "time_usec": 151612913653
    },
    {
      "x": 9.561718940734863,
      "y": -0.053240302950143814,
      "z": 0.8291130661964417,
      "time_usec": 151612915913
    },
    {
      "x": 9.53360366821289,
      "y": -0.024526432156562805,
      "z": 0.8434699773788452,
      "time_usec": 151612918167
    },
    {
      "x": 9.514460563659668,
      "y": -0.029312077909708023,
      "z": 0.8195417523384094,
      "time_usec": 151612920419
    },
    {
      "x": 9.500103950500488,
      "y": -0.014955141581594944,
      "z": 0.8333004713058472,
      "time_usec": 151612922670
    },
    {
      "x": 9.466604232788086,
      "y": -0.04785645380616188,
      "z": 0.8380861282348633,
      "time_usec": 151612924939
    },
    {
      "x": 9.44327449798584,
      "y": -0.04785645380616188,
      "z": 0.857228696346283,
      "time_usec": 151612927197
    },
    {
      "x": 9.457033157348633,
      "y": -0.04307080805301666,
      "z": 0.8524430394172668,
      "time_usec": 151612929453
    },
    {
      "x": 9.46181869506836,
      "y": -0.04785645380616188,
      "z": 0.8476574420928955,
      "time_usec": 151612931706
    },
    {
      "x": 9.452247619628906,
      "y": -0.0526420995593071,
      "z": 0.8476574420928955,
      "time_usec": 151612933969
    },
    {
      "x": 9.476176261901855,
      "y": -0.05742774158716202,
      "z": 0.8668000102043152,
      "time_usec": 151612936227
    },
    {
      "x": 9.500103950500488,
      "y": -0.07238288223743439,
      "z": 0.8715856671333313,
      "time_usec": 151612938484
    },
    {
      "x": 9.547362327575684,
      "y": -0.048454657196998596,
      "z": 0.900897741317749,
      "time_usec": 151612940737
    },
    {
      "x": 9.575477600097656,
      "y": -0.053240302950143814,
      "z": 0.9152546525001526,
      "time_usec": 151612942995
    },
    {
      "x": 9.604191780090332,
      "y": -0.03888336941599846,
      "z": 0.9104689955711365,
      "time_usec": 151612945256
    },
    {
      "x": 9.623334884643555,
      "y": -0.058624155819416046,
      "z": 0.900897741317749,
      "time_usec": 151612947512
    },
    {
      "x": 9.642477035522461,
      "y": -0.06340979784727097,
      "z": 0.8913264274597168,
      "time_usec": 151612949757
    },
    {
      "x": 9.656235694885254,
      "y": -0.06340979784727097,
      "z": 0.8823533654212952,
      "time_usec": 151612952023
    },
    {
      "x": 9.642477035522461,
      "y": -0.0729810893535614,
      "z": 0.8817551732063293,
      "time_usec": 151612954285
    },
    {
      "x": 9.637691497802734,
      "y": -0.0729810893535614,
      "z": 0.8536394834518433,
      "time_usec": 151612956546
    },
    {
      "x": 9.642477035522461,
      "y": -0.06819544732570648,
      "z": 0.8536394834518433,
      "time_usec": 151612958800
    },
    {
      "x": 9.647262573242188,
      "y": -0.06340979784727097,
      "z": 0.8344969153404236,
      "time_usec": 151612961052
    },
    {
      "x": 9.637691497802734,
      "y": -0.03469592705368996,
      "z": 0.8488538265228271,
      "time_usec": 151612963315
    },
    {
      "x": 9.637691497802734,
      "y": -0.039481572806835175,
      "z": 0.8153542876243591,
      "time_usec": 151612965573
    },
    {
      "x": 9.647262573242188,
      "y": -0.02512463741004467,
      "z": 0.8057830333709717,
      "time_usec": 151612967831
    },
    {
      "x": 9.65683364868164,
      "y": -0.058624155819416046,
      "z": 0.7962117195129395,
      "time_usec": 151612970087
    },
    {
      "x": 9.637691497802734,
      "y": -0.0729810893535614,
      "z": 0.7770691514015198,
      "time_usec": 151612972339
    },
    {
      "x": 9.632905960083008,
      "y": -0.06819544732570648,
      "z": 0.7818548083305359,
      "time_usec": 151612974602
    },
    {
      "x": 9.609575271606445,
      "y": -0.06819544732570648,
      "z": 0.7908278703689575,
      "time_usec": 151612976858
    },
    {
      "x": 9.623334884643555,
      "y": -0.08733802288770676,
      "z": 0.8057830333709717,
      "time_usec": 151612979116
    },
    {
      "x": 9.632905960083008,
      "y": -0.07776673883199692,
      "z": 0.8201399445533752,
      "time_usec": 151612981369
    },
    {
      "x": 9.623334884643555,
      "y": -0.06819544732570648,
      "z": 0.8291130661964417,
      "time_usec": 151612983632
    },
    {
      "x": 9.604191780090332,
      "y": -0.05383851006627083,
      "z": 0.8530412912368774,
      "time_usec": 151612985888
    },
    {
      "x": 9.69930648803711,
      "y": -0.05383851006627083,
      "z": 0.8153542876243591,
      "time_usec": 151612988147
    },
    {
      "x": 9.713663101196289,
      "y": -0.054436713457107544,
      "z": 0.8249256014823914,
      "time_usec": 151612990402
    },
    {
      "x": 9.708877563476562,
      "y": -0.05922235921025276,
      "z": 0.8249256014823914,
      "time_usec": 151612992652
    },
    {
      "x": 9.765707015991211,
      "y": -0.054436713457107544,
      "z": 0.849452018737793,
      "time_usec": 151612994904
    },
    {
      "x": 9.808777809143066,
      "y": -0.04007977992296219,
      "z": 0.8398807644844055,
      "time_usec": 151612997174
    },
    {
      "x": 9.832706451416016,
      "y": -0.01615155301988125,
      "z": 0.8638089895248413,
      "time_usec": 151612999428
    },
    {
      "x": 9.865608215332031,
      "y": -0.007178467698395252,
      "z": 0.8644071817398071,
      "time_usec": 151613001686
    },
    {
      "x": 9.884750366210938,
      "y": 0.007178467698395252,
      "z": 0.8691928386688232,
      "time_usec": 151613003931
    },
    {
      "x": 9.903892517089844,
      "y": 0.0023928226437419653,
      "z": 0.8835497498512268,
      "time_usec": 151613006194
    },
    {
      "x": 9.917651176452637,
      "y": 0.01196411345154047,
      "z": 0.9122636318206787,
      "time_usec": 151613008466
    },
    {
      "x": 9.917651176452637,
      "y": 0.016749758273363113,
      "z": 0.9361918568611145,
      "time_usec": 151613010717
    },
    {
      "x": 9.908080101013184,
      "y": 0.01196411345154047,
      "z": 0.9553344249725342,
      "time_usec": 151613012977
    },
    {
      "x": 9.903294563293457,
      "y": 0.02153540402650833,
      "z": 0.9834501147270203,
      "time_usec": 151613015233
    },
    {
      "x": 9.91286563873291,
      "y": 0.01196411345154047,
      "z": 1.0169496536254883,
      "time_usec": 151613017490
    },
    {
      "x": 9.926624298095703,
      "y": 0.02153540402650833,
      "z": 1.0265209674835205,
      "time_usec": 151613019737
    },
    {
      "x": 9.91705322265625,
      "y": 0.016749758273363113,
      "z": 1.0456634759902954,
      "time_usec": 151613022001
    },
    {
      "x": 9.91705322265625,
      "y": 0.02153540402650833,
      "z": 1.074377417564392,
      "time_usec": 151613024263
    },
    {
      "x": 9.912267684936523,
      "y": 0.046061836183071136,
      "z": 1.1030912399291992,
      "time_usec": 151613026524
    },
    {
      "x": 9.931410789489746,
      "y": 0.035892341285943985,
      "z": 1.093519926071167,
      "time_usec": 151613028778
    },
    {
      "x": 9.931410789489746,
      "y": 0.02632104977965355,
      "z": 1.0791629552841187,
      "time_usec": 151613031031
    },
    {
      "x": 9.945169448852539,
      "y": -0.0023928226437419653,
      "z": 1.098305583000183,
      "time_usec": 151613033293
    },
    {
      "x": 9.93559741973877,
      "y": -0.02632104977965355,
      "z": 1.0839486122131348,
      "time_usec": 151613035548
    },
    {
      "x": 9.926026344299316,
      "y": -0.031106693670153618,
      "z": 1.0887342691421509,
      "time_usec": 151613037798
    },
    {
      "x": 9.912267684936523,
      "y": -0.035892341285943985,
      "z": 1.0791629552841187,
      "time_usec": 151613040064
    },
    {
      "x": 9.878767967224121,
      "y": -0.06400800496339798,
      "z": 1.069591760635376,
      "time_usec": 151613042318
    },
    {
      "x": 9.869196891784668,
      "y": -0.07357929646968842,
      "z": 1.0552347898483276,
      "time_usec": 151613044583
    },
    {
      "x": 9.841081619262695,
      "y": -0.07836493849754333,
      "z": 0.9978070259094238,
      "time_usec": 151613046837
    },
    {
      "x": 9.821938514709473,
      "y": -0.08793623000383377,
      "z": 0.973878800868988,
      "time_usec": 151613049094
    },
    {
      "x": 9.802796363830566,
      "y": -0.10707881301641464,
      "z": 0.9643075466156006,
      "time_usec": 151613051347
    },
    {
      "x": 9.774680137634277,
      "y": -0.11186445504426956,
      "z": 0.9445667266845703,
      "time_usec": 151613053610
    },
    {
      "x": 9.732208251953125,
      "y": -0.11665010452270508,
      "z": 0.9206385016441345,
      "time_usec": 151613055868
    },
    {
      "x": 9.717850685119629,
      "y": -0.12622138857841492,
      "z": 0.9110672473907471,
      "time_usec": 151613058122
    },
    {
      "x": 9.70349407196045,
      "y": -0.11605189740657806,
      "z": 0.8967102766036987,
      "time_usec": 151613060368
    },
    {
      "x": 9.680164337158203,
      "y": -0.11605189740657806,
      "z": 0.8871390223503113,
      "time_usec": 151613062634
    },
    {
      "x": 9.675378799438477,
      "y": -0.12083754688501358,
      "z": 0.8967102766036987,
      "time_usec": 151613064896
    },
    {
      "x": 9.637093544006348,
      "y": -0.13519448041915894,
      "z": 0.8913264274597168,
      "time_usec": 151613067157
    },
    {
      "x": 9.641879081726074,
      "y": -0.13040883839130402,
      "z": 0.8344969153404236,
      "time_usec": 151613069412
    },
    {
      "x": 9.642477035522461,
      "y": -0.1256231814622879,
      "z": 0.8344969153404236,
      "time_usec": 151613071664
    },
    {
      "x": 9.656235694885254,
      "y": -0.13998012244701385,
      "z": 0.8392825126647949,
      "time_usec": 151613073927
    },
    {
      "x": 9.66102123260498,
      "y": -0.13998012244701385,
      "z": 0.8105686902999878,
      "time_usec": 151613076181
    },
    {
      "x": 9.656235694885254,
      "y": -0.13519448041915894,
      "z": 0.8297112584114075,
      "time_usec": 151613078435
    },
    {
      "x": 9.670592308044434,
      "y": -0.13519448041915894,
      "z": 0.844068169593811,
      "time_usec": 151613080692
    },
    {
      "x": 9.675378799438477,
      "y": -0.13040883839130402,
      "z": 0.8536394834518433,
      "time_usec": 151613082953
    },
    {
      "x": 9.675378799438477,
      "y": -0.11605189740657806,
      "z": 0.8679963946342468,
      "time_usec": 151613085214
    },
    {
      "x": 9.713065147399902,
      "y": -0.12143574655056,
      "z": 0.8871390223503113,
      "time_usec": 151613087473
    },
    {
      "x": 9.717850685119629,
      "y": -0.11186445504426956,
      "z": 0.8823533654212952,
      "time_usec": 151613089734
    },
    {
      "x": 9.722636222839355,
      "y": -0.11186445504426956,
      "z": 0.9302098155021667,
      "time_usec": 151613091977
    },
    {
      "x": 9.751350402832031,
      "y": -0.10229317098855972,
      "z": 0.9302098155021667,
      "time_usec": 151613094229
    },
    {
      "x": 9.774680137634277,
      "y": -0.0975075215101242,
      "z": 0.9302098155021667,
      "time_usec": 151613096497
    },
    {
      "x": 9.7938232421875,
      "y": -0.0975075215101242,
      "z": 0.9260223507881165,
      "time_usec": 151613098753
    },
    {
      "x": 9.789037704467773,
      "y": -0.07836493849754333,
      "z": 0.9116654396057129,
      "time_usec": 151613101012
    },
    {
      "x": 9.7938232421875,
      "y": -0.08315058797597885,
      "z": 0.9212366938591003,
      "time_usec": 151613103271
    },
    {
      "x": 9.80817985534668,
      "y": -0.0687936544418335,
      "z": 0.9020941257476807,
      "time_usec": 151613105530
    },
    {
      "x": 9.798608779907227,
      "y": -0.06400800496339798,
      "z": 0.9020941257476807,
      "time_usec": 151613107788
    },
    {
      "x": 9.822537422180176,
      "y": -0.04486542567610741,
      "z": 0.9020941257476807,
      "time_usec": 151613110043
    },
    {
      "x": 9.808777809143066,
      "y": -0.04007977992296219,
      "z": 0.8733802437782288,
      "time_usec": 151613112296
    },
    {
      "x": 9.808777809143066,
      "y": -0.01136590726673603,
      "z": 0.8638089895248413,
      "time_usec": 151613114559
    },
    {
      "x": 9.794421195983887,
      "y": -0.025722842663526535,
      "z": 0.8685946464538574,
      "time_usec": 151613116816
    },
    {
      "x": 9.78963565826416,
      "y": -0.01136590726673603,
      "z": 0.8638089895248413,
      "time_usec": 151613119073
    },
    {
      "x": 9.77527904510498,
      "y": -0.01615155301988125,
      "z": 0.8685946464538574,
      "time_usec": 151613121325
    },
    {
      "x": 9.760921478271484,
      "y": -0.04007977992296219,
      "z": 0.8590233325958252,
      "time_usec": 151613123588
    },
    {
      "x": 9.756135940551758,
      "y": -0.04486542567610741,
      "z": 0.8638089895248413,
      "time_usec": 151613125846
    },
    {
      "x": 9.747162818908691,
      "y": -0.05922235921025276,
      "z": 0.8488538265228271,
      "time_usec": 151613128102
    },
    {
      "x": 9.760921478271484,
      "y": -0.06400800496339798,
      "z": 0.8255237936973572,
      "time_usec": 151613130345
    },
    {
      "x": 9.765707015991211,
      "y": -0.07836493849754333,
      "z": 0.8303094506263733,
      "time_usec": 151613132606
    },
    {
      "x": 9.756135940551758,
      "y": -0.08315058797597885,
      "z": 0.8303094506263733,
      "time_usec": 151613134874
    },
    {
      "x": 9.756135940551758,
      "y": -0.07357929646968842,
      "z": 0.8207381963729858,
      "time_usec": 151613137135
    },
    {
      "x": 9.765707015991211,
      "y": -0.07836493849754333,
      "z": 0.8111668825149536,
      "time_usec": 151613139391
    },
    {
      "x": 9.780064582824707,
      "y": -0.06400800496339798,
      "z": 0.8159525394439697,
      "time_usec": 151613141642
    },
    {
      "x": 9.770493507385254,
      "y": -0.08315058797597885,
      "z": 0.8207381963729858,
      "time_usec": 151613143904
    },
    {
      "x": 9.770493507385254,
      "y": -0.08315058797597885,
      "z": 0.8350951075553894,
      "time_usec": 151613146164
    },
    {
      "x": 9.751350402832031,
      "y": -0.10707881301641464,
      "z": 0.8446664214134216,
      "time_usec": 151613148424
    },
    {
      "x": 9.746564865112305,
      "y": -0.10229317098855972,
      "z": 0.8727820515632629,
      "time_usec": 151613150670
    },
    {
      "x": 9.751350402832031,
      "y": -0.0975075215101242,
      "z": 0.877567708492279,
      "time_usec": 151613152928
    },
    {
      "x": 9.746564865112305,
      "y": -0.11665010452270508,
      "z": 0.8823533654212952,
      "time_usec": 151613155189
    },
    {
      "x": 9.751350402832031,
      "y": -0.09272187948226929,
      "z": 0.8871390223503113,
      "time_usec": 151613157443
    },
    {
      "x": 9.741779327392578,
      "y": -0.09272187948226929,
      "z": 0.9014959335327148,
      "time_usec": 151613159694
    },
    {
      "x": 9.760323524475098,
      "y": -0.11186445504426956,
      "z": 0.9014959335327148,
      "time_usec": 151613161958
    },
    {
      "x": 9.741779327392578,
      "y": -0.12622138857841492,
      "z": 0.9014959335327148,
      "time_usec": 151613164223
    },
    {
      "x": 9.760323524475098,
      "y": -0.11186445504426956,
      "z": 0.9206385016441345,
      "time_usec": 151613166481
    },
    {
      "x": 9.760323524475098,
      "y": -0.12143574655056,
      "z": 0.9445667266845703,
      "time_usec": 151613168734
    },
    {
      "x": 9.745966911315918,
      "y": -0.1501496136188507,
      "z": 0.9206385016441345,
      "time_usec": 151613170987
    },
    {
      "x": 9.765109062194824,
      "y": -0.13100704550743103,
      "z": 0.882951557636261,
      "time_usec": 151613173250
    },
    {
      "x": 9.751350402832031,
      "y": -0.09272187948226929,
      "z": 0.877567708492279,
      "time_usec": 151613175508
    },
    {
      "x": 9.732208251953125,
      "y": -0.05922235921025276,
      "z": 0.8919246196746826,
      "time_usec": 151613177766
    },
    {
      "x": 9.727422714233398,
      "y": -0.039481572806835175,
      "z": 0.906281590461731,
      "time_usec": 151613180021
    },
    {
      "x": 9.708279609680176,
      "y": -0.06819544732570648,
      "z": 0.9158528447151184,
      "time_usec": 151613182276
    },
    {
      "x": 9.70349407196045,
      "y": -0.07776673883199692,
      "z": 0.8967102766036987,
      "time_usec": 151613184537
    },
    {
      "x": 9.704092025756836,
      "y": -0.06819544732570648,
      "z": 0.8727820515632629,
      "time_usec": 151613186795
    },
    {
      "x": 9.713663101196289,
      "y": -0.07357929646968842,
      "z": 0.8297112584114075,
      "time_usec": 151613189051
    },
    {
      "x": 9.713663101196289,
      "y": -0.07836493849754333,
      "z": 0.7722834944725037,
      "time_usec": 151613191304
    },
    {
      "x": 9.732806205749512,
      "y": -0.05922235921025276,
      "z": 0.763310432434082,
      "time_usec": 151613193567
    },
    {
      "x": 9.732806205749512,
      "y": -0.054436713457107544,
      "z": 0.7585247755050659,
      "time_usec": 151613195824
    },
    {
      "x": 9.742377281188965,
      "y": -0.03529413416981697,
      "z": 0.7872386574745178,
      "time_usec": 151613198082
    },
    {
      "x": 9.756733894348145,
      "y": -0.020937198773026466,
      "z": 0.8015955686569214,
      "time_usec": 151613200338
    },
    {
      "x": 9.775876998901367,
      "y": -0.01615155301988125,
      "z": 0.8303094506263733,
      "time_usec": 151613202591
    },
    {
      "x": 9.780064582824707,
      "y": -0.04007977992296219,
      "z": 0.849452018737793,
      "time_usec": 151613204853
    },
    {
      "x": 9.77527904510498,
      "y": -0.04007977992296219,
      "z": 0.8303094506263733,
      "time_usec": 151613207111
    },
    {
      "x": 9.780064582824707,
      "y": -0.049651071429252625,
      "z": 0.8398807644844055,
      "time_usec": 151613209368
    },
    {
      "x": 9.765707015991211,
      "y": -0.07836493849754333,
      "z": 0.8255237936973572,
      "time_usec": 151613211620
    },
    {
      "x": 9.780064582824707,
      "y": -0.07836493849754333,
      "z": 0.8303094506263733,
      "time_usec": 151613213882
    },
    {
      "x": 9.765707015991211,
      "y": -0.08793623000383377,
      "z": 0.8638089895248413,
      "time_usec": 151613216140
    },
    {
      "x": 9.78963565826416,
      "y": -0.0687936544418335,
      "z": 0.8781659007072449,
      "time_usec": 151613218399
    },
    {
      "x": 9.803394317626953,
      "y": -0.08315058797597885,
      "z": 0.8685946464538574,
      "time_usec": 151613220649
    },
    {
      "x": 9.812965393066406,
      "y": -0.09272187948226929,
      "z": 0.8781659007072449,
      "time_usec": 151613222907
    },
    {
      "x": 9.822537422180176,
      "y": -0.05922235921025276,
      "z": 0.8590233325958252,
      "time_usec": 151613225168
    },
    {
      "x": 9.836894035339355,
      "y": -0.06400800496339798,
      "z": 0.8781659007072449,
      "time_usec": 151613227424
    },
    {
      "x": 9.827322959899902,
      "y": -0.0687936544418335,
      "z": 0.8781659007072449,
      "time_usec": 151613229683
    },
    {
      "x": 9.812965393066406,
      "y": -0.0687936544418335,
      "z": 0.8877372145652771,
      "time_usec": 151613231929
    },
    {
      "x": 9.822537422180176,
      "y": -0.0687936544418335,
      "z": 0.9068797826766968,
      "time_usec": 151613234200
    },
    {
      "x": 9.841679573059082,
      "y": -0.054436713457107544,
      "z": 0.9260223507881165,
      "time_usec": 151613236454
    },
    {
      "x": 9.817750930786133,
      "y": -0.0687936544418335,
      "z": 0.9212366938591003,
      "time_usec": 151613238717
    },
    {
      "x": 9.827322959899902,
      "y": -0.08315058797597885,
      "z": 0.916451096534729,
      "time_usec": 151613240966
    },
    {
      "x": 9.845867156982422,
      "y": -0.08793623000383377,
      "z": 0.9355936646461487,
      "time_usec": 151613243226
    },
    {
      "x": 9.841679573059082,
      "y": -0.06400800496339798,
      "z": 0.916451096534729,
      "time_usec": 151613245471
    },
    {
      "x": 9.855438232421875,
      "y": -0.059820566326379776,
      "z": 0.916451096534729,
      "time_usec": 151613247739
    },
    {
      "x": 9.846465110778809,
      "y": -0.04486542567610741,
      "z": 0.9068797826766968,
      "time_usec": 151613249999
    },
    {
      "x": 9.851250648498535,
      "y": -0.05503492057323456,
      "z": 0.8925228714942932,
      "time_usec": 151613252256
    },
    {
      "x": 9.851250648498535,
      "y": -0.05024927482008934,
      "z": 0.8781659007072449,
      "time_usec": 151613254518
    },
    {
      "x": 9.846465110778809,
      "y": -0.059820566326379776,
      "z": 0.8877372145652771,
      "time_usec": 151613256773
    },
    {
      "x": 9.856036186218262,
      "y": -0.05503492057323456,
      "z": 0.882951557636261,
      "time_usec": 151613259031
    },
    {
      "x": 9.832108497619629,
      "y": -0.025722842663526535,
      "z": 0.882951557636261,
      "time_usec": 151613261282
    },
    {
      "x": 9.822537422180176,
      "y": -0.03529413416981697,
      "z": 0.9020941257476807,
      "time_usec": 151613263545
    },
    {
      "x": 9.827322959899902,
      "y": -0.04007977992296219,
      "z": 0.9116654396057129,
      "time_usec": 151613265802
    },
    {
      "x": 9.827322959899902,
      "y": -0.03529413416981697,
      "z": 0.9260223507881165,
      "time_usec": 151613268059
    },
    {
      "x": 9.827322959899902,
      "y": -0.025722842663526535,
      "z": 0.9451649188995361,
      "time_usec": 151613270311
    },
    {
      "x": 9.812965393066406,
      "y": -0.04486542567610741,
      "z": 0.9547362327575684,
      "time_usec": 151613272567
    },
    {
      "x": 9.7938232421875,
      "y": -0.054436713457107544,
      "z": 1.0019944906234741,
      "time_usec": 151613274820
    },
    {
      "x": 9.78843879699707,
      "y": -0.08315058797597885,
      "z": 1.0115658044815063,
      "time_usec": 151613277088
    },
    {
      "x": 9.78843879699707,
      "y": -0.10229317098855972,
      "z": 1.0067801475524902,
      "time_usec": 151613279335
    },
    {
      "x": 9.769296646118164,
      "y": -0.12622138857841492,
      "z": 1.0019944906234741,
      "time_usec": 151613281601
    },
    {
      "x": 9.755537986755371,
      "y": -0.13579268753528595,
      "z": 1.0019944906234741,
      "time_usec": 151613283857
    },
    {
      "x": 9.754940032958984,
      "y": -0.13100704550743103,
      "z": 1.0211371183395386,
      "time_usec": 151613286121
    },
    {
      "x": 9.740582466125488,
      "y": -0.1543370634317398,
      "z": 1.0211371183395386,
      "time_usec": 151613288376
    },
    {
      "x": 9.722038269042969,
      "y": -0.17347964644432068,
      "z": 1.0067801475524902,
      "time_usec": 151613290629
    },
    {
      "x": 9.717252731323242,
      "y": -0.16869398951530457,
      "z": 0.9684949517250061,
      "time_usec": 151613292883
    },
    {
      "x": 9.698110580444336,
      "y": -0.1782652884721756,
      "z": 0.9541380405426025,
      "time_usec": 151613295133
    },
    {
      "x": 9.6795654296875,
      "y": -0.19262222945690155,
      "z": 0.9349954724311829,
      "time_usec": 151613297394
    },
    {
      "x": 9.669994354248047,
      "y": -0.2021935135126114,
      "z": 0.9110672473907471,
      "time_usec": 151613299663
    },
    {
      "x": 9.65085220336914,
      "y": -0.2021935135126114,
      "z": 0.9056833982467651,
      "time_usec": 151613301918
    },
    {
      "x": 9.641280174255371,
      "y": -0.18783657252788544,
      "z": 0.900897741317749,
      "time_usec": 151613304180
    },
    {
      "x": 9.617950439453125,
      "y": -0.19262222945690155,
      "z": 0.8721838593482971,
      "time_usec": 151613306431
    },
    {
      "x": 9.575477600097656,
      "y": -0.18723836541175842,
      "z": 0.8578268885612488,
      "time_usec": 151613308694
    },
    {
      "x": 9.57069206237793,
      "y": -0.2069791555404663,
      "z": 0.833898663520813,
      "time_usec": 151613310942
    },
    {
      "x": 9.55214786529541,
      "y": -0.17288143932819366,
      "z": 0.8003991842269897,
      "time_usec": 151613313197
    },
    {
      "x": 9.551549911499023,
      "y": -0.19680966436862946,
      "z": 0.7956135272979736,
      "time_usec": 151613315467
    },
    {
      "x": 9.53779125213623,
      "y": -0.17766708135604858,
      "z": 0.7908278703689575,
      "time_usec": 151613317730
    },
    {
      "x": 9.533005714416504,
      "y": -0.17288143932819366,
      "z": 0.7860422134399414,
      "time_usec": 151613319981
    },
    {
      "x": 9.533005714416504,
      "y": -0.1585244983434677,
      "z": 0.7812566161155701,
      "time_usec": 151613322231
    },
    {
      "x": 9.533005714416504,
      "y": -0.1537388563156128,
      "z": 0.8003991842269897,
      "time_usec": 151613324493
    },
    {
      "x": 9.504291534423828,
      "y": -0.16331014037132263,
      "z": 0.828514814376831,
      "time_usec": 151613326752
    },
    {
      "x": 9.509077072143555,
      "y": -0.1585244983434677,
      "z": 0.8141579031944275,
      "time_usec": 151613329007
    },
    {
      "x": 9.509077072143555,
      "y": -0.13459627330303192,
      "z": 0.828514814376831,
      "time_usec": 151613331255
    },
    {
      "x": 9.504291534423828,
      "y": -0.14895321428775787,
      "z": 0.8476574420928955,
      "time_usec": 151613333523
    },
    {
      "x": 9.470791816711426,
      "y": -0.15314064919948578,
      "z": 0.8715856671333313,
      "time_usec": 151613335781
    },
    {
      "x": 9.494720458984375,
      "y": -0.12023933976888657,
      "z": 0.8763712644577026,
      "time_usec": 151613338040
    },
    {
      "x": 9.499505996704102,
      "y": -0.13938191533088684,
      "z": 0.8955138921737671,
      "time_usec": 151613340291
    },
    {
      "x": 9.504291534423828,
      "y": -0.13459627330303192,
      "z": 0.8955138921737671,
      "time_usec": 151613342548
    },
    {
      "x": 9.5324068069458,
      "y": -0.13459627330303192,
      "z": 0.9050851464271545,
      "time_usec": 151613344811
    },
    {
      "x": 9.546764373779297,
      "y": -0.12023933976888657,
      "z": 0.9050851464271545,
      "time_usec": 151613347069
    },
    {
      "x": 9.561120986938477,
      "y": -0.12023933976888657,
      "z": 0.8817551732063293,
      "time_usec": 151613349325
    },
    {
      "x": 9.575477600097656,
      "y": -0.10588239878416061,
      "z": 0.8769695162773132,
      "time_usec": 151613351577
    },
    {
      "x": 9.585049629211426,
      "y": -0.08195417374372482,
      "z": 0.8721838593482971,
      "time_usec": 151613353840
    },
    {
      "x": 9.57069206237793,
      "y": -0.08195417374372482,
      "z": 0.8721838593482971,
      "time_usec": 151613356098
    },
    {
      "x": 9.585049629211426,
      "y": -0.09152546525001526,
      "z": 0.900897741317749,
      "time_usec": 151613358356
    },
    {
      "x": 9.599406242370605,
      "y": -0.06281159073114395,
      "z": 0.9104689955711365,
      "time_usec": 151613360606
    },
    {
      "x": 9.632308006286621,
      "y": -0.07776673883199692,
      "z": 0.9104689955711365,
      "time_usec": 151613362864
    },
    {
      "x": 9.651450157165527,
      "y": -0.08733802288770676,
      "z": 0.9200403094291687,
      "time_usec": 151613365123
    },
    {
      "x": 9.637093544006348,
      "y": -0.11605189740657806,
      "z": 0.8865407705307007,
      "time_usec": 151613367385
    },
    {
      "x": 9.632308006286621,
      "y": -0.11605189740657806,
      "z": 0.8769695162773132,
      "time_usec": 151613369641
    },
    {
      "x": 9.627521514892578,
      "y": -0.1256231814622879,
      "z": 0.8769695162773132,
      "time_usec": 151613371894
    },
    {
      "x": 9.627521514892578,
      "y": -0.13040883839130402,
      "z": 0.8865407705307007,
      "time_usec": 151613374157
    },
    {
      "x": 9.627521514892578,
      "y": -0.13040883839130402,
      "z": 0.8865407705307007,
      "time_usec": 151613376417
    },
    {
      "x": 9.651450157165527,
      "y": -0.08733802288770676,
      "z": 0.8961120843887329,
      "time_usec": 151613378671
    },
    {
      "x": 9.656235694885254,
      "y": -0.10648060590028763,
      "z": 0.9296116232872009,
      "time_usec": 151613380924
    },
    {
      "x": 9.670592308044434,
      "y": -0.0729810893535614,
      "z": 0.906281590461731,
      "time_usec": 151613383184
    },
    {
      "x": 9.6466646194458,
      "y": -0.06819544732570648,
      "z": 0.9248259663581848,
      "time_usec": 151613385438
    },
    {
      "x": 9.6466646194458,
      "y": -0.06819544732570648,
      "z": 0.9152546525001526,
      "time_usec": 151613387700
    },
    {
      "x": 9.651450157165527,
      "y": -0.07776673883199692,
      "z": 0.8961120843887329,
      "time_usec": 151613389951
    },
    {
      "x": 9.637093544006348,
      "y": -0.09212367236614227,
      "z": 0.8961120843887329,
      "time_usec": 151613392208
    },
    {
      "x": 9.6466646194458,
      "y": -0.10648060590028763,
      "z": 0.9152546525001526,
      "time_usec": 151613394460
    },
    {
      "x": 9.665806770324707,
      "y": -0.08255238085985184,
      "z": 0.9110672473907471,
      "time_usec": 151613396734
    },
    {
      "x": 9.684351921081543,
      "y": -0.10648060590028763,
      "z": 0.9110672473907471,
      "time_usec": 151613398988
    },
    {
      "x": 9.6795654296875,
      "y": -0.13040883839130402,
      "z": 0.9110672473907471,
      "time_usec": 151613401240
    },
    {
      "x": 9.693922996520996,
      "y": -0.1256231814622879,
      "z": 0.9349954724311829,
      "time_usec": 151613403488
    },
    {
      "x": 9.674779891967773,
      "y": -0.13998012244701385,
      "z": 0.9302098155021667,
      "time_usec": 151613405752
    },
    {
      "x": 9.6795654296875,
      "y": -0.13040883839130402,
      "z": 0.9541380405426025,
      "time_usec": 151613408017
    },
    {
      "x": 9.688538551330566,
      "y": -0.13998012244701385,
      "z": 0.9918249845504761,
      "time_usec": 151613410272
    },
    {
      "x": 9.674779891967773,
      "y": -0.1256231814622879,
      "z": 0.9774680733680725,
      "time_usec": 151613412528
    },
    {
      "x": 9.66520881652832,
      "y": -0.13519448041915894,
      "z": 0.9822536706924438,
      "time_usec": 151613414789
    },
    {
      "x": 9.631709098815918,
      "y": -0.1495514214038849,
      "z": 0.9726824164390564,
      "time_usec": 151613417048
    },
    {
      "x": 9.631709098815918,
      "y": -0.1495514214038849,
      "z": 0.9678967595100403,
      "time_usec": 151613419304
    },
    {
      "x": 9.622735977172852,
      "y": -0.1543370634317398,
      "z": 0.9535398483276367,
      "time_usec": 151613421556
    },
    {
      "x": 9.641879081726074,
      "y": -0.13040883839130402,
      "z": 0.9248259663581848,
      "time_usec": 151613423818
    },
    {
      "x": 9.651450157165527,
      "y": -0.13040883839130402,
      "z": 0.900897741317749,
      "time_usec": 151613426076
    },
    {
      "x": 9.675378799438477,
      "y": -0.09212367236614227,
      "z": 0.8823533654212952,
      "time_usec": 151613428331
    },
    {
      "x": 9.656235694885254,
      "y": -0.08733802288770676,
      "z": 0.8871390223503113,
      "time_usec": 151613430577
    },
    {
      "x": 9.680164337158203,
      "y": -0.06340979784727097,
      "z": 0.8584251403808594,
      "time_usec": 151613432843
    },
    {
      "x": 9.694520950317383,
      "y": -0.058624155819416046,
      "z": 0.8536394834518433,
      "time_usec": 151613435106
    },
    {
      "x": 9.708877563476562,
      "y": -0.0687936544418335,
      "z": 0.8488538265228271,
      "time_usec": 151613437366
    },
    {
      "x": 9.704092025756836,
      "y": -0.06819544732570648,
      "z": 0.8679963946342468,
      "time_usec": 151613439620
    },
    {
      "x": 9.704092025756836,
      "y": -0.05922235921025276,
      "z": 0.8392825126647949,
      "time_usec": 151613441868
    },
    {
      "x": 9.723235130310059,
      "y": -0.0687936544418335,
      "z": 0.8344969153404236,
      "time_usec": 151613444122
    },
    {
      "x": 9.718449592590332,
      "y": -0.054436713457107544,
      "z": 0.8201399445533752,
      "time_usec": 151613446392
    },
    {
      "x": 9.728020668029785,
      "y": -0.01615155301988125,
      "z": 0.8153542876243591,
      "time_usec": 151613448649
    },
    {
      "x": 9.747162818908691,
      "y": -0.03529413416981697,
      "z": 0.8159525394439697,
      "time_usec": 151613450905
    },
    {
      "x": 9.751948356628418,
      "y": -0.006580262444913387,
      "z": 0.8111668825149536,
      "time_usec": 151613453166
    },
    {
      "x": 9.761520385742188,
      "y": 0.012562318705022335,
      "z": 0.8111668825149536,
      "time_usec": 151613455424
    },
    {
      "x": 9.7998046875,
      "y": 0.026919255033135414,
      "z": 0.8350951075553894,
      "time_usec": 151613457677
    },
    {
      "x": 9.80399227142334,
      "y": 0.026919255033135414,
      "z": 0.8733802437782288,
      "time_usec": 151613459923
    },
    {
      "x": 9.80399227142334,
      "y": 0.04127619042992592,
      "z": 0.882951557636261,
      "time_usec": 151613462187
    },
    {
      "x": 9.81356430053711,
      "y": 0.050847481936216354,
      "z": 0.882951557636261,
      "time_usec": 151613464448
    },
    {
      "x": 9.827920913696289,
      "y": 0.05563312768936157,
      "z": 0.8781659007072449,
      "time_usec": 151613466712
    },
    {
      "x": 9.842277526855469,
      "y": 0.05563312768936157,
      "z": 0.9020941257476807,
      "time_usec": 151613468966
    },
    {
      "x": 9.832108497619629,
      "y": 0.0077766734175384045,
      "z": 0.916451096534729,
      "time_usec": 151613471220
    },
    {
      "x": 9.841679573059082,
      "y": 0.0077766734175384045,
      "z": 0.9212366938591003,
      "time_usec": 151613473480
    },
    {
      "x": 9.832108497619629,
      "y": 0.0029910283628851175,
      "z": 0.9212366938591003,
      "time_usec": 151613475736
    },
    {
      "x": 9.80399227142334,
      "y": 0.012562318705022335,
      "z": 0.9068797826766968,
      "time_usec": 151613477995
    },
    {
      "x": 9.794421195983887,
      "y": 0.022133609279990196,
      "z": 0.9308080077171326,
