{
  "frames": [
    {
      "frame_id": 0,
      "sensor_timestamp": 667973346097114,
      "time_usec": 667973346097
    },
    {
      "frame_id": 1,
      "sensor_timestamp": 667973412589790,
      "time_usec": 667973412589
    },
    {
      "frame_id": 2,
      "sensor_timestamp": 667973445836372,
      "time_usec": 667973445836
    },
    {
      "frame_id": 3,
      "sensor_timestamp": 667973479082710,
      "time_usec": 667973479082
    },
    {
      "frame_id": 4,
      "sensor_timestamp": 667973512329048,
      "time_usec": 667973512329
    },
    {
      "frame_id": 5,
      "sensor_timestamp": 667973545575385,
      "time_usec": 667973545575
    },
    {
      "frame_id": 6,
      "sensor_timestamp": 667973578821968,
      "time_usec": 667973578821
    },
    {
      "frame_id": 7,
      "sensor_timestamp": 667973612068305,
      "time_usec": 667973612068
    },
    {
      "frame_id": 8,
      "sensor_timestamp": 667973645314643,
      "time_usec": 667973645314
    },
    {
      "frame_id": 9,
      "sensor_timestamp": 667973678560981,
      "time_usec": 667973678560
    },
    {
      "frame_id": 10,
      "sensor_timestamp": 667973711807563,
      "time_usec": 667973711807
    },
    {
      "frame_id": 11,
      "sensor_timestamp": 667973745053901,
      "time_usec": 667973745053
    },
    {
      "frame_id": 12,
      "sensor_timestamp": 667973778300239,
      "time_usec": 667973778300
    },
    {
      "frame_id": 13,
      "sensor_timestamp": 667973811546577,
      "time_usec": 667973811546
    },
    {
      "frame_id": 14,
      "sensor_timestamp": 667973844793159,
      "time_usec": 667973844793
    },
    {
      "frame_id": 15,
      "sensor_timestamp": 667973878039497,
      "time_usec": 667973878039
    },
    {
      "frame_id": 16,
      "sensor_timestamp": 667973911285835,
      "time_usec": 667973911285
    },
    {
      "frame_id": 17,
      "sensor_timestamp": 667973944532173,
      "time_usec": 667973944532
    },
    {
      "frame_id": 18,
      "sensor_timestamp": 667973977778755,
      "time_usec": 667973977778
    },
    {
      "frame_id": 19,
      "sensor_timestamp": 667974011025093,
      "time_usec": 667974011025
    },
    {
      "frame_id": 20,
      "sensor_timestamp": 667974044271430,
      "time_usec": 667974044271
    },
    {
      "frame_id": 21,
      "sensor_timestamp": 667974077517768,
      "time_usec": 667974077517
    },
    {
      "frame_id": 22,
      "sensor_timestamp": 667974110764350,
      "time_usec": 667974110764
    },
    {
      "frame_id": 23,
      "sensor_timestamp": 667974144010688,
      "time_usec": 667974144010
    },
    {
      "frame_id": 24,
      "sensor_timestamp": 667974177257026,
      "time_usec": 667974177257
    },
    {
      "frame_id": 25,
      "sensor_timestamp": 667974210503364,
      "time_usec": 667974210503
    },
    {
      "frame_id": 26,
      "sensor_timestamp": 667974243749946,
      "time_usec": 667974243749
    },
    {
      "frame_id": 27,
      "sensor_timestamp": 667974276996284,
      "time_usec": 667974276996
    },
    {
      "frame_id": 28,
      "sensor_timestamp": 667974310242622,
      "time_usec": 667974310242
    },
    {
      "frame_id": 29,
      "sensor_timestamp": 667974343488960,
      "time_usec": 667974343488
    },
    {
      "frame_id": 30,
      "sensor_timestamp": 667974376735542,
      "time_usec": 667974376735
    },
    {
      "frame_id": 31,
      "sensor_timestamp": 667974409981880,
      "time_usec": 667974409981
    },
    {
      "frame_id": 32,
      "sensor_timestamp": 667974443228218,
      "time_usec": 667974443228
    },
    {
      "frame_id": 33,
      "sensor_timestamp": 667974476474555,
      "time_usec": 667974476474
    },
    {
      "frame_id": 34,
      "sensor_timestamp": 667974509720893,
      "time_usec": 667974509720
    },
    {
      "frame_id": 35,
      "sensor_timestamp": 667974542967475,
      "time_usec": 667974542967
    },
    {
      "frame_id": 36,
      "sensor_timestamp": 667974576213813,
      "time_usec": 667974576213
    },
    {
      "frame_id": 37,
      "sensor_timestamp": 667974609460151,
      "time_usec": 667974609460
    },
    {
      "frame_id": 38,
      "sensor_timestamp": 667974642706489,
      "time_usec": 667974642706
    },
    {
      "frame_id": 39,
      "sensor_timestamp": 667974675953071,
      "time_usec": 667974675953
    },
    {
      "frame_id": 40,
      "sensor_timestamp": 667974709199409,
      "time_usec": 667974709199
    },
    {
      "frame_id": 41,
      "sensor_timestamp": 667974742445747,
      "time_usec": 667974742445
    },
    {
      "frame_id": 42,
      "sensor_timestamp": 667974775692085,
      "time_usec": 667974775692
    },
    {
      "frame_id": 43,
      "sensor_timestamp": 667974808938667,
      "time_usec": 667974808938
    },
    {
      "frame_id": 44,
      "sensor_timestamp": 667974842185005,
      "time_usec": 667974842185
    },
    {
      "frame_id": 45,
      "sensor_timestamp": 667974875431343,
      "time_usec": 667974875431
    },
    {
      "frame_id": 46,
      "sensor_timestamp": 667974908677680,
      "time_usec": 667974908677
    },
    {
      "frame_id": 47,
      "sensor_timestamp": 667974941924262,
      "time_usec": 667974941924
    },
    {
      "frame_id": 48,
      "sensor_timestamp": 667974975170600,
      "time_usec": 667974975170
    },
    {
      "frame_id": 49,
      "sensor_timestamp": 667975008416938,
      "time_usec": 667975008416
    },
    {
      "frame_id": 50,
      "sensor_timestamp": 667975041663276,
      "time_usec": 667975041663
    },
    {
      "frame_id": 51,
      "sensor_timestamp": 667975074909858,
      "time_usec": 667975074909
    },
    {
      "frame_id": 52,
      "sensor_timestamp": 667975108156196,
      "time_usec": 667975108156
    },
    {
      "frame_id": 53,
      "sensor_timestamp": 667975141402534,
      "time_usec": 667975141402
    },
    {
      "frame_id": 54,
      "sensor_timestamp": 667975174648872,
      "time_usec": 667975174648
    },
    {
      "frame_id": 55,
      "sensor_timestamp": 667975207895454,
      "time_usec": 667975207895
    },
    {
      "frame_id": 56,
      "sensor_timestamp": 667975241141792,
      "time_usec": 667975241141
    },
    {
      "frame_id": 57,
      "sensor_timestamp": 667975274388130,
      "time_usec": 667975274388
    },
    {
      "frame_id": 58,
      "sensor_timestamp": 667975307634468,
      "time_usec": 667975307634
    },
    {
      "frame_id": 59,
      "sensor_timestamp": 667975340881050,
      "time_usec": 667975340881
    },
    {
      "frame_id": 60,
      "sensor_timestamp": 667975374127387,
      "time_usec": 667975374127
    },
    {
      "frame_id": 61,
      "sensor_timestamp": 667975407373725,
      "time_usec": 667975407373
    },
    {
      "frame_id": 62,
      "sensor_timestamp": 667975440620063,
      "time_usec": 667975440620
    },
    {
      "frame_id": 63,
      "sensor_timestamp": 667975473866645,
      "time_usec": 667975473866
    },
    {
      "frame_id": 64,
      "sensor_timestamp": 667975507112983,
      "time_usec": 667975507112
    },
    {
      "frame_id": 65,
      "sensor_timestamp": 667975540359321,
      "time_usec": 667975540359
    },
    {
      "frame_id": 66,
      "sensor_timestamp": 667975573605659,
      "time_usec": 667975573605
    },
    {
      "frame_id": 67,
      "sensor_timestamp": 667975606852241,
      "time_usec": 667975606852
    },
    {
      "frame_id": 68,
      "sensor_timestamp": 667975640098579,
      "time_usec": 667975640098
    },
    {
      "frame_id": 69,
      "sensor_timestamp": 667975673344917,
      "time_usec": 667975673344
    },
    {
      "frame_id": 70,
      "sensor_timestamp": 667975706591255,
      "time_usec": 667975706591
    },
    {
      "frame_id": 71,
      "sensor_timestamp": 667975739837593,
      "time_usec": 667975739837
    },
    {
      "frame_id": 72,
      "sensor_timestamp": 667975773084175,
      "time_usec": 667975773084
    },
    {
      "frame_id": 73,
      "sensor_timestamp": 667975806330512,
      "time_usec": 667975806330
    },
    {
      "frame_id": 74,
      "sensor_timestamp": 667975839576850,
      "time_usec": 667975839576
    },
    {
      "frame_id": 75,
      "sensor_timestamp": 667975872823188,
      "time_usec": 667975872823
    },
    {
      "frame_id": 76,
      "sensor_timestamp": 667975906069770,
      "time_usec": 667975906069
    },
    {
      "frame_id": 77,
      "sensor_timestamp": 667975939316108,
      "time_usec": 667975939316
    },
    {
      "frame_id": 78,
      "sensor_timestamp": 667975972562446,
      "time_usec": 667975972562
    },
    {
      "frame_id": 79,
      "sensor_timestamp": 667976005808784,
      "time_usec": 667976005808
    },
    {
      "frame_id": 80,
      "sensor_timestamp": 667976039055366,
      "time_usec": 667976039055
    },
    {
      "frame_id": 81,
      "sensor_timestamp": 667976072301704,
      "time_usec": 667976072301
    },
    {
      "frame_id": 82,
      "sensor_timestamp": 667976105548042,
      "time_usec": 667976105548
    },
    {
      "frame_id": 83,
      "sensor_timestamp": 667976138794380,
      "time_usec": 667976138794
    },
    {
      "frame_id": 84,
      "sensor_timestamp": 667976172040962,
      "time_usec": 667976172040
    },
    {
      "frame_id": 85,
      "sensor_timestamp": 667976205287300,
      "time_usec": 667976205287
    },
    {
      "frame_id": 86,
      "sensor_timestamp": 667976238533637,
      "time_usec": 667976238533
    },
    {
      "frame_id": 87,
      "sensor_timestamp": 667976271779975,
      "time_usec": 667976271779
    },
    {
      "frame_id": 88,
      "sensor_timestamp": 667976305026557,
      "time_usec": 667976305026
    },
    {
      "frame_id": 89,
      "sensor_timestamp": 667976338272895,
      "time_usec": 667976338272
    },
    {
      "frame_id": 90,
      "sensor_timestamp": 667976371519233,
      "time_usec": 667976371519
    },
    {
      "frame_id": 91,
      "sensor_timestamp": 667976404765571,
      "time_usec": 667976404765
    },
    {
      "frame_id": 92,
      "sensor_timestamp": 667976438012153,
      "time_usec": 667976438012
    },
    {
      "frame_id": 93,
      "sensor_timestamp": 667976471258491,
      "time_usec": 667976471258
    },
    {
      "frame_id": 94,
      "sensor_timestamp": 667976504504829,
      "time_usec": 667976504504
    },
    {
      "frame_id": 95,
      "sensor_timestamp": 667976537751167,
      "time_usec": 667976537751
    },
    {
      "frame_id": 96,
      "sensor_timestamp": 667976570997749,
      "time_usec": 667976570997
    },
    {
      "frame_id": 97,
      "sensor_timestamp": 667976604244087,
      "time_usec": 667976604244
    },
    {
      "frame_id": 98,
      "sensor_timestamp": 667976637490425,
      "time_usec": 667976637490
    },
    {
      "frame_id": 99,
      "sensor_timestamp": 667976670736762,
      "time_usec": 667976670736
    },
    {
      "frame_id": 100,
      "sensor_timestamp": 667976703983344,
      "time_usec": 667976703983
    },
    {
      "frame_id": 101,
      "sensor_timestamp": 667976737229682,
      "time_usec": 667976737229
    },
    {
      "frame_id": 102,
      "sensor_timestamp": 667976770476020,
      "time_usec": 667976770476
    },
    {
      "frame_id": 103,
      "sensor_timestamp": 667976803722358,
      "time_usec": 667976803722
    },
    {
      "frame_id": 104,
      "sensor_timestamp": 667976836968940,
      "time_usec": 667976836968
    },
    {
      "frame_id": 105,
      "sensor_timestamp": 667976870215278,
      "time_usec": 667976870215
    },
    {
      "frame_id": 106,
      "sensor_timestamp": 667976903461616,
      "time_usec": 667976903461
    },
    {
      "frame_id": 107,
      "sensor_timestamp": 667976936707954,
      "time_usec": 667976936707
    },
    {
      "frame_id": 108,
      "sensor_timestamp": 667976969954292,
      "time_usec": 667976969954
    },
    {
      "frame_id": 109,
      "sensor_timestamp": 667977003200874,
      "time_usec": 667977003200
    },
    {
      "frame_id": 110,
      "sensor_timestamp": 667977036447212,
      "time_usec": 667977036447
    },
    {
      "frame_id": 111,
      "sensor_timestamp": 667977069693550,
      "time_usec": 667977069693
    },
    {
      "frame_id": 112,
      "sensor_timestamp": 667977102939887,
      "time_usec": 667977102939
    },
    {
      "frame_id": 113,
      "sensor_timestamp": 667977136186469,
      "time_usec": 667977136186
    },
    {
      "frame_id": 114,
      "sensor_timestamp": 667977169432807,
      "time_usec": 667977169432
    },
    {
      "frame_id": 115,
      "sensor_timestamp": 667977202679145,
      "time_usec": 667977202679
    },
    {
      "frame_id": 116,
      "sensor_timestamp": 667977235925483,
      "time_usec": 667977235925
    },
    {
      "frame_id": 117,
      "sensor_timestamp": 667977269172065,
      "time_usec": 667977269172
    },
    {
      "frame_id": 118,
      "sensor_timestamp": 667977302418403,
      "time_usec": 667977302418
    },
    {
      "frame_id": 119,
      "sensor_timestamp": 667977335664741,
      "time_usec": 667977335664
    },
    {
      "frame_id": 120,
      "sensor_timestamp": 667977368911079,
      "time_usec": 667977368911
    },
    {
      "frame_id": 121,
      "sensor_timestamp": 667977402157661,
      "time_usec": 667977402157
    },
    {
      "frame_id": 122,
      "sensor_timestamp": 667977435403999,
      "time_usec": 667977435403
    },
    {
      "frame_id": 123,
      "sensor_timestamp": 667977468650337,
      "time_usec": 667977468650
    },
    {
      "frame_id": 124,
      "sensor_timestamp": 667977501896675,
      "time_usec": 667977501896
    },
    {
      "frame_id": 125,
      "sensor_timestamp": 667977535143257,
      "time_usec": 667977535143
    },
    {
      "frame_id": 126,
      "sensor_timestamp": 667977568389594,
      "time_usec": 667977568389
    },
    {
      "frame_id": 127,
      "sensor_timestamp": 667977601635932,
      "time_usec": 667977601635
    },
    {
      "frame_id": 128,
      "sensor_timestamp": 667977634882270,
      "time_usec": 667977634882
    },
    {
      "frame_id": 129,
      "sensor_timestamp": 667977668128852,
      "time_usec": 667977668128
    },
    {
      "frame_id": 130,
      "sensor_timestamp": 667977701375190,
      "time_usec": 667977701375
    },
    {
      "frame_id": 131,
      "sensor_timestamp": 667977734621528,
      "time_usec": 667977734621
    },
    {
      "frame_id": 132,
      "sensor_timestamp": 667977767867866,
      "time_usec": 667977767867
    },
    {
      "frame_id": 133,
      "sensor_timestamp": 667977801114448,
      "time_usec": 667977801114
    },
    {
      "frame_id": 134,
      "sensor_timestamp": 667977834360786,
      "time_usec": 667977834360
    },
    {
      "frame_id": 135,
      "sensor_timestamp": 667977867607124,
      "time_usec": 667977867607
    },
    {
      "frame_id": 136,
      "sensor_timestamp": 667977900853462,
      "time_usec": 667977900853
    },
    {
      "frame_id": 137,
      "sensor_timestamp": 667977934100044,
      "time_usec": 667977934100
    },
    {
      "frame_id": 138,
      "sensor_timestamp": 667977967346382,
      "time_usec": 667977967346
    },
    {
      "frame_id": 139,
      "sensor_timestamp": 667978000592719,
      "time_usec": 667978000592
    },
    {
      "frame_id": 140,
      "sensor_timestamp": 667978033839057,
      "time_usec": 667978033839
    },
    {
      "frame_id": 141,
      "sensor_timestamp": 667978067085639,
      "time_usec": 667978067085
    },
    {
      "frame_id": 142,
      "sensor_timestamp": 667978100331977,
      "time_usec": 667978100331
    },
    {
      "frame_id": 143,
      "sensor_timestamp": 667978133578315,
      "time_usec": 667978133578
    },
    {
      "frame_id": 144,
      "sensor_timestamp": 667978166824653,
      "time_usec": 667978166824
    },
    {
      "frame_id": 145,
      "sensor_timestamp": 667978200070991,
      "time_usec": 667978200070
    },
    {
      "frame_id": 146,
      "sensor_timestamp": 667978233317573,
      "time_usec": 667978233317
    },
    {
      "frame_id": 147,
      "sensor_timestamp": 667978266563911,
      "time_usec": 667978266563
    },
    {
      "frame_id": 148,
      "sensor_timestamp": 667978299810249,
      "time_usec": 667978299810
    },
    {
      "frame_id": 149,
      "sensor_timestamp": 667978333056587,
      "time_usec": 667978333056
    },
    {
      "frame_id": 150,
      "sensor_timestamp": 667978366303169,
      "time_usec": 667978366303
    },
    {
      "frame_id": 151,
      "sensor_timestamp": 667978399549507,
      "time_usec": 667978399549
    },
    {
      "frame_id": 152,
      "sensor_timestamp": 667978432795844,
      "time_usec": 667978432795
    },
    {
      "frame_id": 153,
      "sensor_timestamp": 667978466042182,
      "time_usec": 667978466042
    },
    {
      "frame_id": 154,
      "sensor_timestamp": 667978499288764,
      "time_usec": 667978499288
    },
    {
      "frame_id": 155,
      "sensor_timestamp": 667978532535102,
      "time_usec": 667978532535
    },
    {
      "frame_id": 156,
      "sensor_timestamp": 667978565781440,
      "time_usec": 667978565781
    },
    {
      "frame_id": 157,
      "sensor_timestamp": 667978599027778,
      "time_usec": 667978599027
    },
    {
      "frame_id": 158,
      "sensor_timestamp": 667978632274360,
      "time_usec": 667978632274
    },
    {
      "frame_id": 159,
      "sensor_timestamp": 667978665520698,
      "time_usec": 667978665520
    },
    {
      "frame_id": 160,
      "sensor_timestamp": 667978698767036,
      "time_usec": 667978698767
    },
    {
      "frame_id": 161,
      "sensor_timestamp": 667978732013374,
      "time_usec": 667978732013
    },
    {
      "frame_id": 162,
      "sensor_timestamp": 667978765259956,
      "time_usec": 667978765259
    },
    {
      "frame_id": 163,
      "sensor_timestamp": 667978798506294,
      "time_usec": 667978798506
    },
    {
      "frame_id": 164,
      "sensor_timestamp": 667978831752632,
      "time_usec": 667978831752
    },
    {
      "frame_id": 165,
      "sensor_timestamp": 667978864998969,
      "time_usec": 667978864998
    },
    {
      "frame_id": 166,
      "sensor_timestamp": 667978898245551,
      "time_usec": 667978898245
    },
    {
      "frame_id": 167,
      "sensor_timestamp": 667978931491889,
      "time_usec": 667978931491
    },
    {
      "frame_id": 168,
      "sensor_timestamp": 667978964738227,
      "time_usec": 667978964738
    },
    {
      "frame_id": 169,
      "sensor_timestamp": 667978997984565,
      "time_usec": 667978997984
    },
    {
      "frame_id": 170,
      "sensor_timestamp": 667979031231147,
      "time_usec": 667979031231
    },
    {
      "frame_id": 171,
      "sensor_timestamp": 667979064477485,
      "time_usec": 667979064477
    },
    {
      "frame_id": 172,
      "sensor_timestamp": 667979097723823,
      "time_usec": 667979097723
    },
    {
      "frame_id": 173,
      "sensor_timestamp": 667979130970161,
      "time_usec": 667979130970
    },
    {
      "frame_id": 174,
      "sensor_timestamp": 667979164216743,
      "time_usec": 667979164216
    },
    {
      "frame_id": 175,
      "sensor_timestamp": 667979197463081,
      "time_usec": 667979197463
    },
    {
      "frame_id": 176,
      "sensor_timestamp": 667979230709419,
      "time_usec": 667979230709
    },
    {
      "frame_id": 177,
      "sensor_timestamp": 667979263955757,
      "time_usec": 667979263955
    },
    {
      "frame_id": 178,
      "sensor_timestamp": 667979297202094,
      "time_usec": 667979297202
    },
    {
      "frame_id": 179,
      "sensor_timestamp": 667979330448676,
      "time_usec": 667979330448
    },
    {
      "frame_id": 180,
      "sensor_timestamp": 667979363695014,
      "time_usec": 667979363695
    },
    {
      "frame_id": 181,
      "sensor_timestamp": 667979396941352,
      "time_usec": 667979396941
    },
    {
      "frame_id": 182,
      "sensor_timestamp": 667979430187690,
      "time_usec": 667979430187
    },
    {
      "frame_id": 183,
      "sensor_timestamp": 667979463434272,
      "time_usec": 667979463434
    },
    {
      "frame_id": 184,
      "sensor_timestamp": 667979496680610,
      "time_usec": 667979496680
    },
    {
      "frame_id": 185,
      "sensor_timestamp": 667979529926948,
      "time_usec": 667979529926
    },
    {
      "frame_id": 186,
      "sensor_timestamp": 667979563173286,
      "time_usec": 667979563173
    },
    {
      "frame_id": 187,
      "sensor_timestamp": 667979596419868,
      "time_usec": 667979596419
    },
    {
      "frame_id": 188,
      "sensor_timestamp": 667979629666206,
      "time_usec": 667979629666
    },
    {
      "frame_id": 189,
      "sensor_timestamp": 667979662912544,
      "time_usec": 667979662912
    },
    {
      "frame_id": 190,
      "sensor_timestamp": 667979696158882,
      "time_usec": 667979696158
    },
    {
      "frame_id": 191,
      "sensor_timestamp": 667979729405464,
      "time_usec": 667979729405
    },
    {
      "frame_id": 192,
      "sensor_timestamp": 667979762651801,
      "time_usec": 667979762651
    },
    {
      "frame_id": 193,
      "sensor_timestamp": 667979795898139,
      "time_usec": 667979795898
    },
    {
      "frame_id": 194,
      "sensor_timestamp": 667979829144477,
      "time_usec": 667979829144
    },
    {
      "frame_id": 195,
      "sensor_timestamp": 667979862391059,
      "time_usec": 667979862391
    },
    {
      "frame_id": 196,
      "sensor_timestamp": 667979895637397,
      "time_usec": 667979895637
    },
    {
      "frame_id": 197,
      "sensor_timestamp": 667979928883735,
      "time_usec": 667979928883
    },
    {
      "frame_id": 198,
      "sensor_timestamp": 667979962130073,
      "time_usec": 667979962130
    },
    {
      "frame_id": 199,
      "sensor_timestamp": 667979995376655,
      "time_usec": 667979995376
    },
    {
      "frame_id": 200,
      "sensor_timestamp": 667980028622993,
      "time_usec": 667980028622
    },
    {
      "frame_id": 201,
      "sensor_timestamp": 667980061869331,
      "time_usec": 667980061869
    },
    {
      "frame_id": 202,
      "sensor_timestamp": 667980095115669,
      "time_usec": 667980095115
    },
    {
      "frame_id": 203,
      "sensor_timestamp": 667980128362251,
      "time_usec": 667980128362
    },
    {
      "frame_id": 204,
      "sensor_timestamp": 667980161608589,
      "time_usec": 667980161608
    },
    {
      "frame_id": 205,
      "sensor_timestamp": 667980194854926,
      "time_usec": 667980194854
    },
    {
      "frame_id": 206,
      "sensor_timestamp": 667980228101264,
      "time_usec": 667980228101
    },
    {
      "frame_id": 207,
      "sensor_timestamp": 667980261347846,
      "time_usec": 667980261347
    },
    {
      "frame_id": 208,
      "sensor_timestamp": 667980294594184,
      "time_usec": 667980294594
    },
    {
      "frame_id": 209,
      "sensor_timestamp": 667980327840522,
      "time_usec": 667980327840
    },
    {
      "frame_id": 210,
      "sensor_timestamp": 667980361086860,
      "time_usec": 667980361086
    },
    {
      "frame_id": 211,
      "sensor_timestamp": 667980394333442,
      "time_usec": 667980394333
    },
    {
      "frame_id": 212,
      "sensor_timestamp": 667980427579780,
      "time_usec": 667980427579
    },
    {
      "frame_id": 213,
      "sensor_timestamp": 667980460826118,
      "time_usec": 667980460826
    },
    {
      "frame_id": 214,
      "sensor_timestamp": 667980494072456,
      "time_usec": 667980494072
    },
    {
      "frame_id": 215,
      "sensor_timestamp": 667980527318794,
      "time_usec": 667980527318
    },
    {
      "frame_id": 216,
      "sensor_timestamp": 667980560565376,
      "time_usec": 667980560565
    },
    {
      "frame_id": 217,
      "sensor_timestamp": 667980593811714,
      "time_usec": 667980593811
    },
    {
      "frame_id": 218,
      "sensor_timestamp": 667980627058051,
      "time_usec": 667980627058
    },
    {
      "frame_id": 219,
      "sensor_timestamp": 667980660304389,
      "time_usec": 667980660304
    },
    {
      "frame_id": 220,
      "sensor_timestamp": 667980693550971,
      "time_usec": 667980693550
    },
    {
      "frame_id": 221,
      "sensor_timestamp": 667980726797309,
      "time_usec": 667980726797
    },
    {
      "frame_id": 222,
      "sensor_timestamp": 667980760043647,
      "time_usec": 667980760043
    },
    {
      "frame_id": 223,
      "sensor_timestamp": 667980793289985,
      "time_usec": 667980793289
    },
    {
      "frame_id": 224,
      "sensor_timestamp": 667980826536567,
      "time_usec": 667980826536
    },
    {
      "frame_id": 225,
      "sensor_timestamp": 667980859782905,
      "time_usec": 667980859782
    },
    {
      "frame_id": 226,
      "sensor_timestamp": 667980893029243,
      "time_usec": 667980893029
    },
    {
      "frame_id": 227,
      "sensor_timestamp": 667980926275581,
      "time_usec": 667980926275
    },
    {
      "frame_id": 228,
      "sensor_timestamp": 667980959522163,
      "time_usec": 667980959522
    },
    {
      "frame_id": 229,
      "sensor_timestamp": 667980992768501,
      "time_usec": 667980992768
    },
    {
      "frame_id": 230,
      "sensor_timestamp": 667981026014839,
      "time_usec": 667981026014
    },
    {
      "frame_id": 231,
      "sensor_timestamp": 667981059261176,
      "time_usec": 667981059261
    },
    {
      "frame_id": 232,
      "sensor_timestamp": 667981092507759,
      "time_usec": 667981092507
    },
    {
      "frame_id": 233,
      "sensor_timestamp": 667981125754096,
      "time_usec": 667981125754
    },
    {
      "frame_id": 234,
      "sensor_timestamp": 667981159000434,
      "time_usec": 667981159000
    },
    {
      "frame_id": 235,
      "sensor_timestamp": 667981192246772,
      "time_usec": 667981192246
    },
    {
      "frame_id": 236,
      "sensor_timestamp": 667981225493354,
      "time_usec": 667981225493
    },
    {
      "frame_id": 237,
      "sensor_timestamp": 667981258739692,
      "time_usec": 667981258739
    },
    {
      "frame_id": 238,
      "sensor_timestamp": 667981291986030,
      "time_usec": 667981291986
    },
    {
      "frame_id": 239,
      "sensor_timestamp": 667981325232368,
      "time_usec": 667981325232
    },
    {
      "frame_id": 240,
      "sensor_timestamp": 667981358478950,
      "time_usec": 667981358478
    },
    {
      "frame_id": 241,
      "sensor_timestamp": 667981391725288,
      "time_usec": 667981391725
    },
    {
      "frame_id": 242,
      "sensor_timestamp": 667981424971626,
      "time_usec": 667981424971
    },
    {
      "frame_id": 243,
      "sensor_timestamp": 667981458217964,
      "time_usec": 667981458217
    },
    {
      "frame_id": 244,
      "sensor_timestamp": 667981491464546,
      "time_usec": 667981491464
    },
    {
      "frame_id": 245,
      "sensor_timestamp": 667981524710884,
      "time_usec": 667981524710
    },
    {
      "frame_id": 246,
      "sensor_timestamp": 667981557957221,
      "time_usec": 667981557957
    },
    {
      "frame_id": 247,
      "sensor_timestamp": 667981591203559,
      "time_usec": 667981591203
    },
    {
      "frame_id": 248,
      "sensor_timestamp": 667981624450141,
      "time_usec": 667981624450
    },
    {
      "frame_id": 249,
      "sensor_timestamp": 667981657696479,
      "time_usec": 667981657696
    },
    {
      "frame_id": 250,
      "sensor_timestamp": 667981690942817,
      "time_usec": 667981690942
    },
    {
      "frame_id": 251,
      "sensor_timestamp": 667981724189155,
      "time_usec": 667981724189
    },
    {
      "frame_id": 252,
      "sensor_timestamp": 667981757435493,
      "time_usec": 667981757435
    },
    {
      "frame_id": 253,
      "sensor_timestamp": 667981790682075,
      "time_usec": 667981790682
    },
    {
      "frame_id": 254,
      "sensor_timestamp": 667981823928413,
      "time_usec": 667981823928
    },
    {
      "frame_id": 255,
      "sensor_timestamp": 667981857174751,
      "time_usec": 667981857174
    },
    {
      "frame_id": 256,
      "sensor_timestamp": 667981890421089,
      "time_usec": 667981890421
    },
    {
      "frame_id": 257,
      "sensor_timestamp": 667981923667671,
      "time_usec": 667981923667
    },
    {
      "frame_id": 258,
      "sensor_timestamp": 667981956914009,
      "time_usec": 667981956914
    },
    {
      "frame_id": 259,
      "sensor_timestamp": 667981990160346,
      "time_usec": 667981990160
    },
    {
      "frame_id": 260,
      "sensor_timestamp": 667982023406684,
      "time_usec": 667982023406
    },
    {
      "frame_id": 261,
      "sensor_timestamp": 667982056653266,
      "time_usec": 667982056653
    },
    {
      "frame_id": 262,
      "sensor_timestamp": 667982089899604,
      "time_usec": 667982089899
    },
    {
      "frame_id": 263,
      "sensor_timestamp": 667982123145942,
      "time_usec": 667982123145
    },
    {
      "frame_id": 264,
      "sensor_timestamp": 667982156392280,
      "time_usec": 667982156392
    },
    {
      "frame_id": 265,
      "sensor_timestamp": 667982189638862,
      "time_usec": 667982189638
    },
    {
      "frame_id": 266,
      "sensor_timestamp": 667982222885200,
      "time_usec": 667982222885
    },
    {
      "frame_id": 267,
      "sensor_timestamp": 667982256131538,
      "time_usec": 667982256131
    },
    {
      "frame_id": 268,
      "sensor_timestamp": 667982289377876,
      "time_usec": 667982289377
    },
    {
      "frame_id": 269,
      "sensor_timestamp": 667982322624458,
      "time_usec": 667982322624
    },
    {
      "frame_id": 270,
      "sensor_timestamp": 667982355870796,
      "time_usec": 667982355870
    },
    {
      "frame_id": 271,
      "sensor_timestamp": 667982389117134,
      "time_usec": 667982389117
    },
    {
      "frame_id": 272,
      "sensor_timestamp": 667982422363471,
      "time_usec": 667982422363
    },
    {
      "frame_id": 273,
      "sensor_timestamp": 667982455610053,
      "time_usec": 667982455610
    },
    {
      "frame_id": 274,
      "sensor_timestamp": 667982488856391,
      "time_usec": 667982488856
    },
    {
      "frame_id": 275,
      "sensor_timestamp": 667982522102729,
      "time_usec": 667982522102
    },
    {
      "frame_id": 276,
      "sensor_timestamp": 667982555349067,
      "time_usec": 667982555349
    },
    {
      "frame_id": 277,
      "sensor_timestamp": 667982588595649,
      "time_usec": 667982588595
    },
    {
      "frame_id": 278,
      "sensor_timestamp": 667982621841987,
      "time_usec": 667982621841
    },
    {
      "frame_id": 279,
      "sensor_timestamp": 667982655088325,
      "time_usec": 667982655088
    },
    {
      "frame_id": 280,
      "sensor_timestamp": 667982688334663,
      "time_usec": 667982688334
    },
    {
      "frame_id": 281,
      "sensor_timestamp": 667982721581245,
      "time_usec": 667982721581
    },
    {
      "frame_id": 282,
      "sensor_timestamp": 667982754827583,
      "time_usec": 667982754827
    },
    {
      "frame_id": 283,
      "sensor_timestamp": 667982788073921,
      "time_usec": 667982788073
    },
    {
      "frame_id": 284,
      "sensor_timestamp": 667982821320259,
      "time_usec": 667982821320
    },
    {
      "frame_id": 285,
      "sensor_timestamp": 667982854566841,
      "time_usec": 667982854566
    },
    {
      "frame_id": 286,
      "sensor_timestamp": 667982887813178,
      "time_usec": 667982887813
    },
    {
      "frame_id": 287,
      "sensor_timestamp": 667982921059516,
      "time_usec": 667982921059
    },
    {
      "frame_id": 288,
      "sensor_timestamp": 667982954305854,
      "time_usec": 667982954305
    },
    {
      "frame_id": 289,
      "sensor_timestamp": 667982987552192,
      "time_usec": 667982987552
    },
    {
      "frame_id": 290,
      "sensor_timestamp": 667983020798774,
      "time_usec": 667983020798
    },
    {
      "frame_id": 291,
      "sensor_timestamp": 667983054045112,
      "time_usec": 667983054045
    },
    {
      "frame_id": 292,
      "sensor_timestamp": 667983087291450,
      "time_usec": 667983087291
    },
    {
      "frame_id": 293,
      "sensor_timestamp": 667983120537788,
      "time_usec": 667983120537
    },
    {
      "frame_id": 294,
      "sensor_timestamp": 667983153784370,
      "time_usec": 667983153784
    },
    {
      "frame_id": 295,
      "sensor_timestamp": 667983187030708,
      "time_usec": 667983187030
    },
    {
      "frame_id": 296,
      "sensor_timestamp": 667983220277046,
      "time_usec": 667983220277
    },
    {
      "frame_id": 297,
      "sensor_timestamp": 667983253523384,
      "time_usec": 667983253523
    },
    {
      "frame_id": 298,
      "sensor_timestamp": 667983286769966,
      "time_usec": 667983286769
    },
    {
      "frame_id": 299,
      "sensor_timestamp": 667983320016303,
      "time_usec": 667983320016
    },
    {
      "frame_id": 300,
      "sensor_timestamp": 667983353262641,
      "time_usec": 667983353262
    },
    {
      "frame_id": 301,
      "sensor_timestamp": 667983386508979,
      "time_usec": 667983386508
    },
    {
      "frame_id": 302,
      "sensor_timestamp": 667983419755561,
      "time_usec": 667983419755
    },
    {
      "frame_id": 303,
      "sensor_timestamp": 667983453001899,
      "time_usec": 667983453001
    },
    {
      "frame_id": 304,
      "sensor_timestamp": 667983486248237,
      "time_usec": 667983486248
    },
    {
      "frame_id": 305,
      "sensor_timestamp": 667983519494575,
      "time_usec": 667983519494
    },
    {
      "frame_id": 306,
      "sensor_timestamp": 667983552741157,
      "time_usec": 667983552741
    },
    {
      "frame_id": 307,
      "sensor_timestamp": 667983585987495,
      "time_usec": 667983585987
    },
    {
      "frame_id": 308,
      "sensor_timestamp": 667983619233833,
      "time_usec": 667983619233
    },
    {
      "frame_id": 309,
      "sensor_timestamp": 667983652480171,
      "time_usec": 667983652480
    },
    {
      "frame_id": 310,
      "sensor_timestamp": 667983685726753,
      "time_usec": 667983685726
    },
    {
      "frame_id": 311,
      "sensor_timestamp": 667983718973091,
      "time_usec": 667983718973
    },
    {
      "frame_id": 312,
      "sensor_timestamp": 667983752219428,
      "time_usec": 667983752219
    },
    {
      "frame_id": 313,
      "sensor_timestamp": 667983785465766,
      "time_usec": 667983785465
    },
    {
      "frame_id": 314,
      "sensor_timestamp": 667983818712348,
      "time_usec": 667983818712
    },
    {
      "frame_id": 315,
      "sensor_timestamp": 667983851958686,
      "time_usec": 667983851958
    },
    {
      "frame_id": 316,
      "sensor_timestamp": 667983885205024,
      "time_usec": 667983885205
    },
    {
      "frame_id": 317,
      "sensor_timestamp": 667983918451362,
      "time_usec": 667983918451
    },
    {
      "frame_id": 318,
      "sensor_timestamp": 667983951697944,
      "time_usec": 667983951697
    },
    {
      "frame_id": 319,
      "sensor_timestamp": 667983984944282,
      "time_usec": 667983984944
    },
    {
      "frame_id": 320,
      "sensor_timestamp": 667984018147366,
      "time_usec": 667984018147
    },
    {
      "frame_id": 321,
      "sensor_timestamp": 667984051436958,
      "time_usec": 667984051436
    },
    {
      "frame_id": 322,
      "sensor_timestamp": 667984084683540,
      "time_usec": 667984084683
    },
    {
      "frame_id": 323,
      "sensor_timestamp": 667984117929878,
      "time_usec": 667984117929
    },
    {
      "frame_id": 324,
      "sensor_timestamp": 667984151176216,
      "time_usec": 667984151176
    },
    {
      "frame_id": 325,
      "sensor_timestamp": 667984184422553,
      "time_usec": 667984184422
    },
    {
      "frame_id": 326,
      "sensor_timestamp": 667984217668891,
      "time_usec": 667984217668
    },
    {
      "frame_id": 327,
      "sensor_timestamp": 667984250915473,
      "time_usec": 667984250915
    },
    {
      "frame_id": 328,
      "sensor_timestamp": 667984284161811,
      "time_usec": 667984284161
    },
    {
      "frame_id": 329,
      "sensor_timestamp": 667984317408149,
      "time_usec": 667984317408
    },
    {
      "frame_id": 330,
      "sensor_timestamp": 667984350654487,
      "time_usec": 667984350654
    },
    {
      "frame_id": 331,
      "sensor_timestamp": 667984383901069,
      "time_usec": 667984383901
    },
    {
      "frame_id": 332,
      "sensor_timestamp": 667984417147407,
      "time_usec": 667984417147
    },
    {
      "frame_id": 333,
      "sensor_timestamp": 667984450393745,
      "time_usec": 667984450393
    },
    {
      "frame_id": 334,
      "sensor_timestamp": 667984483640083,
      "time_usec": 667984483640
    },
    {
      "frame_id": 335,
      "sensor_timestamp": 667984516886665,
      "time_usec": 667984516886
    },
    {
      "frame_id": 336,
      "sensor_timestamp": 667984550133003,
      "time_usec": 667984550133
    },
    {
      "frame_id": 337,
      "sensor_timestamp": 667984583379341,
      "time_usec": 667984583379
    },
    {
      "frame_id": 338,
      "sensor_timestamp": 667984616625678,
      "time_usec": 667984616625
    },
    {
      "frame_id": 339,
      "sensor_timestamp": 667984649872260,
      "time_usec": 667984649872
    },
    {
      "frame_id": 340,
      "sensor_timestamp": 667984683118598,
      "time_usec": 667984683118
    },
    {
      "frame_id": 341,
      "sensor_timestamp": 667984716364936,
      "time_usec": 667984716364
    },
    {
      "frame_id": 342,
      "sensor_timestamp": 667984749611274,
      "time_usec": 667984749611
    },
    {
      "frame_id": 343,
      "sensor_timestamp": 667984782857856,
      "time_usec": 667984782857
    },
    {
      "frame_id": 344,
      "sensor_timestamp": 667984816104194,
      "time_usec": 667984816104
    },
    {
      "frame_id": 345,
      "sensor_timestamp": 667984849350532,
      "time_usec": 667984849350
    },
    {
      "frame_id": 346,
      "sensor_timestamp": 667984882596870,
      "time_usec": 667984882596
    },
    {
      "frame_id": 347,
      "sensor_timestamp": 667984915843452,
      "time_usec": 667984915843
    },
    {
      "frame_id": 348,
      "sensor_timestamp": 667984949089790,
      "time_usec": 667984949089
    },
    {
      "frame_id": 349,
      "sensor_timestamp": 667984982336128,
      "time_usec": 667984982336
    },
    {
      "frame_id": 350,
      "sensor_timestamp": 667985015582466,
      "time_usec": 667985015582
    },
    {
      "frame_id": 351,
      "sensor_timestamp": 667985048829048,
      "time_usec": 667985048829
    },
    {
      "frame_id": 352,
      "sensor_timestamp": 667985082075385,
      "time_usec": 667985082075
    },
    {
      "frame_id": 353,
      "sensor_timestamp": 667985115321723,
      "time_usec": 667985115321
    },
    {
      "frame_id": 354,
      "sensor_timestamp": 667985148568061,
      "time_usec": 667985148568
    },
    {
      "frame_id": 355,
      "sensor_timestamp": 667985181814643,
      "time_usec": 667985181814
    },
    {
      "frame_id": 356,
      "sensor_timestamp": 667985215060981,
      "time_usec": 667985215060
    },
    {
      "frame_id": 357,
      "sensor_timestamp": 667985248307319,
      "time_usec": 667985248307
    },
    {
      "frame_id": 358,
      "sensor_timestamp": 667985281553657,
      "time_usec": 667985281553
    },
    {
      "frame_id": 359,
      "sensor_timestamp": 667985314799995,
      "time_usec": 667985314799
    },
    {
      "frame_id": 360,
      "sensor_timestamp": 667985348046577,
      "time_usec": 667985348046
    },
    {
      "frame_id": 361,
      "sensor_timestamp": 667985381292915,
      "time_usec": 667985381292
    },
    {
      "frame_id": 362,
      "sensor_timestamp": 667985414539253,
      "time_usec": 667985414539
    },
    {
      "frame_id": 363,
      "sensor_timestamp": 667985447785591,
      "time_usec": 667985447785
    },
    {
      "frame_id": 364,
      "sensor_timestamp": 667985481032173,
      "time_usec": 667985481032
    },
    {
      "frame_id": 365,
      "sensor_timestamp": 667985514278510,
      "time_usec": 667985514278
    },
    {
      "frame_id": 366,
      "sensor_timestamp": 667985547524848,
      "time_usec": 667985547524
    },
    {
      "frame_id": 367,
      "sensor_timestamp": 667985580771186,
      "time_usec": 667985580771
    },
    {
      "frame_id": 368,
      "sensor_timestamp": 667985614017768,
      "time_usec": 667985614017
    },
    {
      "frame_id": 369,
      "sensor_timestamp": 667985647264106,
      "time_usec": 667985647264
    },
    {
      "frame_id": 370,
      "sensor_timestamp": 667985680510444,
      "time_usec": 667985680510
    },
    {
      "frame_id": 371,
      "sensor_timestamp": 667985713756782,
      "time_usec": 667985713756
    },
    {
      "frame_id": 372,
      "sensor_timestamp": 667985747003364,
      "time_usec": 667985747003
    },
    {
      "frame_id": 373,
      "sensor_timestamp": 667985780249702,
      "time_usec": 667985780249
    },
    {
      "frame_id": 374,
      "sensor_timestamp": 667985813496040,
      "time_usec": 667985813496
    },
    {
      "frame_id": 375,
      "sensor_timestamp": 667985846742378,
      "time_usec": 667985846742
    },
    {
      "frame_id": 376,
      "sensor_timestamp": 667985879988960,
      "time_usec": 667985879988
    },
    {
      "frame_id": 377,
      "sensor_timestamp": 667985913235298,
      "time_usec": 667985913235
    },
    {
      "frame_id": 378,
      "sensor_timestamp": 667985946481635,
      "time_usec": 667985946481
    },
    {
      "frame_id": 379,
      "sensor_timestamp": 667985979727973,
      "time_usec": 667985979727
    },
    {
      "frame_id": 380,
      "sensor_timestamp": 667986012974555,
      "time_usec": 667986012974
    },
    {
      "frame_id": 381,
      "sensor_timestamp": 667986046220893,
      "time_usec": 667986046220
    },
    {
      "frame_id": 382,
      "sensor_timestamp": 667986079467231,
      "time_usec": 667986079467
    },
    {
      "frame_id": 383,
      "sensor_timestamp": 667986112713569,
      "time_usec": 667986112713
    },
    {
      "frame_id": 384,
      "sensor_timestamp": 667986145960151,
      "time_usec": 667986145960
    },
    {
      "frame_id": 385,
      "sensor_timestamp": 667986179206489,
      "time_usec": 667986179206
    },
    {
      "frame_id": 386,
      "sensor_timestamp": 667986212452827,
      "time_usec": 667986212452
    },
    {
      "frame_id": 387,
      "sensor_timestamp": 667986245699165,
      "time_usec": 667986245699
    },
    {
      "frame_id": 388,
      "sensor_timestamp": 667986278945747,
      "time_usec": 667986278945
    },
    {
      "frame_id": 389,
      "sensor_timestamp": 667986312192085,
      "time_usec": 667986312192
    },
    {
      "frame_id": 390,
      "sensor_timestamp": 667986345438423,
      "time_usec": 667986345438
    },
    {
      "frame_id": 391,
      "sensor_timestamp": 667986378684760,
      "time_usec": 667986378684
    },
    {
      "frame_id": 392,
      "sensor_timestamp": 667986411931343,
      "time_usec": 667986411931
    },
    {
      "frame_id": 393,
      "sensor_timestamp": 667986445177680,
      "time_usec": 667986445177
    },
    {
      "frame_id": 394,
      "sensor_timestamp": 667986478424018,
      "time_usec": 667986478424
    },
    {
      "frame_id": 395,
      "sensor_timestamp": 667986511670356,
      "time_usec": 667986511670
    },
    {
      "frame_id": 396,
      "sensor_timestamp": 667986544916694,
      "time_usec": 667986544916
    },
    {
      "frame_id": 397,
      "sensor_timestamp": 667986578163276,
      "time_usec": 667986578163
    },
    {
      "frame_id": 398,
      "sensor_timestamp": 667986611409614,
      "time_usec": 667986611409
    },
    {
      "frame_id": 399,
      "sensor_timestamp": 667986644655952,
      "time_usec": 667986644655
    },
    {
      "frame_id": 400,
      "sensor_timestamp": 667986677902290,
      "time_usec": 667986677902
    },
    {
      "frame_id": 401,
      "sensor_timestamp": 667986711148872,
      "time_usec": 667986711148
    },
    {
      "frame_id": 402,
      "sensor_timestamp": 667986744395210,
      "time_usec": 667986744395
    },
    {
      "frame_id": 403,
      "sensor_timestamp": 667986777641548,
      "time_usec": 667986777641
    },
    {
      "frame_id": 404,
      "sensor_timestamp": 667986810887885,
      "time_usec": 667986810887
    },
    {
      "frame_id": 405,
      "sensor_timestamp": 667986844134468,
      "time_usec": 667986844134
    },
    {
      "frame_id": 406,
      "sensor_timestamp": 667986877380805,
      "time_usec": 667986877380
    },
    {
      "frame_id": 407,
      "sensor_timestamp": 667986910627143,
      "time_usec": 667986910627
    },
    {
      "frame_id": 408,
      "sensor_timestamp": 667986943873481,
      "time_usec": 667986943873
    },
    {
      "frame_id": 409,
      "sensor_timestamp": 667986977120063,
      "time_usec": 667986977120
    },
    {
      "frame_id": 410,
      "sensor_timestamp": 667987010366401,
      "time_usec": 667987010366
    },
    {
      "frame_id": 411,
      "sensor_timestamp": 667987043612739,
      "time_usec": 667987043612
    },
    {
      "frame_id": 412,
      "sensor_timestamp": 667987076859077,
      "time_usec": 667987076859
    },
    {
      "frame_id": 413,
      "sensor_timestamp": 667987110105659,
      "time_usec": 667987110105
    },
    {
      "frame_id": 414,
      "sensor_timestamp": 667987143351997,
      "time_usec": 667987143351
    },
    {
      "frame_id": 415,
      "sensor_timestamp": 667987176598335,
      "time_usec": 667987176598
    },
    {
      "frame_id": 416,
      "sensor_timestamp": 667987209844673,
      "time_usec": 667987209844
    },
    {
      "frame_id": 417,
      "sensor_timestamp": 667987243091255,
      "time_usec": 667987243091
    },
    {
      "frame_id": 418,
      "sensor_timestamp": 667987276337593,
      "time_usec": 667987276337
    },
    {
      "frame_id": 419,
      "sensor_timestamp": 667987309583930,
      "time_usec": 667987309583
    },
    {
      "frame_id": 420,
      "sensor_timestamp": 667987342830268,
      "time_usec": 667987342830
    },
    {
      "frame_id": 421,
      "sensor_timestamp": 667987376076850,
      "time_usec": 667987376076
    },
    {
      "frame_id": 422,
      "sensor_timestamp": 667987409323188,
      "time_usec": 667987409323
    },
    {
      "frame_id": 423,
      "sensor_timestamp": 667987442569526,
      "time_usec": 667987442569
    },
    {
      "frame_id": 424,
      "sensor_timestamp": 667987475815864,
      "time_usec": 667987475815
    },
    {
      "frame_id": 425,
      "sensor_timestamp": 667987509062446,
      "time_usec": 667987509062
    },
    {
      "frame_id": 426,
      "sensor_timestamp": 667987542308784,
      "time_usec": 667987542308
    },
    {
      "frame_id": 427,
      "sensor_timestamp": 667987575555122,
      "time_usec": 667987575555
    },
    {
      "frame_id": 428,
      "sensor_timestamp": 667987608801460,
      "time_usec": 667987608801
    },
    {
      "frame_id": 429,
      "sensor_timestamp": 667987642048042,
      "time_usec": 667987642048
    },
    {
      "frame_id": 430,
      "sensor_timestamp": 667987675294380,
      "time_usec": 667987675294
    },
    {
      "frame_id": 431,
      "sensor_timestamp": 667987708540718,
      "time_usec": 667987708540
    },
    {
      "frame_id": 432,
      "sensor_timestamp": 667987741787055,
      "time_usec": 667987741787
    },
    {
      "frame_id": 433,
      "sensor_timestamp": 667987775033393,
      "time_usec": 667987775033
    },
    {
      "frame_id": 434,
      "sensor_timestamp": 667987808279975,
      "time_usec": 667987808279
    },
    {
      "frame_id": 435,
      "sensor_timestamp": 667987841494210,
      "time_usec": 667987841494
    },
    {
      "frame_id": 436,
      "sensor_timestamp": 667987874772651,
      "time_usec": 667987874772
    },
    {
      "frame_id": 437,
      "sensor_timestamp": 667987908018989,
      "time_usec": 667987908018
    },
    {
      "frame_id": 438,
      "sensor_timestamp": 667987941265571,
      "time_usec": 667987941265
    },
    {
      "frame_id": 439,
      "sensor_timestamp": 667987974511909,
      "time_usec": 667987974511
    },
    {
      "frame_id": 440,
      "sensor_timestamp": 667988007758247,
      "time_usec": 667988007758
    },
    {
      "frame_id": 441,
      "sensor_timestamp": 667988041004585,
      "time_usec": 667988041004
    },
    {
      "frame_id": 442,
      "sensor_timestamp": 667988074251167,
      "time_usec": 667988074251
    },
    {
      "frame_id": 443,
      "sensor_timestamp": 667988107497505,
      "time_usec": 667988107497
    },
    {
      "frame_id": 444,
      "sensor_timestamp": 667988140743843,
      "time_usec": 667988140743
    },
    {
      "frame_id": 445,
      "sensor_timestamp": 667988173990180,
      "time_usec": 667988173990
    },
    {
      "frame_id": 446,
      "sensor_timestamp": 667988207236762,
      "time_usec": 667988207236
    },
    {
      "frame_id": 447,
      "sensor_timestamp": 667988240483100,
      "time_usec": 667988240483
    },
    {
      "frame_id": 448,
      "sensor_timestamp": 667988273729438,
      "time_usec": 667988273729
    },
    {
      "frame_id": 449,
      "sensor_timestamp": 667988306975776,
      "time_usec": 667988306975
    },
    {
      "frame_id": 450,
      "sensor_timestamp": 667988340222358,
      "time_usec": 667988340222
    },
    {
      "frame_id": 451,
      "sensor_timestamp": 667988373468696,
      "time_usec": 667988373468
    },
    {
      "frame_id": 452,
      "sensor_timestamp": 667988406715034,
      "time_usec": 667988406715
    },
    {
      "frame_id": 453,
      "sensor_timestamp": 667988439961372,
      "time_usec": 667988439961
    },
    {
      "frame_id": 454,
      "sensor_timestamp": 667988473207954,
      "time_usec": 667988473207
    },
    {
      "frame_id": 455,
      "sensor_timestamp": 667988506454292,
      "time_usec": 667988506454
    },
    {
      "frame_id": 456,
      "sensor_timestamp": 667988539700630,
      "time_usec": 667988539700
    },
    {
      "frame_id": 457,
      "sensor_timestamp": 667988572946968,
      "time_usec": 667988572946
    },
    {
      "frame_id": 458,
      "sensor_timestamp": 667988606193550,
      "time_usec": 667988606193
    },
    {
      "frame_id": 459,
      "sensor_timestamp": 667988639439887,
      "time_usec": 667988639439
    },
    {
      "frame_id": 460,
      "sensor_timestamp": 667988672686225,
      "time_usec": 667988672686
    },
    {
      "frame_id": 461,
      "sensor_timestamp": 667988705932563,
      "time_usec": 667988705932
    },
    {
      "frame_id": 462,
      "sensor_timestamp": 667988739179145,
      "time_usec": 667988739179
    },
    {
      "frame_id": 463,
      "sensor_timestamp": 667988772425483,
      "time_usec": 667988772425
    },
    {
      "frame_id": 464,
      "sensor_timestamp": 667988805671821,
      "time_usec": 667988805671
    },
    {
      "frame_id": 465,
      "sensor_timestamp": 667988838918159,
      "time_usec": 667988838918
    },
    {
      "frame_id": 466,
      "sensor_timestamp": 667988872164741,
      "time_usec": 667988872164
    },
    {
      "frame_id": 467,
      "sensor_timestamp": 667988905411079,
      "time_usec": 667988905411
    },
    {
      "frame_id": 468,
      "sensor_timestamp": 667988938657417,
      "time_usec": 667988938657
    },
    {
      "frame_id": 469,
      "sensor_timestamp": 667988971903755,
      "time_usec": 667988971903
    },
    {
      "frame_id": 470,
      "sensor_timestamp": 667989005150093,
      "time_usec": 667989005150
    },
    {
      "frame_id": 471,
      "sensor_timestamp": 667989038396675,
      "time_usec": 667989038396
    },
    {
      "frame_id": 472,
      "sensor_timestamp": 667989071643012,
      "time_usec": 667989071643
    },
    {
      "frame_id": 473,
      "sensor_timestamp": 667989104889350,
      "time_usec": 667989104889
    },
    {
      "frame_id": 474,
      "sensor_timestamp": 667989138135688,
      "time_usec": 667989138135
    },
    {
      "frame_id": 475,
      "sensor_timestamp": 667989171382270,
      "time_usec": 667989171382
    },
    {
      "frame_id": 476,
      "sensor_timestamp": 667989204628608,
      "time_usec": 667989204628
    },
    {
      "frame_id": 477,
      "sensor_timestamp": 667989237874946,
      "time_usec": 667989237874
    },
    {
      "frame_id": 478,
      "sensor_timestamp": 667989271121284,
      "time_usec": 667989271121
    },
    {
      "frame_id": 479,
      "sensor_timestamp": 667989304367866,
      "time_usec": 667989304367
    },
    {
      "frame_id": 480,
      "sensor_timestamp": 667989337614204,
      "time_usec": 667989337614
    },
    {
      "frame_id": 481,
      "sensor_timestamp": 667989370860542,
      "time_usec": 667989370860
    },
    {
      "frame_id": 482,
      "sensor_timestamp": 667989404106880,
      "time_usec": 667989404106
    },
    {
      "frame_id": 483,
      "sensor_timestamp": 667989437353462,
      "time_usec": 667989437353
    },
    {
      "frame_id": 484,
      "sensor_timestamp": 667989470599800,
      "time_usec": 667989470599
    },
    {
      "frame_id": 485,
      "sensor_timestamp": 667989503846137,
      "time_usec": 667989503846
    },
    {
      "frame_id": 486,
      "sensor_timestamp": 667989537092475,
      "time_usec": 667989537092
    },
    {
      "frame_id": 487,
      "sensor_timestamp": 667989570339057,
      "time_usec": 667989570339
    },
    {
      "frame_id": 488,
      "sensor_timestamp": 667989603585395,
      "time_usec": 667989603585
    },
    {
      "frame_id": 489,
      "sensor_timestamp": 667989636831733,
      "time_usec": 667989636831
    },
    {
      "frame_id": 490,
      "sensor_timestamp": 667989670078071,
      "time_usec": 667989670078
    },
    {
      "frame_id": 491,
      "sensor_timestamp": 667989703324653,
      "time_usec": 667989703324
    },
    {
      "frame_id": 492,
      "sensor_timestamp": 667989736570991,
      "time_usec": 667989736570
    },
    {
      "frame_id": 493,
      "sensor_timestamp": 667989769817329,
      "time_usec": 667989769817
    },
    {
      "frame_id": 494,
      "sensor_timestamp": 667989803063667,
      "time_usec": 667989803063
    },
    {
      "frame_id": 495,
      "sensor_timestamp": 667989836310249,
      "time_usec": 667989836310
    },
    {
      "frame_id": 496,
      "sensor_timestamp": 667989869556587,
      "time_usec": 667989869556
    },
    {
      "frame_id": 497,
      "sensor_timestamp": 667989902802925,
      "time_usec": 667989902802
    },
    {
      "frame_id": 498,
      "sensor_timestamp": 667989936049262,
      "time_usec": 667989936049
    },
    {
      "frame_id": 499,
      "sensor_timestamp": 667989969295844,
      "time_usec": 667989969295
    },
    {
      "frame_id": 500,
      "sensor_timestamp": 667990002542182,
      "time_usec": 667990002542
    },
    {
      "frame_id": 501,
      "sensor_timestamp": 667990035788520,
      "time_usec": 667990035788
    },
    {
      "frame_id": 502,
      "sensor_timestamp": 667990069034858,
      "time_usec": 667990069034
    },
    {
      "frame_id": 503,
      "sensor_timestamp": 667990102281440,
      "time_usec": 667990102281
    },
    {
      "frame_id": 504,
      "sensor_timestamp": 667990135527778,
      "time_usec": 667990135527
    },
    {
      "frame_id": 505,
      "sensor_timestamp": 667990168774116,
      "time_usec": 667990168774
    },
    {
      "frame_id": 506,
      "sensor_timestamp": 667990202020454,
      "time_usec": 667990202020
    },
    {
      "frame_id": 507,
      "sensor_timestamp": 667990235266792,
      "time_usec": 667990235266
    },
    {
      "frame_id": 508,
      "sensor_timestamp": 667990268513374,
      "time_usec": 667990268513
    },
    {
      "frame_id": 509,
      "sensor_timestamp": 667990301759712,
      "time_usec": 667990301759
    },
    {
      "frame_id": 510,
      "sensor_timestamp": 667990335006050,
      "time_usec": 667990335006
    },
    {
      "frame_id": 511,
      "sensor_timestamp": 667990368252387,
      "time_usec": 667990368252
    },
    {
      "frame_id": 512,
      "sensor_timestamp": 667990401498969,
      "time_usec": 667990401498
    },
    {
      "frame_id": 513,
      "sensor_timestamp": 667990434745307,
      "time_usec": 667990434745
    },
    {
      "frame_id": 514,
      "sensor_timestamp": 667990467991645,
      "time_usec": 667990467991
    },
    {
      "frame_id": 515,
      "sensor_timestamp": 667990501237983,
      "time_usec": 667990501237
    },
    {
      "frame_id": 516,
      "sensor_timestamp": 667990534484565,
      "time_usec": 667990534484
    },
    {
      "frame_id": 517,
      "sensor_timestamp": 667990567730903,
      "time_usec": 667990567730
    },
    {
      "frame_id": 518,
      "sensor_timestamp": 667990600977241,
      "time_usec": 667990600977
    },
    {
      "frame_id": 519,
      "sensor_timestamp": 667990634223579,
      "time_usec": 667990634223
    },
    {
      "frame_id": 520,
      "sensor_timestamp": 667990667470161,
      "time_usec": 667990667470
    },
    {
      "frame_id": 521,
      "sensor_timestamp": 667990700716499,
      "time_usec": 667990700716
    },
    {
      "frame_id": 522,
      "sensor_timestamp": 667990733962837,
      "time_usec": 667990733962
    },
    {
      "frame_id": 523,
      "sensor_timestamp": 667990767209175,
      "time_usec": 667990767209
    },
    {
      "frame_id": 524,
      "sensor_timestamp": 667990800455757,
      "time_usec": 667990800455
    },
    {
      "frame_id": 525,
      "sensor_timestamp": 667990833702094,
      "time_usec": 667990833702
    },
    {
      "frame_id": 526,
      "sensor_timestamp": 667990866948432,
      "time_usec": 667990866948
    },
    {
      "frame_id": 527,
      "sensor_timestamp": 667990900194770,
      "time_usec": 667990900194
    },
    {
      "frame_id": 528,
      "sensor_timestamp": 667990933441352,
      "time_usec": 667990933441
    },
    {
      "frame_id": 529,
      "sensor_timestamp": 667990966687690,
      "time_usec": 667990966687
    },
    {
      "frame_id": 530,
      "sensor_timestamp": 667990999934028,
      "time_usec": 667990999934
    },
    {
      "frame_id": 531,
      "sensor_timestamp": 667991033180366,
      "time_usec": 667991033180
    },
    {
      "frame_id": 532,
      "sensor_timestamp": 667991066426948,
      "time_usec": 667991066426
    },
    {
      "frame_id": 533,
      "sensor_timestamp": 667991099673286,
      "time_usec": 667991099673
    },
    {
      "frame_id": 534,
      "sensor_timestamp": 667991132919624,
      "time_usec": 667991132919
    },
    {
      "frame_id": 535,
      "sensor_timestamp": 667991166165962,
      "time_usec": 667991166165
    },
    {
      "frame_id": 536,
      "sensor_timestamp": 667991199412544,
      "time_usec": 667991199412
    },
    {
      "frame_id": 537,
      "sensor_timestamp": 667991232658882,
      "time_usec": 667991232658
    },
    {
      "frame_id": 538,
      "sensor_timestamp": 667991265905219,
      "time_usec": 667991265905
    },
    {
      "frame_id": 539,
      "sensor_timestamp": 667991299151557,
      "time_usec": 667991299151
    },
    {
      "frame_id": 540,
      "sensor_timestamp": 667991332398139,
      "time_usec": 667991332398
    },
    {
      "frame_id": 541,
