{
  "frames": [
    {
      "frame_id": 0,
      "sensor_timestamp": 85805782917590,
      "time_usec": 85805782917
    },
    {
      "frame_id": 1,
      "sensor_timestamp": 85805849410510,
      "time_usec": 85805849410
    },
    {
      "frame_id": 2,
      "sensor_timestamp": 85805882656848,
      "time_usec": 85805882656
    },
    {
      "frame_id": 3,
      "sensor_timestamp": 85805915903186,
      "time_usec": 85805915903
    },
    {
      "frame_id": 4,
      "sensor_timestamp": 85805949149523,
      "time_usec": 85805949149
    },
    {
      "frame_id": 5,
      "sensor_timestamp": 85805982395861,
      "time_usec": 85805982395
    },
    {
      "frame_id": 6,
      "sensor_timestamp": 85806015642443,
      "time_usec": 85806015642
    },
    {
      "frame_id": 7,
      "sensor_timestamp": 85806048888781,
      "time_usec": 85806048888
    },
    {
      "frame_id": 8,
      "sensor_timestamp": 85806082135119,
      "time_usec": 85806082135
    },
    {
      "frame_id": 9,
      "sensor_timestamp": 85806115381457,
      "time_usec": 85806115381
    },
    {
      "frame_id": 10,
      "sensor_timestamp": 85806148628039,
      "time_usec": 85806148628
    },
    {
      "frame_id": 11,
      "sensor_timestamp": 85806181874377,
      "time_usec": 85806181874
    },
    {
      "frame_id": 12,
      "sensor_timestamp": 85806215120715,
      "time_usec": 85806215120
    },
    {
      "frame_id": 13,
      "sensor_timestamp": 85806248367053,
      "time_usec": 85806248367
    },
    {
      "frame_id": 14,
      "sensor_timestamp": 85806281613635,
      "time_usec": 85806281613
    },
    {
      "frame_id": 15,
      "sensor_timestamp": 85806314859973,
      "time_usec": 85806314859
    },
    {
      "frame_id": 16,
      "sensor_timestamp": 85806348106311,
      "time_usec": 85806348106
    },
    {
      "frame_id": 17,
      "sensor_timestamp": 85806381352648,
      "time_usec": 85806381352
    },
    {
      "frame_id": 18,
      "sensor_timestamp": 85806414599231,
      "time_usec": 85806414599
    },
    {
      "frame_id": 19,
      "sensor_timestamp": 85806447845568,
      "time_usec": 85806447845
    },
    {
      "frame_id": 20,
      "sensor_timestamp": 85806481091906,
      "time_usec": 85806481091
    },
    {
      "frame_id": 21,
      "sensor_timestamp": 85806517118875,
      "time_usec": 85806517118
    },
    {
      "frame_id": 22,
      "sensor_timestamp": 85806550365457,
      "time_usec": 85806550365
    },
    {
      "frame_id": 23,
      "sensor_timestamp": 85806583611795,
      "time_usec": 85806583611
    },
    {
      "frame_id": 24,
      "sensor_timestamp": 85806616858133,
      "time_usec": 85806616858
    },
    {
      "frame_id": 25,
      "sensor_timestamp": 85806650104471,
      "time_usec": 85806650104
    },
    {
      "frame_id": 26,
      "sensor_timestamp": 85806683351053,
      "time_usec": 85806683351
    },
    {
      "frame_id": 27,
      "sensor_timestamp": 85806716597391,
      "time_usec": 85806716597
    },
    {
      "frame_id": 28,
      "sensor_timestamp": 85806749843729,
      "time_usec": 85806749843
    },
    {
      "frame_id": 29,
      "sensor_timestamp": 85806783090067,
      "time_usec": 85806783090
    },
    {
      "frame_id": 30,
      "sensor_timestamp": 85806816336649,
      "time_usec": 85806816336
    },
    {
      "frame_id": 31,
      "sensor_timestamp": 85806849582987,
      "time_usec": 85806849582
    },
    {
      "frame_id": 32,
      "sensor_timestamp": 85806882829324,
      "time_usec": 85806882829
    },
    {
      "frame_id": 33,
      "sensor_timestamp": 85806916075662,
      "time_usec": 85806916075
    },
    {
      "frame_id": 34,
      "sensor_timestamp": 85806949322244,
      "time_usec": 85806949322
    },
    {
      "frame_id": 35,
      "sensor_timestamp": 85806982568582,
      "time_usec": 85806982568
    },
    {
      "frame_id": 36,
      "sensor_timestamp": 85807015814920,
      "time_usec": 85807015814
    },
    {
      "frame_id": 37,
      "sensor_timestamp": 85807049061258,
      "time_usec": 85807049061
    },
    {
      "frame_id": 38,
      "sensor_timestamp": 85807082307840,
      "time_usec": 85807082307
    },
    {
      "frame_id": 39,
      "sensor_timestamp": 85807115554178,
      "time_usec": 85807115554
    },
    {
      "frame_id": 40,
      "sensor_timestamp": 85807148800516,
      "time_usec": 85807148800
    },
    {
      "frame_id": 41,
      "sensor_timestamp": 85807182046854,
      "time_usec": 85807182046
    },
    {
      "frame_id": 42,
      "sensor_timestamp": 85807215293436,
      "time_usec": 85807215293
    },
    {
      "frame_id": 43,
      "sensor_timestamp": 85807248539774,
      "time_usec": 85807248539
    },
    {
      "frame_id": 44,
      "sensor_timestamp": 85807281786112,
      "time_usec": 85807281786
    },
    {
      "frame_id": 45,
      "sensor_timestamp": 85807315032449,
      "time_usec": 85807315032
    },
    {
      "frame_id": 46,
      "sensor_timestamp": 85807348278787,
      "time_usec": 85807348278
    },
    {
      "frame_id": 47,
      "sensor_timestamp": 85807381525369,
      "time_usec": 85807381525
    },
    {
      "frame_id": 48,
      "sensor_timestamp": 85807414771707,
      "time_usec": 85807414771
    },
    {
      "frame_id": 49,
      "sensor_timestamp": 85807448018045,
      "time_usec": 85807448018
    },
    {
      "frame_id": 50,
      "sensor_timestamp": 85807481264383,
      "time_usec": 85807481264
    },
    {
      "frame_id": 51,
      "sensor_timestamp": 85807514510965,
      "time_usec": 85807514510
    },
    {
      "frame_id": 52,
      "sensor_timestamp": 85807547757303,
      "time_usec": 85807547757
    },
    {
      "frame_id": 53,
      "sensor_timestamp": 85807581003641,
      "time_usec": 85807581003
    },
    {
      "frame_id": 54,
      "sensor_timestamp": 85807614249979,
      "time_usec": 85807614249
    },
    {
      "frame_id": 55,
      "sensor_timestamp": 85807647496561,
      "time_usec": 85807647496
    },
    {
      "frame_id": 56,
      "sensor_timestamp": 85807680742899,
      "time_usec": 85807680742
    },
    {
      "frame_id": 57,
      "sensor_timestamp": 85807713989237,
      "time_usec": 85807713989
    },
    {
      "frame_id": 58,
      "sensor_timestamp": 85807747235574,
      "time_usec": 85807747235
    },
    {
      "frame_id": 59,
      "sensor_timestamp": 85807780482156,
      "time_usec": 85807780482
    },
    {
      "frame_id": 60,
      "sensor_timestamp": 85807813728494,
      "time_usec": 85807813728
    },
    {
      "frame_id": 61,
      "sensor_timestamp": 85807846974832,
      "time_usec": 85807846974
    },
    {
      "frame_id": 62,
      "sensor_timestamp": 85807880221170,
      "time_usec": 85807880221
    },
    {
      "frame_id": 63,
      "sensor_timestamp": 85807913467752,
      "time_usec": 85807913467
    },
    {
      "frame_id": 64,
      "sensor_timestamp": 85807946714090,
      "time_usec": 85807946714
    },
    {
      "frame_id": 65,
      "sensor_timestamp": 85807979960428,
      "time_usec": 85807979960
    },
    {
      "frame_id": 66,
      "sensor_timestamp": 85808013206766,
      "time_usec": 85808013206
    },
    {
      "frame_id": 67,
      "sensor_timestamp": 85808046453348,
      "time_usec": 85808046453
    },
    {
      "frame_id": 68,
      "sensor_timestamp": 85808079699686,
      "time_usec": 85808079699
    },
    {
      "frame_id": 69,
      "sensor_timestamp": 85808112946024,
      "time_usec": 85808112946
    },
    {
      "frame_id": 70,
      "sensor_timestamp": 85808146192362,
      "time_usec": 85808146192
    },
    {
      "frame_id": 71,
      "sensor_timestamp": 85808179438944,
      "time_usec": 85808179438
    },
    {
      "frame_id": 72,
      "sensor_timestamp": 85808212685281,
      "time_usec": 85808212685
    },
    {
      "frame_id": 73,
      "sensor_timestamp": 85808245931619,
      "time_usec": 85808245931
    },
    {
      "frame_id": 74,
      "sensor_timestamp": 85808279177957,
      "time_usec": 85808279177
    },
    {
      "frame_id": 75,
      "sensor_timestamp": 85808312424539,
      "time_usec": 85808312424
    },
    {
      "frame_id": 76,
      "sensor_timestamp": 85808345670877,
      "time_usec": 85808345670
    },
    {
      "frame_id": 77,
      "sensor_timestamp": 85808378917215,
      "time_usec": 85808378917
    },
    {
      "frame_id": 78,
      "sensor_timestamp": 85808412163553,
      "time_usec": 85808412163
    },
    {
      "frame_id": 79,
      "sensor_timestamp": 85808445410135,
      "time_usec": 85808445410
    },
    {
      "frame_id": 80,
      "sensor_timestamp": 85808478656473,
      "time_usec": 85808478656
    },
    {
      "frame_id": 81,
      "sensor_timestamp": 85808511902811,
      "time_usec": 85808511902
    },
    {
      "frame_id": 82,
      "sensor_timestamp": 85808545149149,
      "time_usec": 85808545149
    },
    {
      "frame_id": 83,
      "sensor_timestamp": 85808578395487,
      "time_usec": 85808578395
    },
    {
      "frame_id": 84,
      "sensor_timestamp": 85808611642069,
      "time_usec": 85808611642
    },
    {
      "frame_id": 85,
      "sensor_timestamp": 85808644888406,
      "time_usec": 85808644888
    },
    {
      "frame_id": 86,
      "sensor_timestamp": 85808678134744,
      "time_usec": 85808678134
    },
    {
      "frame_id": 87,
      "sensor_timestamp": 85808711381082,
      "time_usec": 85808711381
    },
    {
      "frame_id": 88,
      "sensor_timestamp": 85808744627664,
      "time_usec": 85808744627
    },
    {
      "frame_id": 89,
      "sensor_timestamp": 85808777874002,
      "time_usec": 85808777874
    },
    {
      "frame_id": 90,
      "sensor_timestamp": 85808811120340,
      "time_usec": 85808811120
    },
    {
      "frame_id": 91,
      "sensor_timestamp": 85808844366678,
      "time_usec": 85808844366
    },
    {
      "frame_id": 92,
      "sensor_timestamp": 85808877613260,
      "time_usec": 85808877613
    },
    {
      "frame_id": 93,
      "sensor_timestamp": 85808910859598,
      "time_usec": 85808910859
    },
    {
      "frame_id": 94,
      "sensor_timestamp": 85808944105936,
      "time_usec": 85808944105
    },
    {
      "frame_id": 95,
      "sensor_timestamp": 85808977352274,
      "time_usec": 85808977352
    },
    {
      "frame_id": 96,
      "sensor_timestamp": 85809010598856,
      "time_usec": 85809010598
    },
    {
      "frame_id": 97,
      "sensor_timestamp": 85809041064563,
      "time_usec": 85809041064
    },
    {
      "frame_id": 98,
      "sensor_timestamp": 85809074310900,
      "time_usec": 85809074310
    },
    {
      "frame_id": 99,
      "sensor_timestamp": 85809107557238,
      "time_usec": 85809107557
    },
    {
      "frame_id": 100,
      "sensor_timestamp": 85809140803820,
      "time_usec": 85809140803
    },
    {
      "frame_id": 101,
      "sensor_timestamp": 85809174050158,
      "time_usec": 85809174050
    },
    {
      "frame_id": 102,
      "sensor_timestamp": 85809207296496,
      "time_usec": 85809207296
    },
    {
      "frame_id": 103,
      "sensor_timestamp": 85809240542834,
      "time_usec": 85809240542
    },
    {
      "frame_id": 104,
      "sensor_timestamp": 85809273789416,
      "time_usec": 85809273789
    },
    {
      "frame_id": 105,
      "sensor_timestamp": 85809307035754,
      "time_usec": 85809307035
    },
    {
      "frame_id": 106,
      "sensor_timestamp": 85809340282092,
      "time_usec": 85809340282
    },
    {
      "frame_id": 107,
      "sensor_timestamp": 85809373528430,
      "time_usec": 85809373528
    },
    {
      "frame_id": 108,
      "sensor_timestamp": 85809406775012,
      "time_usec": 85809406775
    },
    {
      "frame_id": 109,
      "sensor_timestamp": 85809440021350,
      "time_usec": 85809440021
    },
    {
      "frame_id": 110,
      "sensor_timestamp": 85809473267688,
      "time_usec": 85809473267
    },
    {
      "frame_id": 111,
      "sensor_timestamp": 85809506514025,
      "time_usec": 85809506514
    },
    {
      "frame_id": 112,
      "sensor_timestamp": 85809539760607,
      "time_usec": 85809539760
    },
    {
      "frame_id": 113,
      "sensor_timestamp": 85809573006945,
      "time_usec": 85809573006
    },
    {
      "frame_id": 114,
      "sensor_timestamp": 85809606253283,
      "time_usec": 85809606253
    },
    {
      "frame_id": 115,
      "sensor_timestamp": 85809639499621,
      "time_usec": 85809639499
    },
    {
      "frame_id": 116,
      "sensor_timestamp": 85809672745959,
      "time_usec": 85809672745
    },
    {
      "frame_id": 117,
      "sensor_timestamp": 85809705992541,
      "time_usec": 85809705992
    },
    {
      "frame_id": 118,
      "sensor_timestamp": 85809739238879,
      "time_usec": 85809739238
    },
    {
      "frame_id": 119,
      "sensor_timestamp": 85809772485217,
      "time_usec": 85809772485
    },
    {
      "frame_id": 120,
      "sensor_timestamp": 85809805731555,
      "time_usec": 85809805731
    },
    {
      "frame_id": 121,
      "sensor_timestamp": 85809838978137,
      "time_usec": 85809838978
    },
    {
      "frame_id": 122,
      "sensor_timestamp": 85809872224475,
      "time_usec": 85809872224
    },
    {
      "frame_id": 123,
      "sensor_timestamp": 85809905470813,
      "time_usec": 85809905470
    },
    {
      "frame_id": 124,
      "sensor_timestamp": 85809938717150,
      "time_usec": 85809938717
    },
    {
      "frame_id": 125,
      "sensor_timestamp": 85809971963732,
      "time_usec": 85809971963
    },
    {
      "frame_id": 126,
      "sensor_timestamp": 85810005210070,
      "time_usec": 85810005210
    },
    {
      "frame_id": 127,
      "sensor_timestamp": 85810038456408,
      "time_usec": 85810038456
    },
    {
      "frame_id": 128,
      "sensor_timestamp": 85810071702746,
      "time_usec": 85810071702
    },
    {
      "frame_id": 129,
      "sensor_timestamp": 85810104949328,
      "time_usec": 85810104949
    },
    {
      "frame_id": 130,
      "sensor_timestamp": 85810138195666,
      "time_usec": 85810138195
    },
    {
      "frame_id": 131,
      "sensor_timestamp": 85810171442004,
      "time_usec": 85810171442
    },
    {
      "frame_id": 132,
      "sensor_timestamp": 85810204688342,
      "time_usec": 85810204688
    },
    {
      "frame_id": 133,
      "sensor_timestamp": 85810237934924,
      "time_usec": 85810237934
    },
    {
      "frame_id": 134,
      "sensor_timestamp": 85810271181262,
      "time_usec": 85810271181
    },
    {
      "frame_id": 135,
      "sensor_timestamp": 85810304427600,
      "time_usec": 85810304427
    },
    {
      "frame_id": 136,
      "sensor_timestamp": 85810337673938,
      "time_usec": 85810337673
    },
    {
      "frame_id": 137,
      "sensor_timestamp": 85810370920520,
      "time_usec": 85810370920
    },
    {
      "frame_id": 138,
      "sensor_timestamp": 85810404166857,
      "time_usec": 85810404166
    },
    {
      "frame_id": 139,
      "sensor_timestamp": 85810437413195,
      "time_usec": 85810437413
    },
    {
      "frame_id": 140,
      "sensor_timestamp": 85810470659533,
      "time_usec": 85810470659
    },
    {
      "frame_id": 141,
      "sensor_timestamp": 85810503906115,
      "time_usec": 85810503906
    },
    {
      "frame_id": 142,
      "sensor_timestamp": 85810537152453,
      "time_usec": 85810537152
    },
    {
      "frame_id": 143,
      "sensor_timestamp": 85810570398791,
      "time_usec": 85810570398
    },
    {
      "frame_id": 144,
      "sensor_timestamp": 85810603645129,
      "time_usec": 85810603645
    },
    {
      "frame_id": 145,
      "sensor_timestamp": 85810636891711,
      "time_usec": 85810636891
    },
    {
      "frame_id": 146,
      "sensor_timestamp": 85810670138049,
      "time_usec": 85810670138
    },
    {
      "frame_id": 147,
      "sensor_timestamp": 85810703384387,
      "time_usec": 85810703384
    },
    {
      "frame_id": 148,
      "sensor_timestamp": 85810736630725,
      "time_usec": 85810736630
    },
    {
      "frame_id": 149,
      "sensor_timestamp": 85810769877307,
      "time_usec": 85810769877
    },
    {
      "frame_id": 150,
      "sensor_timestamp": 85810803123645,
      "time_usec": 85810803123
    },
    {
      "frame_id": 151,
      "sensor_timestamp": 85810836369982,
      "time_usec": 85810836369
    },
    {
      "frame_id": 152,
      "sensor_timestamp": 85810869616320,
      "time_usec": 85810869616
    },
    {
      "frame_id": 153,
      "sensor_timestamp": 85810902862658,
      "time_usec": 85810902862
    },
    {
      "frame_id": 154,
      "sensor_timestamp": 85810936109240,
      "time_usec": 85810936109
    },
    {
      "frame_id": 155,
      "sensor_timestamp": 85810969355578,
      "time_usec": 85810969355
    },
    {
      "frame_id": 156,
      "sensor_timestamp": 85811002601916,
      "time_usec": 85811002601
    },
    {
      "frame_id": 157,
      "sensor_timestamp": 85811035848254,
      "time_usec": 85811035848
    },
    {
      "frame_id": 158,
      "sensor_timestamp": 85811069094836,
      "time_usec": 85811069094
    },
    {
      "frame_id": 159,
      "sensor_timestamp": 85811102341174,
      "time_usec": 85811102341
    },
    {
      "frame_id": 160,
      "sensor_timestamp": 85811135587512,
      "time_usec": 85811135587
    },
    {
      "frame_id": 161,
      "sensor_timestamp": 85811168833850,
      "time_usec": 85811168833
    },
    {
      "frame_id": 162,
      "sensor_timestamp": 85811202080432,
      "time_usec": 85811202080
    },
    {
      "frame_id": 163,
      "sensor_timestamp": 85811235326770,
      "time_usec": 85811235326
    },
    {
      "frame_id": 164,
      "sensor_timestamp": 85811268573107,
      "time_usec": 85811268573
    },
    {
      "frame_id": 165,
      "sensor_timestamp": 85811304600076,
      "time_usec": 85811304600
    },
    {
      "frame_id": 166,
      "sensor_timestamp": 85811337846658,
      "time_usec": 85811337846
    },
    {
      "frame_id": 167,
      "sensor_timestamp": 85811371092996,
      "time_usec": 85811371092
    },
    {
      "frame_id": 168,
      "sensor_timestamp": 85811404339334,
      "time_usec": 85811404339
    },
    {
      "frame_id": 169,
      "sensor_timestamp": 85811437585672,
      "time_usec": 85811437585
    },
    {
      "frame_id": 170,
      "sensor_timestamp": 85811470832254,
      "time_usec": 85811470832
    },
    {
      "frame_id": 171,
      "sensor_timestamp": 85811504078592,
      "time_usec": 85811504078
    },
    {
      "frame_id": 172,
      "sensor_timestamp": 85811537324930,
      "time_usec": 85811537324
    },
    {
      "frame_id": 173,
      "sensor_timestamp": 85811570571268,
      "time_usec": 85811570571
    },
    {
      "frame_id": 174,
      "sensor_timestamp": 85811603817850,
      "time_usec": 85811603817
    },
    {
      "frame_id": 175,
      "sensor_timestamp": 85811637064188,
      "time_usec": 85811637064
    },
    {
      "frame_id": 176,
      "sensor_timestamp": 85811670310526,
      "time_usec": 85811670310
    },
    {
      "frame_id": 177,
      "sensor_timestamp": 85811703556863,
      "time_usec": 85811703556
    },
    {
      "frame_id": 178,
      "sensor_timestamp": 85811736803445,
      "time_usec": 85811736803
    },
    {
      "frame_id": 179,
      "sensor_timestamp": 85811770049783,
      "time_usec": 85811770049
    },
    {
      "frame_id": 180,
      "sensor_timestamp": 85811803296121,
      "time_usec": 85811803296
    },
    {
      "frame_id": 181,
      "sensor_timestamp": 85811836542459,
      "time_usec": 85811836542
    },
    {
      "frame_id": 182,
      "sensor_timestamp": 85811869789041,
      "time_usec": 85811869789
    },
    {
      "frame_id": 183,
      "sensor_timestamp": 85811903035379,
      "time_usec": 85811903035
    },
    {
      "frame_id": 184,
      "sensor_timestamp": 85811936281717,
      "time_usec": 85811936281
    },
    {
      "frame_id": 185,
      "sensor_timestamp": 85811969528055,
      "time_usec": 85811969528
    },
    {
      "frame_id": 186,
      "sensor_timestamp": 85812002774637,
      "time_usec": 85812002774
    },
    {
      "frame_id": 187,
      "sensor_timestamp": 85812036020975,
      "time_usec": 85812036020
    },
    {
      "frame_id": 188,
      "sensor_timestamp": 85812069267313,
      "time_usec": 85812069267
    },
    {
      "frame_id": 189,
      "sensor_timestamp": 85812102513651,
      "time_usec": 85812102513
    },
    {
      "frame_id": 190,
      "sensor_timestamp": 85812135759988,
      "time_usec": 85812135759
    },
    {
      "frame_id": 191,
      "sensor_timestamp": 85812169006570,
      "time_usec": 85812169006
    },
    {
      "frame_id": 192,
      "sensor_timestamp": 85812202252908,
      "time_usec": 85812202252
    },
    {
      "frame_id": 193,
      "sensor_timestamp": 85812235499246,
      "time_usec": 85812235499
    },
    {
      "frame_id": 194,
      "sensor_timestamp": 85812268745584,
      "time_usec": 85812268745
    },
    {
      "frame_id": 195,
      "sensor_timestamp": 85812301992166,
      "time_usec": 85812301992
    },
    {
      "frame_id": 196,
      "sensor_timestamp": 85812335238504,
      "time_usec": 85812335238
    },
    {
      "frame_id": 197,
      "sensor_timestamp": 85812368484842,
      "time_usec": 85812368484
    },
    {
      "frame_id": 198,
      "sensor_timestamp": 85812401731180,
      "time_usec": 85812401731
    },
    {
      "frame_id": 199,
      "sensor_timestamp": 85812434977762,
      "time_usec": 85812434977
    },
    {
      "frame_id": 200,
      "sensor_timestamp": 85812468224100,
      "time_usec": 85812468224
    },
    {
      "frame_id": 201,
      "sensor_timestamp": 85812501470438,
      "time_usec": 85812501470
    },
    {
      "frame_id": 202,
      "sensor_timestamp": 85812534716776,
      "time_usec": 85812534716
    },
    {
      "frame_id": 203,
      "sensor_timestamp": 85812567963358,
      "time_usec": 85812567963
    },
    {
      "frame_id": 204,
      "sensor_timestamp": 85812601209695,
      "time_usec": 85812601209
    },
    {
      "frame_id": 205,
      "sensor_timestamp": 85812634456033,
      "time_usec": 85812634456
    },
    {
      "frame_id": 206,
      "sensor_timestamp": 85812667702371,
      "time_usec": 85812667702
    },
    {
      "frame_id": 207,
      "sensor_timestamp": 85812700887959,
      "time_usec": 85812700887
    },
    {
      "frame_id": 208,
      "sensor_timestamp": 85812734195291,
      "time_usec": 85812734195
    },
    {
      "frame_id": 209,
      "sensor_timestamp": 85812767441629,
      "time_usec": 85812767441
    },
    {
      "frame_id": 210,
      "sensor_timestamp": 85812800687967,
      "time_usec": 85812800687
    },
    {
      "frame_id": 211,
      "sensor_timestamp": 85812833934549,
      "time_usec": 85812833934
    },
    {
      "frame_id": 212,
      "sensor_timestamp": 85812867180887,
      "time_usec": 85812867180
    },
    {
      "frame_id": 213,
      "sensor_timestamp": 85812900427225,
      "time_usec": 85812900427
    },
    {
      "frame_id": 214,
      "sensor_timestamp": 85812933673563,
      "time_usec": 85812933673
    },
    {
      "frame_id": 215,
      "sensor_timestamp": 85812966920145,
      "time_usec": 85812966920
    },
    {
      "frame_id": 216,
      "sensor_timestamp": 85813000166483,
      "time_usec": 85813000166
    },
    {
      "frame_id": 217,
      "sensor_timestamp": 85813033412820,
      "time_usec": 85813033412
    },
    {
      "frame_id": 218,
      "sensor_timestamp": 85813066659158,
      "time_usec": 85813066659
    },
    {
      "frame_id": 219,
      "sensor_timestamp": 85813099905740,
      "time_usec": 85813099905
    },
    {
      "frame_id": 220,
      "sensor_timestamp": 85813133152078,
      "time_usec": 85813133152
    },
    {
      "frame_id": 221,
      "sensor_timestamp": 85813166398416,
      "time_usec": 85813166398
    },
    {
      "frame_id": 222,
      "sensor_timestamp": 85813199644754,
      "time_usec": 85813199644
    },
    {
      "frame_id": 223,
      "sensor_timestamp": 85813232891336,
      "time_usec": 85813232891
    },
    {
      "frame_id": 224,
      "sensor_timestamp": 85813266137674,
      "time_usec": 85813266137
    },
    {
      "frame_id": 225,
      "sensor_timestamp": 85813299384012,
      "time_usec": 85813299384
    },
    {
      "frame_id": 226,
      "sensor_timestamp": 85813332630350,
      "time_usec": 85813332630
    },
    {
      "frame_id": 227,
      "sensor_timestamp": 85813365876688,
      "time_usec": 85813365876
    },
    {
      "frame_id": 228,
      "sensor_timestamp": 85813399123270,
      "time_usec": 85813399123
    },
    {
      "frame_id": 229,
      "sensor_timestamp": 85813432369608,
      "time_usec": 85813432369
    },
    {
      "frame_id": 230,
      "sensor_timestamp": 85813465615945,
      "time_usec": 85813465615
    },
    {
      "frame_id": 231,
      "sensor_timestamp": 85813498862283,
      "time_usec": 85813498862
    },
    {
      "frame_id": 232,
      "sensor_timestamp": 85813532108865,
      "time_usec": 85813532108
    },
    {
      "frame_id": 233,
      "sensor_timestamp": 85813565355203,
      "time_usec": 85813565355
    },
    {
      "frame_id": 234,
      "sensor_timestamp": 85813598601541,
      "time_usec": 85813598601
    },
    {
      "frame_id": 235,
      "sensor_timestamp": 85813631847879,
      "time_usec": 85813631847
    },
    {
      "frame_id": 236,
      "sensor_timestamp": 85813665094461,
      "time_usec": 85813665094
    },
    {
      "frame_id": 237,
      "sensor_timestamp": 85813698340799,
      "time_usec": 85813698340
    },
    {
      "frame_id": 238,
      "sensor_timestamp": 85813731587137,
      "time_usec": 85813731587
    },
    {
      "frame_id": 239,
      "sensor_timestamp": 85813764833475,
      "time_usec": 85813764833
    },
    {
      "frame_id": 240,
      "sensor_timestamp": 85813798080057,
      "time_usec": 85813798080
    },
    {
      "frame_id": 241,
      "sensor_timestamp": 85813831326395,
      "time_usec": 85813831326
    },
    {
      "frame_id": 242,
      "sensor_timestamp": 85813864572733,
      "time_usec": 85813864572
    },
    {
      "frame_id": 243,
      "sensor_timestamp": 85813897819070,
      "time_usec": 85813897819
    },
    {
      "frame_id": 244,
      "sensor_timestamp": 85813931065653,
      "time_usec": 85813931065
    },
    {
      "frame_id": 245,
      "sensor_timestamp": 85813964311990,
      "time_usec": 85813964311
    },
    {
      "frame_id": 246,
      "sensor_timestamp": 85813997558328,
      "time_usec": 85813997558
    },
    {
      "frame_id": 247,
      "sensor_timestamp": 85814030804666,
      "time_usec": 85814030804
    },
    {
      "frame_id": 248,
      "sensor_timestamp": 85814064051248,
      "time_usec": 85814064051
    },
    {
      "frame_id": 249,
      "sensor_timestamp": 85814097297586,
      "time_usec": 85814097297
    },
    {
      "frame_id": 250,
      "sensor_timestamp": 85814130543924,
      "time_usec": 85814130543
    },
    {
      "frame_id": 251,
      "sensor_timestamp": 85814163790262,
      "time_usec": 85814163790
    },
    {
      "frame_id": 252,
      "sensor_timestamp": 85814197036844,
      "time_usec": 85814197036
    },
    {
      "frame_id": 253,
      "sensor_timestamp": 85814230283182,
      "time_usec": 85814230283
    },
    {
      "frame_id": 254,
      "sensor_timestamp": 85814263529520,
      "time_usec": 85814263529
    },
    {
      "frame_id": 255,
      "sensor_timestamp": 85814296775858,
      "time_usec": 85814296775
    },
    {
      "frame_id": 256,
      "sensor_timestamp": 85814330022440,
      "time_usec": 85814330022
    },
    {
      "frame_id": 257,
      "sensor_timestamp": 85814363268778,
      "time_usec": 85814363268
    },
    {
      "frame_id": 258,
      "sensor_timestamp": 85814396515115,
      "time_usec": 85814396515
    },
    {
      "frame_id": 259,
      "sensor_timestamp": 85814429761453,
      "time_usec": 85814429761
    },
    {
      "frame_id": 260,
      "sensor_timestamp": 85814463008035,
      "time_usec": 85814463008
    },
    {
      "frame_id": 261,
      "sensor_timestamp": 85814496254373,
      "time_usec": 85814496254
    },
    {
      "frame_id": 262,
      "sensor_timestamp": 85814529500711,
      "time_usec": 85814529500
    },
    {
      "frame_id": 263,
      "sensor_timestamp": 85814562747049,
      "time_usec": 85814562747
    },
    {
      "frame_id": 264,
      "sensor_timestamp": 85814595993387,
      "time_usec": 85814595993
    },
    {
      "frame_id": 265,
      "sensor_timestamp": 85814629239969,
      "time_usec": 85814629239
    },
    {
      "frame_id": 266,
      "sensor_timestamp": 85814662486307,
      "time_usec": 85814662486
    },
    {
      "frame_id": 267,
      "sensor_timestamp": 85814695732645,
      "time_usec": 85814695732
    },
    {
      "frame_id": 268,
      "sensor_timestamp": 85814728978983,
      "time_usec": 85814728978
    },
    {
      "frame_id": 269,
      "sensor_timestamp": 85814762225565,
      "time_usec": 85814762225
    },
    {
      "frame_id": 270,
      "sensor_timestamp": 85814795471903,
      "time_usec": 85814795471
    },
    {
      "frame_id": 271,
      "sensor_timestamp": 85814828718240,
      "time_usec": 85814828718
    },
    {
      "frame_id": 272,
      "sensor_timestamp": 85814861964578,
      "time_usec": 85814861964
    },
    {
      "frame_id": 273,
      "sensor_timestamp": 85814895211160,
      "time_usec": 85814895211
    },
    {
      "frame_id": 274,
      "sensor_timestamp": 85814928457498,
      "time_usec": 85814928457
    },
    {
      "frame_id": 275,
      "sensor_timestamp": 85814961703836,
      "time_usec": 85814961703
    },
    {
      "frame_id": 276,
      "sensor_timestamp": 85814994950174,
      "time_usec": 85814994950
    },
    {
      "frame_id": 277,
      "sensor_timestamp": 85815028196756,
      "time_usec": 85815028196
    },
    {
      "frame_id": 278,
      "sensor_timestamp": 85815061443094,
      "time_usec": 85815061443
    },
    {
      "frame_id": 279,
      "sensor_timestamp": 85815094689432,
      "time_usec": 85815094689
    },
    {
      "frame_id": 280,
      "sensor_timestamp": 85815127935770,
      "time_usec": 85815127935
    },
    {
      "frame_id": 281,
      "sensor_timestamp": 85815161182352,
      "time_usec": 85815161182
    },
    {
      "frame_id": 282,
      "sensor_timestamp": 85815194428690,
      "time_usec": 85815194428
    },
    {
      "frame_id": 283,
      "sensor_timestamp": 85815227675028,
      "time_usec": 85815227675
    },
    {
      "frame_id": 284,
      "sensor_timestamp": 85815260921365,
      "time_usec": 85815260921
    },
    {
      "frame_id": 285,
      "sensor_timestamp": 85815294167947,
      "time_usec": 85815294167
    },
    {
      "frame_id": 286,
      "sensor_timestamp": 85815327414285,
      "time_usec": 85815327414
    },
    {
      "frame_id": 287,
      "sensor_timestamp": 85815360660623,
      "time_usec": 85815360660
    },
    {
      "frame_id": 288,
      "sensor_timestamp": 85815393906961,
      "time_usec": 85815393906
    },
    {
      "frame_id": 289,
      "sensor_timestamp": 85815427153543,
      "time_usec": 85815427153
    },
    {
      "frame_id": 290,
      "sensor_timestamp": 85815460399881,
      "time_usec": 85815460399
    },
    {
      "frame_id": 291,
      "sensor_timestamp": 85815493646219,
      "time_usec": 85815493646
    },
    {
      "frame_id": 292,
      "sensor_timestamp": 85815526892557,
      "time_usec": 85815526892
    },
    {
      "frame_id": 293,
      "sensor_timestamp": 85815560139139,
      "time_usec": 85815560139
    },
    {
      "frame_id": 294,
      "sensor_timestamp": 85815593385477,
      "time_usec": 85815593385
    },
    {
      "frame_id": 295,
      "sensor_timestamp": 85815626631815,
      "time_usec": 85815626631
    },
    {
      "frame_id": 296,
      "sensor_timestamp": 85815659878153,
      "time_usec": 85815659878
    },
    {
      "frame_id": 297,
      "sensor_timestamp": 85815693124735,
      "time_usec": 85815693124
    },
    {
      "frame_id": 298,
      "sensor_timestamp": 85815726371072,
      "time_usec": 85815726371
    },
    {
      "frame_id": 299,
      "sensor_timestamp": 85815759617410,
      "time_usec": 85815759617
    },
    {
      "frame_id": 300,
      "sensor_timestamp": 85815792863748,
      "time_usec": 85815792863
    },
    {
      "frame_id": 301,
      "sensor_timestamp": 85815826110086,
      "time_usec": 85815826110
    },
    {
      "frame_id": 302,
      "sensor_timestamp": 85815859356668,
      "time_usec": 85815859356
    },
    {
      "frame_id": 303,
      "sensor_timestamp": 85815892603006,
      "time_usec": 85815892603
    },
    {
      "frame_id": 304,
      "sensor_timestamp": 85815925849344,
      "time_usec": 85815925849
    },
    {
      "frame_id": 305,
      "sensor_timestamp": 85815959095682,
      "time_usec": 85815959095
    },
    {
      "frame_id": 306,
      "sensor_timestamp": 85815992342264,
      "time_usec": 85815992342
    },
    {
      "frame_id": 307,
      "sensor_timestamp": 85816025588602,
      "time_usec": 85816025588
    },
    {
      "frame_id": 308,
      "sensor_timestamp": 85816058834940,
      "time_usec": 85816058834
    },
    {
      "frame_id": 309,
      "sensor_timestamp": 85816092081278,
      "time_usec": 85816092081
    },
    {
      "frame_id": 310,
      "sensor_timestamp": 85816125327860,
      "time_usec": 85816125327
    },
    {
      "frame_id": 311,
      "sensor_timestamp": 85816158574197,
      "time_usec": 85816158574
    },
    {
      "frame_id": 312,
      "sensor_timestamp": 85816191820535,
      "time_usec": 85816191820
    },
    {
      "frame_id": 313,
      "sensor_timestamp": 85816225066873,
      "time_usec": 85816225066
    },
    {
      "frame_id": 314,
      "sensor_timestamp": 85816258313455,
      "time_usec": 85816258313
    },
    {
      "frame_id": 315,
      "sensor_timestamp": 85816291559793,
      "time_usec": 85816291559
    },
    {
      "frame_id": 316,
      "sensor_timestamp": 85816324806131,
      "time_usec": 85816324806
    },
    {
      "frame_id": 317,
      "sensor_timestamp": 85816358052469,
      "time_usec": 85816358052
    },
    {
      "frame_id": 318,
      "sensor_timestamp": 85816391299051,
      "time_usec": 85816391299
    },
    {
      "frame_id": 319,
      "sensor_timestamp": 85816424545389,
      "time_usec": 85816424545
    },
    {
      "frame_id": 320,
      "sensor_timestamp": 85816457755515,
      "time_usec": 85816457755
    },
    {
      "frame_id": 321,
      "sensor_timestamp": 85816491038065,
      "time_usec": 85816491038
    },
    {
      "frame_id": 322,
      "sensor_timestamp": 85816524284647,
      "time_usec": 85816524284
    },
    {
      "frame_id": 323,
      "sensor_timestamp": 85816557530985,
      "time_usec": 85816557530
    },
    {
      "frame_id": 324,
      "sensor_timestamp": 85816590777322,
      "time_usec": 85816590777
    },
    {
      "frame_id": 325,
      "sensor_timestamp": 85816624023660,
      "time_usec": 85816624023
    },
    {
      "frame_id": 326,
      "sensor_timestamp": 85816657270242,
      "time_usec": 85816657270
    },
    {
      "frame_id": 327,
      "sensor_timestamp": 85816690516580,
      "time_usec": 85816690516
    },
    {
      "frame_id": 328,
      "sensor_timestamp": 85816723762918,
      "time_usec": 85816723762
    },
    {
      "frame_id": 329,
      "sensor_timestamp": 85816757009256,
      "time_usec": 85816757009
    },
    {
      "frame_id": 330,
      "sensor_timestamp": 85816790255838,
      "time_usec": 85816790255
    },
    {
      "frame_id": 331,
      "sensor_timestamp": 85816823502176,
      "time_usec": 85816823502
    },
    {
      "frame_id": 332,
      "sensor_timestamp": 85816856708803,
      "time_usec": 85816856708
    },
    {
      "frame_id": 333,
      "sensor_timestamp": 85816889994852,
      "time_usec": 85816889994
    },
    {
      "frame_id": 334,
      "sensor_timestamp": 85816923241190,
      "time_usec": 85816923241
    },
    {
      "frame_id": 335,
      "sensor_timestamp": 85816956487772,
      "time_usec": 85816956487
    },
    {
      "frame_id": 336,
      "sensor_timestamp": 85816989734110,
      "time_usec": 85816989734
    },
    {
      "frame_id": 337,
      "sensor_timestamp": 85817022980447,
      "time_usec": 85817022980
    },
    {
      "frame_id": 338,
      "sensor_timestamp": 85817056226785,
      "time_usec": 85817056226
    },
    {
      "frame_id": 339,
      "sensor_timestamp": 85817089473367,
      "time_usec": 85817089473
    },
    {
      "frame_id": 340,
      "sensor_timestamp": 85817122719705,
      "time_usec": 85817122719
    },
    {
      "frame_id": 341,
      "sensor_timestamp": 85817155966043,
      "time_usec": 85817155966
    },
    {
      "frame_id": 342,
      "sensor_timestamp": 85817189212381,
      "time_usec": 85817189212
    },
    {
      "frame_id": 343,
      "sensor_timestamp": 85817222458963,
      "time_usec": 85817222458
    },
    {
      "frame_id": 344,
      "sensor_timestamp": 85817255705301,
      "time_usec": 85817255705
    },
    {
      "frame_id": 345,
      "sensor_timestamp": 85817288951639,
      "time_usec": 85817288951
    },
    {
      "frame_id": 346,
      "sensor_timestamp": 85817322197977,
      "time_usec": 85817322197
    },
    {
      "frame_id": 347,
      "sensor_timestamp": 85817355444559,
      "time_usec": 85817355444
    },
    {
      "frame_id": 348,
      "sensor_timestamp": 85817388690897,
      "time_usec": 85817388690
    },
    {
      "frame_id": 349,
      "sensor_timestamp": 85817421937235,
      "time_usec": 85817421937
    },
    {
      "frame_id": 350,
      "sensor_timestamp": 85817455183572,
      "time_usec": 85817455183
    },
    {
      "frame_id": 351,
      "sensor_timestamp": 85817488430154,
      "time_usec": 85817488430
    },
    {
      "frame_id": 352,
      "sensor_timestamp": 85817521676492,
      "time_usec": 85817521676
    },
    {
      "frame_id": 353,
      "sensor_timestamp": 85817554922830,
      "time_usec": 85817554922
    },
    {
      "frame_id": 354,
      "sensor_timestamp": 85817588169168,
      "time_usec": 85817588169
    },
    {
      "frame_id": 355,
      "sensor_timestamp": 85817621415750,
      "time_usec": 85817621415
    },
    {
      "frame_id": 356,
      "sensor_timestamp": 85817654662088,
      "time_usec": 85817654662
    },
    {
      "frame_id": 357,
      "sensor_timestamp": 85817687908426,
      "time_usec": 85817687908
    },
    {
      "frame_id": 358,
      "sensor_timestamp": 85817721154764,
      "time_usec": 85817721154
    },
    {
      "frame_id": 359,
      "sensor_timestamp": 85817754401346,
      "time_usec": 85817754401
    },
    {
      "frame_id": 360,
      "sensor_timestamp": 85817787647684,
      "time_usec": 85817787647
    },
    {
      "frame_id": 361,
      "sensor_timestamp": 85817820894022,
      "time_usec": 85817820894
    },
    {
      "frame_id": 362,
      "sensor_timestamp": 85817854140360,
      "time_usec": 85817854140
    },
    {
      "frame_id": 363,
      "sensor_timestamp": 85817887386942,
      "time_usec": 85817887386
    },
    {
      "frame_id": 364,
      "sensor_timestamp": 85817920633279,
      "time_usec": 85817920633
    },
    {
      "frame_id": 365,
      "sensor_timestamp": 85817953879617,
      "time_usec": 85817953879
    },
    {
      "frame_id": 366,
      "sensor_timestamp": 85817987125955,
      "time_usec": 85817987125
    },
    {
      "frame_id": 367,
      "sensor_timestamp": 85818020372537,
      "time_usec": 85818020372
    },
    {
      "frame_id": 368,
      "sensor_timestamp": 85818053618875,
      "time_usec": 85818053618
    },
    {
      "frame_id": 369,
      "sensor_timestamp": 85818086865213,
      "time_usec": 85818086865
    },
    {
      "frame_id": 370,
      "sensor_timestamp": 85818120111551,
      "time_usec": 85818120111
    },
    {
      "frame_id": 371,
      "sensor_timestamp": 85818153357889,
      "time_usec": 85818153357
    },
    {
      "frame_id": 372,
      "sensor_timestamp": 85818186604471,
      "time_usec": 85818186604
    },
    {
      "frame_id": 373,
      "sensor_timestamp": 85818219850809,
      "time_usec": 85818219850
    },
    {
      "frame_id": 374,
      "sensor_timestamp": 85818253097147,
      "time_usec": 85818253097
    },
    {
      "frame_id": 375,
      "sensor_timestamp": 85818286343485,
      "time_usec": 85818286343
    },
    {
      "frame_id": 376,
      "sensor_timestamp": 85818319590067,
      "time_usec": 85818319590
    },
    {
      "frame_id": 377,
      "sensor_timestamp": 85818352836404,
      "time_usec": 85818352836
    },
    {
      "frame_id": 378,
      "sensor_timestamp": 85818386082742,
      "time_usec": 85818386082
    },
    {
      "frame_id": 379,
      "sensor_timestamp": 85818419329080,
      "time_usec": 85818419329
    },
    {
      "frame_id": 380,
      "sensor_timestamp": 85818452575662,
      "time_usec": 85818452575
    },
    {
      "frame_id": 381,
      "sensor_timestamp": 85818485822000,
      "time_usec": 85818485822
    },
    {
      "frame_id": 382,
      "sensor_timestamp": 85818519068338,
      "time_usec": 85818519068
    },
    {
      "frame_id": 383,
      "sensor_timestamp": 85818552314676,
      "time_usec": 85818552314
    },
    {
      "frame_id": 384,
      "sensor_timestamp": 85818585561258,
      "time_usec": 85818585561
    },
    {
      "frame_id": 385,
      "sensor_timestamp": 85818618807596,
      "time_usec": 85818618807
    },
    {
      "frame_id": 386,
      "sensor_timestamp": 85818652053934,
      "time_usec": 85818652053
    },
    {
      "frame_id": 387,
      "sensor_timestamp": 85818685300272,
      "time_usec": 85818685300
    },
    {
      "frame_id": 388,
      "sensor_timestamp": 85818718546854,
      "time_usec": 85818718546
    },
    {
      "frame_id": 389,
      "sensor_timestamp": 85818751793192,
      "time_usec": 85818751793
    },
    {
      "frame_id": 390,
      "sensor_timestamp": 85818785039529,
      "time_usec": 85818785039
    },
    {
      "frame_id": 391,
      "sensor_timestamp": 85818818285867,
      "time_usec": 85818818285
    },
    {
      "frame_id": 392,
      "sensor_timestamp": 85818851532449,
      "time_usec": 85818851532
    },
    {
      "frame_id": 393,
      "sensor_timestamp": 85818884778787,
      "time_usec": 85818884778
    },
    {
      "frame_id": 394,
      "sensor_timestamp": 85818918025125,
      "time_usec": 85818918025
    },
    {
      "frame_id": 395,
      "sensor_timestamp": 85818951271463,
      "time_usec": 85818951271
    },
    {
      "frame_id": 396,
      "sensor_timestamp": 85818984518045,
      "time_usec": 85818984518
    },
    {
      "frame_id": 397,
      "sensor_timestamp": 85819017764383,
      "time_usec": 85819017764
    },
    {
      "frame_id": 398,
      "sensor_timestamp": 85819051010721,
      "time_usec": 85819051010
    },
    {
      "frame_id": 399,
      "sensor_timestamp": 85819084257059,
      "time_usec": 85819084257
    },
    {
      "frame_id": 400,
      "sensor_timestamp": 85819117503641,
      "time_usec": 85819117503
    },
    {
      "frame_id": 401,
      "sensor_timestamp": 85819150749979,
      "time_usec": 85819150749
    },
    {
      "frame_id": 402,
      "sensor_timestamp": 85819183996317,
      "time_usec": 85819183996
    },
    {
      "frame_id": 403,
      "sensor_timestamp": 85819217242654,
      "time_usec": 85819217242
    },
    {
      "frame_id": 404,
      "sensor_timestamp": 85819250489237,
      "time_usec": 85819250489
    },
    {
      "frame_id": 405,
      "sensor_timestamp": 85819283735574,
      "time_usec": 85819283735
    },
    {
      "frame_id": 406,
      "sensor_timestamp": 85819316981912,
      "time_usec": 85819316981
    },
    {
      "frame_id": 407,
      "sensor_timestamp": 85819350228250,
      "time_usec": 85819350228
    },
    {
      "frame_id": 408,
      "sensor_timestamp": 85819383474588,
      "time_usec": 85819383474
    },
    {
      "frame_id": 409,
      "sensor_timestamp": 85819416721170,
      "time_usec": 85819416721
    },
    {
      "frame_id": 410,
      "sensor_timestamp": 85819449967508,
      "time_usec": 85819449967
    },
    {
      "frame_id": 411,
      "sensor_timestamp": 85819483213846,
      "time_usec": 85819483213
    },
    {
      "frame_id": 412,
      "sensor_timestamp": 85819516460184,
      "time_usec": 85819516460
    },
    {
      "frame_id": 413,
      "sensor_timestamp": 85819549706766,
      "time_usec": 85819549706
    },
    {
      "frame_id": 414,
      "sensor_timestamp": 85819582953104,
      "time_usec": 85819582953
    },
    {
      "frame_id": 415,
      "sensor_timestamp": 85819616199442,
      "time_usec": 85819616199
    },
    {
      "frame_id": 416,
      "sensor_timestamp": 85819649445779,
      "time_usec": 85819649445
    },
    {
      "frame_id": 417,
      "sensor_timestamp": 85819682692362,
      "time_usec": 85819682692
    },
    {
      "frame_id": 418,
      "sensor_timestamp": 85819715938699,
      "time_usec": 85819715938
    },
    {
      "frame_id": 419,
      "sensor_timestamp": 85819749185037,
      "time_usec": 85819749185
    },
    {
      "frame_id": 420,
      "sensor_timestamp": 85819782431375,
      "time_usec": 85819782431
    },
    {
      "frame_id": 421,
      "sensor_timestamp": 85819815677957,
      "time_usec": 85819815677
    },
    {
      "frame_id": 422,
      "sensor_timestamp": 85819846143664,
      "time_usec": 85819846143
    },
    {
      "frame_id": 423,
      "sensor_timestamp": 85819879390002,
      "time_usec": 85819879390
    },
    {
      "frame_id": 424,
      "sensor_timestamp": 85819912636340,
      "time_usec": 85819912636
    },
    {
      "frame_id": 425,
      "sensor_timestamp": 85819945882922,
      "time_usec": 85819945882
    },
    {
      "frame_id": 426,
      "sensor_timestamp": 85819979129260,
      "time_usec": 85819979129
    },
    {
      "frame_id": 427,
      "sensor_timestamp": 85820012375598,
      "time_usec": 85820012375
    },
    {
      "frame_id": 428,
      "sensor_timestamp": 85820045621936,
      "time_usec": 85820045621
    },
    {
      "frame_id": 429,
      "sensor_timestamp": 85820078868518,
      "time_usec": 85820078868
    },
    {
      "frame_id": 430,
      "sensor_timestamp": 85820112114856,
      "time_usec": 85820112114
    },
    {
      "frame_id": 431,
      "sensor_timestamp": 85820145324902,
      "time_usec": 85820145324
    },
    {
      "frame_id": 432,
      "sensor_timestamp": 85820178607531,
      "time_usec": 85820178607
    },
    {
      "frame_id": 433,
      "sensor_timestamp": 85820211854113,
      "time_usec": 85820211854
    },
    {
      "frame_id": 434,
      "sensor_timestamp": 85820245100451,
      "time_usec": 85820245100
    },
    {
      "frame_id": 435,
      "sensor_timestamp": 85820278346789,
      "time_usec": 85820278346
    },
    {
      "frame_id": 436,
      "sensor_timestamp": 85820311593127,
      "time_usec": 85820311593
    },
    {
      "frame_id": 437,
      "sensor_timestamp": 85820344839709,
      "time_usec": 85820344839
    },
    {
      "frame_id": 438,
      "sensor_timestamp": 85820378086047,
      "time_usec": 85820378086
    },
    {
      "frame_id": 439,
      "sensor_timestamp": 85820411332385,
      "time_usec": 85820411332
    },
    {
      "frame_id": 440,
      "sensor_timestamp": 85820444578723,
      "time_usec": 85820444578
    },
    {
      "frame_id": 441,
      "sensor_timestamp": 85820477825305,
      "time_usec": 85820477825
    },
    {
      "frame_id": 442,
      "sensor_timestamp": 85820511071643,
      "time_usec": 85820511071
    },
    {
      "frame_id": 443,
      "sensor_timestamp": 85820544317981,
      "time_usec": 85820544317
    },
    {
      "frame_id": 444,
      "sensor_timestamp": 85820577564318,
      "time_usec": 85820577564
    },
    {
      "frame_id": 445,
      "sensor_timestamp": 85820610810656,
      "time_usec": 85820610810
    },
    {
      "frame_id": 446,
      "sensor_timestamp": 85820644057238,
      "time_usec": 85820644057
    },
    {
      "frame_id": 447,
      "sensor_timestamp": 85820677303576,
      "time_usec": 85820677303
    },
    {
      "frame_id": 448,
      "sensor_timestamp": 85820710549914,
      "time_usec": 85820710549
    },
    {
      "frame_id": 449,
      "sensor_timestamp": 85820743796252,
      "time_usec": 85820743796
    },
    {
      "frame_id": 450,
      "sensor_timestamp": 85820777042834,
      "time_usec": 85820777042
    },
    {
      "frame_id": 451,
      "sensor_timestamp": 85820810289172,
      "time_usec": 85820810289
    },
    {
      "frame_id": 452,
      "sensor_timestamp": 85820843535510,
      "time_usec": 85820843535
    },
    {
      "frame_id": 453,
      "sensor_timestamp": 85820876781848,
      "time_usec": 85820876781
    },
    {
      "frame_id": 454,
      "sensor_timestamp": 85820912809061,
      "time_usec": 85820912809
    },
    {
      "frame_id": 455,
      "sensor_timestamp": 85820946055399,
      "time_usec": 85820946055
    },
    {
      "frame_id": 456,
      "sensor_timestamp": 85820979301737,
      "time_usec": 85820979301
    },
    {
      "frame_id": 457,
      "sensor_timestamp": 85821012548074,
      "time_usec": 85821012548
    },
    {
      "frame_id": 458,
      "sensor_timestamp": 85821045794656,
      "time_usec": 85821045794
    },
    {
      "frame_id": 459,
      "sensor_timestamp": 85821079040994,
      "time_usec": 85821079040
    },
    {
      "frame_id": 460,
      "sensor_timestamp": 85821112287332,
      "time_usec": 85821112287
    },
    {
      "frame_id": 461,
      "sensor_timestamp": 85821145533670,
      "time_usec": 85821145533
    },
    {
      "frame_id": 462,
      "sensor_timestamp": 85821178780252,
      "time_usec": 85821178780
    },
    {
      "frame_id": 463,
      "sensor_timestamp": 85821212026590,
      "time_usec": 85821212026
    },
    {
      "frame_id": 464,
      "sensor_timestamp": 85821245272928,
      "time_usec": 85821245272
    },
    {
      "frame_id": 465,
      "sensor_timestamp": 85821278519266,
      "time_usec": 85821278519
    },
    {
      "frame_id": 466,
      "sensor_timestamp": 85821311765848,
      "time_usec": 85821311765
    },
    {
      "frame_id": 467,
      "sensor_timestamp": 85821345012186,
      "time_usec": 85821345012
    },
    {
      "frame_id": 468,
      "sensor_timestamp": 85821378258524,
      "time_usec": 85821378258
    },
    {
      "frame_id": 469,
      "sensor_timestamp": 85821411504862,
      "time_usec": 85821411504
    },
    {
      "frame_id": 470,
      "sensor_timestamp": 85821444751444,
      "time_usec": 85821444751
    },
    {
      "frame_id": 471,
      "sensor_timestamp": 85821477997781,
      "time_usec": 85821477997
    },
    {
      "frame_id": 472,
      "sensor_timestamp": 85821511244119,
      "time_usec": 85821511244
    },
    {
      "frame_id": 473,
      "sensor_timestamp": 85821544490457,
      "time_usec": 85821544490
    },
    {
      "frame_id": 474,
      "sensor_timestamp": 85821577737039,
      "time_usec": 85821577737
    },
    {
      "frame_id": 475,
      "sensor_timestamp": 85821610983377,
      "time_usec": 85821610983
    },
    {
      "frame_id": 476,
      "sensor_timestamp": 85821644229715,
      "time_usec": 85821644229
    },
    {
      "frame_id": 477,
      "sensor_timestamp": 85821677476053,
      "time_usec": 85821677476
    },
    {
      "frame_id": 478,
      "sensor_timestamp": 85821710722635,
      "time_usec": 85821710722
    },
    {
      "frame_id": 479,
      "sensor_timestamp": 85821743968973,
      "time_usec": 85821743968
    },
    {
      "frame_id": 480,
      "sensor_timestamp": 85821777215311,
      "time_usec": 85821777215
    },
    {
      "frame_id": 481,
      "sensor_timestamp": 85821810461649,
      "time_usec": 85821810461
    },
    {
      "frame_id": 482,
      "sensor_timestamp": 85821843707987,
      "time_usec": 85821843707
    },
    {
      "frame_id": 483,
      "sensor_timestamp": 85821876954569,
      "time_usec": 85821876954
    },
    {
      "frame_id": 484,
      "sensor_timestamp": 85821910200906,
      "time_usec": 85821910200
    },
    {
      "frame_id": 485,
      "sensor_timestamp": 85821943447244,
      "time_usec": 85821943447
    },
    {
      "frame_id": 486,
      "sensor_timestamp": 85821976693582,
      "time_usec": 85821976693
    },
    {
      "frame_id": 487,
      "sensor_timestamp": 85822009940164,
      "time_usec": 85822009940
    },
    {
      "frame_id": 488,
      "sensor_timestamp": 85822043186502,
      "time_usec": 85822043186
    },
    {
      "frame_id": 489,
      "sensor_timestamp": 85822076432840,
      "time_usec": 85822076432
    },
    {
      "frame_id": 490,
      "sensor_timestamp": 85822109679178,
      "time_usec": 85822109679
    },
    {
      "frame_id": 491,
      "sensor_timestamp": 85822142925760,
      "time_usec": 85822142925
    },
    {
      "frame_id": 492,
      "sensor_timestamp": 85822176172098,
      "time_usec": 85822176172
    },
    {
      "frame_id": 493,
      "sensor_timestamp": 85822209418436,
      "time_usec": 85822209418
    },
    {
      "frame_id": 494,
      "sensor_timestamp": 85822242664774,
      "time_usec": 85822242664
    },
    {
      "frame_id": 495,
      "sensor_timestamp": 85822275911356,
      "time_usec": 85822275911
    },
    {
      "frame_id": 496,
      "sensor_timestamp": 85822309157694,
      "time_usec": 85822309157
    },
    {
      "frame_id": 497,
      "sensor_timestamp": 85822342404031,
      "time_usec": 85822342404
    },
    {
      "frame_id": 498,
      "sensor_timestamp": 85822375650369,
      "time_usec": 85822375650
    },
    {
      "frame_id": 499,
      "sensor_timestamp": 85822408896951,
      "time_usec": 85822408896
    },
    {
      "frame_id": 500,
      "sensor_timestamp": 85822442143289,
      "time_usec": 85822442143
    },
    {
      "frame_id": 501,
      "sensor_timestamp": 85822475389627,
      "time_usec": 85822475389
    },
    {
      "frame_id": 502,
      "sensor_timestamp": 85822508635965,
      "time_usec": 85822508635
    },
    {
      "frame_id": 503,
      "sensor_timestamp": 85822541882547,
      "time_usec": 85822541882
    },
    {
      "frame_id": 504,
      "sensor_timestamp": 85822575128885,
      "time_usec": 85822575128
    },
    {
      "frame_id": 505,
      "sensor_timestamp": 85822608375223,
      "time_usec": 85822608375
    },
    {
      "frame_id": 506,
      "sensor_timestamp": 85822641621561,
      "time_usec": 85822641621
    },
    {
      "frame_id": 507,
      "sensor_timestamp": 85822674868143,
      "time_usec": 85822674868
    },
    {
      "frame_id": 508,
      "sensor_timestamp": 85822708114481,
      "time_usec": 85822708114
    },
    {
      "frame_id": 509,
      "sensor_timestamp": 85822741360819,
      "time_usec": 85822741360
    },
    {
      "frame_id": 510,
      "sensor_timestamp": 85822774607156,
      "time_usec": 85822774607
    },
    {
      "frame_id": 511,
      "sensor_timestamp": 85822807853738,
      "time_usec": 85822807853
    },
    {
      "frame_id": 512,
      "sensor_timestamp": 85822841100076,
      "time_usec": 85822841100
    },
    {
      "frame_id": 513,
      "sensor_timestamp": 85822874346414,
      "time_usec": 85822874346
    },
    {
      "frame_id": 514,
      "sensor_timestamp": 85822907592752,
      "time_usec": 85822907592
    },
    {
      "frame_id": 515,
      "sensor_timestamp": 85822940839334,
      "time_usec": 85822940839
    },
    {
      "frame_id": 516,
      "sensor_timestamp": 85822974085672,
      "time_usec": 85822974085
    },
    {
      "frame_id": 517,
      "sensor_timestamp": 85823007332010,
      "time_usec": 85823007332
    },
    {
      "frame_id": 518,
      "sensor_timestamp": 85823040578348,
      "time_usec": 85823040578
    },
    {
      "frame_id": 519,
      "sensor_timestamp": 85823073824686,
      "time_usec": 85823073824
    },
    {
      "frame_id": 520,
      "sensor_timestamp": 85823107071268,
      "time_usec": 85823107071
    },
    {
      "frame_id": 521,
      "sensor_timestamp": 85823140317606,
      "time_usec": 85823140317
    },
    {
      "frame_id": 522,
      "sensor_timestamp": 85823173563944,
      "time_usec": 85823173563
    },
    {
      "frame_id": 523,
      "sensor_timestamp": 85823206810281,
      "time_usec": 85823206810
    },
    {
      "frame_id": 524,
      "sensor_timestamp": 85823240056863,
      "time_usec": 85823240056
    },
    {
      "frame_id": 525,
      "sensor_timestamp": 85823273303201,
      "time_usec": 85823273303
    },
    {
      "frame_id": 526,
      "sensor_timestamp": 85823306549539,
      "time_usec": 85823306549
    },
    {
      "frame_id": 527,
      "sensor_timestamp": 85823339795877,
      "time_usec": 85823339795
    },
    {
      "frame_id": 528,
      "sensor_timestamp": 85823373042459,
      "time_usec": 85823373042
    },
    {
      "frame_id": 529,
      "sensor_timestamp": 85823406288797,
      "time_usec": 85823406288
    },
    {
      "frame_id": 530,
      "sensor_timestamp": 85823439535135,
      "time_usec": 85823439535
    },
    {
      "frame_id": 531,
      "sensor_timestamp": 85823472781473,
      "time_usec": 85823472781
    },
    {
      "frame_id": 532,
      "sensor_timestamp": 85823506028055,
      "time_usec": 85823506028
    },
    {
      "frame_id": 533,
      "sensor_timestamp": 85823539274393,
      "time_usec": 85823539274
    },
    {
      "frame_id": 534,
      "sensor_timestamp": 85823572520731,
      "time_usec": 85823572520
    },
    {
      "frame_id": 535,
      "sensor_timestamp": 85823605767069,
      "time_usec": 85823605767
    },
    {
      "frame_id": 536,
      "sensor_timestamp": 85823639013651,
      "time_usec": 85823639013
    },
    {
      "frame_id": 537,
      "sensor_timestamp": 85823672259988,
      "time_usec": 85823672259
    },
    {
      "frame_id": 538,
      "sensor_timestamp": 85823705506326,
      "time_usec": 85823705506
    },
    {
      "frame_id": 539,
      "sensor_timestamp": 85823738752664,
      "time_usec": 85823738752
    },
    {
      "frame_id": 540,
      "sensor_timestamp": 85823771999246,
      "time_usec": 85823771999
    },
    {
      "frame_id": 541,
      "sensor_timestamp": 85823805245584,
      "time_usec": 85823805245
    },
    {
      "frame_id": 542,
      "sensor_timestamp": 85823838491922,
      "time_usec": 85823838491
    },
    {
      "frame_id": 543,
      "sensor_timestamp": 85823871738260,
      "time_usec": 85823871738
    },
    {
      "frame_id": 544,
      "sensor_timestamp": 85823904984842,
      "time_usec": 85823904984
    },
    {
      "frame_id": 545,
      "sensor_timestamp": 85823938231180,
      "time_usec": 85823938231
    },
    {
      "frame_id": 546,
      "sensor_timestamp": 85823971477518,
      "time_usec": 85823971477
    },
    {
      "frame_id": 547,
      "sensor_timestamp": 85824004723856,
      "time_usec": 85824004723
    },
    {
      "frame_id": 548,
      "sensor_timestamp": 85824037970438,
      "time_usec": 85824037970
    },
    {
      "frame_id": 549,
      "sensor_timestamp": 85824071216776,
      "time_usec": 85824071216
    },
    {
      "frame_id": 550,
      "sensor_timestamp": 85824104463113,
      "time_usec": 85824104463
    },
    {
      "frame_id": 551,
