{
  "frames": [
    {
      "frame_id": 0,
      "sensor_timestamp": 151612963926951,
      "time_usec": 151612963926
    },
    {
      "frame_id": 1,
      "sensor_timestamp": 151613030419627,
      "time_usec": 151613030419
    },
    {
      "frame_id": 2,
      "sensor_timestamp": 151613063666209,
      "time_usec": 151613063666
    },
    {
      "frame_id": 3,
      "sensor_timestamp": 151613096912547,
      "time_usec": 151613096912
    },
    {
      "frame_id": 4,
      "sensor_timestamp": 151613130158885,
      "time_usec": 151613130158
    },
    {
      "frame_id": 5,
      "sensor_timestamp": 151613163405223,
      "time_usec": 151613163405
    },
    {
      "frame_id": 6,
      "sensor_timestamp": 151613196651805,
      "time_usec": 151613196651
    },
    {
      "frame_id": 7,
      "sensor_timestamp": 151613229898143,
      "time_usec": 151613229898
    },
    {
      "frame_id": 8,
      "sensor_timestamp": 151613263144481,
      "time_usec": 151613263144
    },
    {
      "frame_id": 9,
      "sensor_timestamp": 151613296390819,
      "time_usec": 151613296390
    },
    {
      "frame_id": 10,
      "sensor_timestamp": 151613329637401,
      "time_usec": 151613329637
    },
    {
      "frame_id": 11,
      "sensor_timestamp": 151613362883738,
      "time_usec": 151613362883
    },
    {
      "frame_id": 12,
      "sensor_timestamp": 151613396130076,
      "time_usec": 151613396130
    },
    {
      "frame_id": 13,
      "sensor_timestamp": 151613429376414,
      "time_usec": 151613429376
    },
    {
      "frame_id": 14,
      "sensor_timestamp": 151613462622996,
      "time_usec": 151613462622
    },
    {
      "frame_id": 15,
      "sensor_timestamp": 151613495869334,
      "time_usec": 151613495869
    },
    {
      "frame_id": 16,
      "sensor_timestamp": 151613529115672,
      "time_usec": 151613529115
    },
    {
      "frame_id": 17,
      "sensor_timestamp": 151613562362010,
      "time_usec": 151613562362
    },
    {
      "frame_id": 18,
      "sensor_timestamp": 151613595608348,
      "time_usec": 151613595608
    },
    {
      "frame_id": 19,
      "sensor_timestamp": 151613628854930,
      "time_usec": 151613628854
    },
    {
      "frame_id": 20,
      "sensor_timestamp": 151613662101268,
      "time_usec": 151613662101
    },
    {
      "frame_id": 21,
      "sensor_timestamp": 151613695347606,
      "time_usec": 151613695347
    },
    {
      "frame_id": 22,
      "sensor_timestamp": 151613728593944,
      "time_usec": 151613728593
    },
    {
      "frame_id": 23,
      "sensor_timestamp": 151613761840526,
      "time_usec": 151613761840
    },
    {
      "frame_id": 24,
      "sensor_timestamp": 151613795086863,
      "time_usec": 151613795086
    },
    {
      "frame_id": 25,
      "sensor_timestamp": 151613828333201,
      "time_usec": 151613828333
    },
    {
      "frame_id": 26,
      "sensor_timestamp": 151613861579539,
      "time_usec": 151613861579
    },
    {
      "frame_id": 27,
      "sensor_timestamp": 151613894826121,
      "time_usec": 151613894826
    },
    {
      "frame_id": 28,
      "sensor_timestamp": 151613928072459,
      "time_usec": 151613928072
    },
    {
      "frame_id": 29,
      "sensor_timestamp": 151613961318797,
      "time_usec": 151613961318
    },
    {
      "frame_id": 30,
      "sensor_timestamp": 151613994565135,
      "time_usec": 151613994565
    },
    {
      "frame_id": 31,
      "sensor_timestamp": 151614027811717,
      "time_usec": 151614027811
    },
    {
      "frame_id": 32,
      "sensor_timestamp": 151614061058055,
      "time_usec": 151614061058
    },
    {
      "frame_id": 33,
      "sensor_timestamp": 151614094304393,
      "time_usec": 151614094304
    },
    {
      "frame_id": 34,
      "sensor_timestamp": 151614127550731,
      "time_usec": 151614127550
    },
    {
      "frame_id": 35,
      "sensor_timestamp": 151614160797313,
      "time_usec": 151614160797
    },
    {
      "frame_id": 36,
      "sensor_timestamp": 151614194043651,
      "time_usec": 151614194043
    },
    {
      "frame_id": 37,
      "sensor_timestamp": 151614227289988,
      "time_usec": 151614227289
    },
    {
      "frame_id": 38,
      "sensor_timestamp": 151614260536326,
      "time_usec": 151614260536
    },
    {
      "frame_id": 39,
      "sensor_timestamp": 151614293782908,
      "time_usec": 151614293782
    },
    {
      "frame_id": 40,
      "sensor_timestamp": 151614327029246,
      "time_usec": 151614327029
    },
    {
      "frame_id": 41,
      "sensor_timestamp": 151614360221000,
      "time_usec": 151614360221
    },
    {
      "frame_id": 42,
      "sensor_timestamp": 151614393521922,
      "time_usec": 151614393521
    },
    {
      "frame_id": 43,
      "sensor_timestamp": 151614426768504,
      "time_usec": 151614426768
    },
    {
      "frame_id": 44,
      "sensor_timestamp": 151614460014842,
      "time_usec": 151614460014
    },
    {
      "frame_id": 45,
      "sensor_timestamp": 151614493261180,
      "time_usec": 151614493261
    },
    {
      "frame_id": 46,
      "sensor_timestamp": 151614526507518,
      "time_usec": 151614526507
    },
    {
      "frame_id": 47,
      "sensor_timestamp": 151614559754100,
      "time_usec": 151614559754
    },
    {
      "frame_id": 48,
      "sensor_timestamp": 151614593000438,
      "time_usec": 151614593000
    },
    {
      "frame_id": 49,
      "sensor_timestamp": 151614626246776,
      "time_usec": 151614626246
    },
    {
      "frame_id": 50,
      "sensor_timestamp": 151614659493113,
      "time_usec": 151614659493
    },
    {
      "frame_id": 51,
      "sensor_timestamp": 151614692739695,
      "time_usec": 151614692739
    },
    {
      "frame_id": 52,
      "sensor_timestamp": 151614725986033,
      "time_usec": 151614725986
    },
    {
      "frame_id": 53,
      "sensor_timestamp": 151614759232371,
      "time_usec": 151614759232
    },
    {
      "frame_id": 54,
      "sensor_timestamp": 151614792478709,
      "time_usec": 151614792478
    },
    {
      "frame_id": 55,
      "sensor_timestamp": 151614825725047,
      "time_usec": 151614825725
    },
    {
      "frame_id": 56,
      "sensor_timestamp": 151614858971629,
      "time_usec": 151614858971
    },
    {
      "frame_id": 57,
      "sensor_timestamp": 151614892217967,
      "time_usec": 151614892217
    },
    {
      "frame_id": 58,
      "sensor_timestamp": 151614925464305,
      "time_usec": 151614925464
    },
    {
      "frame_id": 59,
      "sensor_timestamp": 151614958710643,
      "time_usec": 151614958710
    },
    {
      "frame_id": 60,
      "sensor_timestamp": 151614991957225,
      "time_usec": 151614991957
    },
    {
      "frame_id": 61,
      "sensor_timestamp": 151615025203563,
      "time_usec": 151615025203
    },
    {
      "frame_id": 62,
      "sensor_timestamp": 151615058658744,
      "time_usec": 151615058658
    },
    {
      "frame_id": 63,
      "sensor_timestamp": 151615091696238,
      "time_usec": 151615091696
    },
    {
      "frame_id": 64,
      "sensor_timestamp": 151615124942820,
      "time_usec": 151615124942
    },
    {
      "frame_id": 65,
      "sensor_timestamp": 151615158189158,
      "time_usec": 151615158189
    },
    {
      "frame_id": 66,
      "sensor_timestamp": 151615191435496,
      "time_usec": 151615191435
    },
    {
      "frame_id": 67,
      "sensor_timestamp": 151615224681834,
      "time_usec": 151615224681
    },
    {
      "frame_id": 68,
      "sensor_timestamp": 151615257928416,
      "time_usec": 151615257928
    },
    {
      "frame_id": 69,
      "sensor_timestamp": 151615291174754,
      "time_usec": 151615291174
    },
    {
      "frame_id": 70,
      "sensor_timestamp": 151615324421092,
      "time_usec": 151615324421
    },
    {
      "frame_id": 71,
      "sensor_timestamp": 151615357667430,
      "time_usec": 151615357667
    },
    {
      "frame_id": 72,
      "sensor_timestamp": 151615390914012,
      "time_usec": 151615390914
    },
    {
      "frame_id": 73,
      "sensor_timestamp": 151615424160350,
      "time_usec": 151615424160
    },
    {
      "frame_id": 74,
      "sensor_timestamp": 151615457406688,
      "time_usec": 151615457406
    },
    {
      "frame_id": 75,
      "sensor_timestamp": 151615490653026,
      "time_usec": 151615490653
    },
    {
      "frame_id": 76,
      "sensor_timestamp": 151615523899608,
      "time_usec": 151615523899
    },
    {
      "frame_id": 77,
      "sensor_timestamp": 151615557145945,
      "time_usec": 151615557145
    },
    {
      "frame_id": 78,
      "sensor_timestamp": 151615590392283,
      "time_usec": 151615590392
    },
    {
      "frame_id": 79,
      "sensor_timestamp": 151615623638621,
      "time_usec": 151615623638
    },
    {
      "frame_id": 80,
      "sensor_timestamp": 151615656885203,
      "time_usec": 151615656885
    },
    {
      "frame_id": 81,
      "sensor_timestamp": 151615690131541,
      "time_usec": 151615690131
    },
    {
      "frame_id": 82,
      "sensor_timestamp": 151615723377879,
      "time_usec": 151615723377
    },
    {
      "frame_id": 83,
      "sensor_timestamp": 151615756624217,
      "time_usec": 151615756624
    },
    {
      "frame_id": 84,
      "sensor_timestamp": 151615789870799,
      "time_usec": 151615789870
    },
    {
      "frame_id": 85,
      "sensor_timestamp": 151615823117137,
      "time_usec": 151615823117
    },
    {
      "frame_id": 86,
      "sensor_timestamp": 151615856363475,
      "time_usec": 151615856363
    },
    {
      "frame_id": 87,
      "sensor_timestamp": 151615889609813,
      "time_usec": 151615889609
    },
    {
      "frame_id": 88,
      "sensor_timestamp": 151615922856395,
      "time_usec": 151615922856
    },
    {
      "frame_id": 89,
      "sensor_timestamp": 151615956102733,
      "time_usec": 151615956102
    },
    {
      "frame_id": 90,
      "sensor_timestamp": 151615989349070,
      "time_usec": 151615989349
    },
    {
      "frame_id": 91,
      "sensor_timestamp": 151616022595408,
      "time_usec": 151616022595
    },
    {
      "frame_id": 92,
      "sensor_timestamp": 151616055841746,
      "time_usec": 151616055841
    },
    {
      "frame_id": 93,
      "sensor_timestamp": 151616089088328,
      "time_usec": 151616089088
    },
    {
      "frame_id": 94,
      "sensor_timestamp": 151616122334666,
      "time_usec": 151616122334
    },
    {
      "frame_id": 95,
      "sensor_timestamp": 151616155581004,
      "time_usec": 151616155581
    },
    {
      "frame_id": 96,
      "sensor_timestamp": 151616188827342,
      "time_usec": 151616188827
    },
    {
      "frame_id": 97,
      "sensor_timestamp": 151616222073924,
      "time_usec": 151616222073
    },
    {
      "frame_id": 98,
      "sensor_timestamp": 151616255320262,
      "time_usec": 151616255320
    },
    {
      "frame_id": 99,
      "sensor_timestamp": 151616288566600,
      "time_usec": 151616288566
    },
    {
      "frame_id": 100,
      "sensor_timestamp": 151616321812938,
      "time_usec": 151616321812
    },
    {
      "frame_id": 101,
      "sensor_timestamp": 151616355059520,
      "time_usec": 151616355059
    },
    {
      "frame_id": 102,
      "sensor_timestamp": 151616388305858,
      "time_usec": 151616388305
    },
    {
      "frame_id": 103,
      "sensor_timestamp": 151616421552195,
      "time_usec": 151616421552
    },
    {
      "frame_id": 104,
      "sensor_timestamp": 151616454798533,
      "time_usec": 151616454798
    },
    {
      "frame_id": 105,
      "sensor_timestamp": 151616488045115,
      "time_usec": 151616488045
    },
    {
      "frame_id": 106,
      "sensor_timestamp": 151616521291453,
      "time_usec": 151616521291
    },
    {
      "frame_id": 107,
      "sensor_timestamp": 151616554537791,
      "time_usec": 151616554537
    },
    {
      "frame_id": 108,
      "sensor_timestamp": 151616587784129,
      "time_usec": 151616587784
    },
    {
      "frame_id": 109,
      "sensor_timestamp": 151616621030711,
      "time_usec": 151616621030
    },
    {
      "frame_id": 110,
      "sensor_timestamp": 151616654277049,
      "time_usec": 151616654277
    },
    {
      "frame_id": 111,
      "sensor_timestamp": 151616687523387,
      "time_usec": 151616687523
    },
    {
      "frame_id": 112,
      "sensor_timestamp": 151616720769725,
      "time_usec": 151616720769
    },
    {
      "frame_id": 113,
      "sensor_timestamp": 151616754016307,
      "time_usec": 151616754016
    },
    {
      "frame_id": 114,
      "sensor_timestamp": 151616787262645,
      "time_usec": 151616787262
    },
    {
      "frame_id": 115,
      "sensor_timestamp": 151616820508983,
      "time_usec": 151616820508
    },
    {
      "frame_id": 116,
      "sensor_timestamp": 151616853755320,
      "time_usec": 151616853755
    },
    {
      "frame_id": 117,
      "sensor_timestamp": 151616887001903,
      "time_usec": 151616887001
    },
    {
      "frame_id": 118,
      "sensor_timestamp": 151616920248240,
      "time_usec": 151616920248
    },
    {
      "frame_id": 119,
      "sensor_timestamp": 151616953494578,
      "time_usec": 151616953494
    },
    {
      "frame_id": 120,
      "sensor_timestamp": 151616986740916,
      "time_usec": 151616986740
    },
    {
      "frame_id": 121,
      "sensor_timestamp": 151617019987498,
      "time_usec": 151617019987
    },
    {
      "frame_id": 122,
      "sensor_timestamp": 151617053233836,
      "time_usec": 151617053233
    },
    {
      "frame_id": 123,
      "sensor_timestamp": 151617086480174,
      "time_usec": 151617086480
    },
    {
      "frame_id": 124,
      "sensor_timestamp": 151617119726512,
      "time_usec": 151617119726
    },
    {
      "frame_id": 125,
      "sensor_timestamp": 151617152973094,
      "time_usec": 151617152973
    },
    {
      "frame_id": 126,
      "sensor_timestamp": 151617186219432,
      "time_usec": 151617186219
    },
    {
      "frame_id": 127,
      "sensor_timestamp": 151617219465770,
      "time_usec": 151617219465
    },
    {
      "frame_id": 128,
      "sensor_timestamp": 151617252712108,
      "time_usec": 151617252712
    },
    {
      "frame_id": 129,
      "sensor_timestamp": 151617285958445,
      "time_usec": 151617285958
    },
    {
      "frame_id": 130,
      "sensor_timestamp": 151617319205028,
      "time_usec": 151617319205
    },
    {
      "frame_id": 131,
      "sensor_timestamp": 151617352451365,
      "time_usec": 151617352451
    },
    {
      "frame_id": 132,
      "sensor_timestamp": 151617385697703,
      "time_usec": 151617385697
    },
    {
      "frame_id": 133,
      "sensor_timestamp": 151617418944041,
      "time_usec": 151617418944
    },
    {
      "frame_id": 134,
      "sensor_timestamp": 151617452190623,
      "time_usec": 151617452190
    },
    {
      "frame_id": 135,
      "sensor_timestamp": 151617485436961,
      "time_usec": 151617485436
    },
    {
      "frame_id": 136,
      "sensor_timestamp": 151617518683299,
      "time_usec": 151617518683
    },
    {
      "frame_id": 137,
      "sensor_timestamp": 151617551929637,
      "time_usec": 151617551929
    },
    {
      "frame_id": 138,
      "sensor_timestamp": 151617585176219,
      "time_usec": 151617585176
    },
    {
      "frame_id": 139,
      "sensor_timestamp": 151617618422557,
      "time_usec": 151617618422
    },
    {
      "frame_id": 140,
      "sensor_timestamp": 151617651668895,
      "time_usec": 151617651668
    },
    {
      "frame_id": 141,
      "sensor_timestamp": 151617684915233,
      "time_usec": 151617684915
    },
    {
      "frame_id": 142,
      "sensor_timestamp": 151617718161815,
      "time_usec": 151617718161
    },
    {
      "frame_id": 143,
      "sensor_timestamp": 151617751408153,
      "time_usec": 151617751408
    },
    {
      "frame_id": 144,
      "sensor_timestamp": 151617784654490,
      "time_usec": 151617784654
    },
    {
      "frame_id": 145,
      "sensor_timestamp": 151617817900828,
      "time_usec": 151617817900
    },
    {
      "frame_id": 146,
      "sensor_timestamp": 151617851147410,
      "time_usec": 151617851147
    },
    {
      "frame_id": 147,
      "sensor_timestamp": 151617884393748,
      "time_usec": 151617884393
    },
    {
      "frame_id": 148,
      "sensor_timestamp": 151617917640086,
      "time_usec": 151617917640
    },
    {
      "frame_id": 149,
      "sensor_timestamp": 151617950886424,
      "time_usec": 151617950886
    },
    {
      "frame_id": 150,
      "sensor_timestamp": 151617984133006,
      "time_usec": 151617984133
    },
    {
      "frame_id": 151,
      "sensor_timestamp": 151618017379344,
      "time_usec": 151618017379
    },
    {
      "frame_id": 152,
      "sensor_timestamp": 151618050625682,
      "time_usec": 151618050625
    },
    {
      "frame_id": 153,
      "sensor_timestamp": 151618083872020,
      "time_usec": 151618083872
    },
    {
      "frame_id": 154,
      "sensor_timestamp": 151618117118602,
      "time_usec": 151618117118
    },
    {
      "frame_id": 155,
      "sensor_timestamp": 151618150364940,
      "time_usec": 151618150364
    },
    {
      "frame_id": 156,
      "sensor_timestamp": 151618183611278,
      "time_usec": 151618183611
    },
    {
      "frame_id": 157,
      "sensor_timestamp": 151618216857615,
      "time_usec": 151618216857
    },
    {
      "frame_id": 158,
      "sensor_timestamp": 151618250104197,
      "time_usec": 151618250104
    },
    {
      "frame_id": 159,
      "sensor_timestamp": 151618283350535,
      "time_usec": 151618283350
    },
    {
      "frame_id": 160,
      "sensor_timestamp": 151618316596873,
      "time_usec": 151618316596
    },
    {
      "frame_id": 161,
      "sensor_timestamp": 151618349843211,
      "time_usec": 151618349843
    },
    {
      "frame_id": 162,
      "sensor_timestamp": 151618383089793,
      "time_usec": 151618383089
    },
    {
      "frame_id": 163,
      "sensor_timestamp": 151618416336131,
      "time_usec": 151618416336
    },
    {
      "frame_id": 164,
      "sensor_timestamp": 151618449582469,
      "time_usec": 151618449582
    },
    {
      "frame_id": 165,
      "sensor_timestamp": 151618482828807,
      "time_usec": 151618482828
    },
    {
      "frame_id": 166,
      "sensor_timestamp": 151618516075145,
      "time_usec": 151618516075
    },
    {
      "frame_id": 167,
      "sensor_timestamp": 151618549321727,
      "time_usec": 151618549321
    },
    {
      "frame_id": 168,
      "sensor_timestamp": 151618582568065,
      "time_usec": 151618582568
    },
    {
      "frame_id": 169,
      "sensor_timestamp": 151618615814403,
      "time_usec": 151618615814
    },
    {
      "frame_id": 170,
      "sensor_timestamp": 151618649060740,
      "time_usec": 151618649060
    },
    {
      "frame_id": 171,
      "sensor_timestamp": 151618682307322,
      "time_usec": 151618682307
    },
    {
      "frame_id": 172,
      "sensor_timestamp": 151618715553660,
      "time_usec": 151618715553
    },
    {
      "frame_id": 173,
      "sensor_timestamp": 151618748799998,
      "time_usec": 151618748799
    },
    {
      "frame_id": 174,
      "sensor_timestamp": 151618782046336,
      "time_usec": 151618782046
    },
    {
      "frame_id": 175,
      "sensor_timestamp": 151618815292918,
      "time_usec": 151618815292
    },
    {
      "frame_id": 176,
      "sensor_timestamp": 151618848539256,
      "time_usec": 151618848539
    },
    {
      "frame_id": 177,
      "sensor_timestamp": 151618881785594,
      "time_usec": 151618881785
    },
    {
      "frame_id": 178,
      "sensor_timestamp": 151618915031932,
      "time_usec": 151618915031
    },
    {
      "frame_id": 179,
      "sensor_timestamp": 151618948278514,
      "time_usec": 151618948278
    },
    {
      "frame_id": 180,
      "sensor_timestamp": 151618981524852,
      "time_usec": 151618981524
    },
    {
      "frame_id": 181,
      "sensor_timestamp": 151619014771190,
      "time_usec": 151619014771
    },
    {
      "frame_id": 182,
      "sensor_timestamp": 151619048017528,
      "time_usec": 151619048017
    },
    {
      "frame_id": 183,
      "sensor_timestamp": 151619081264110,
      "time_usec": 151619081264
    },
    {
      "frame_id": 184,
      "sensor_timestamp": 151619114510447,
      "time_usec": 151619114510
    },
    {
      "frame_id": 185,
      "sensor_timestamp": 151619147756785,
      "time_usec": 151619147756
    },
    {
      "frame_id": 186,
      "sensor_timestamp": 151619181003123,
      "time_usec": 151619181003
    },
    {
      "frame_id": 187,
      "sensor_timestamp": 151619214249705,
      "time_usec": 151619214249
    },
    {
      "frame_id": 188,
      "sensor_timestamp": 151619247496043,
      "time_usec": 151619247496
    },
    {
      "frame_id": 189,
      "sensor_timestamp": 151619280742381,
      "time_usec": 151619280742
    },
    {
      "frame_id": 190,
      "sensor_timestamp": 151619313988719,
      "time_usec": 151619313988
    },
    {
      "frame_id": 191,
      "sensor_timestamp": 151619347235301,
      "time_usec": 151619347235
    },
    {
      "frame_id": 192,
      "sensor_timestamp": 151619380481639,
      "time_usec": 151619380481
    },
    {
      "frame_id": 193,
      "sensor_timestamp": 151619413727977,
      "time_usec": 151619413727
    },
    {
      "frame_id": 194,
      "sensor_timestamp": 151619446974315,
      "time_usec": 151619446974
    },
    {
      "frame_id": 195,
      "sensor_timestamp": 151619480220897,
      "time_usec": 151619480220
    },
    {
      "frame_id": 196,
      "sensor_timestamp": 151619513467235,
      "time_usec": 151619513467
    },
    {
      "frame_id": 197,
      "sensor_timestamp": 151619546713572,
      "time_usec": 151619546713
    },
    {
      "frame_id": 198,
      "sensor_timestamp": 151619579959910,
      "time_usec": 151619579959
    },
    {
      "frame_id": 199,
      "sensor_timestamp": 151619613206492,
      "time_usec": 151619613206
    },
    {
      "frame_id": 200,
      "sensor_timestamp": 151619646452830,
      "time_usec": 151619646452
    },
    {
      "frame_id": 201,
      "sensor_timestamp": 151619679699168,
      "time_usec": 151619679699
    },
    {
      "frame_id": 202,
      "sensor_timestamp": 151619712945506,
      "time_usec": 151619712945
    },
    {
      "frame_id": 203,
      "sensor_timestamp": 151619746191844,
      "time_usec": 151619746191
    },
    {
      "frame_id": 204,
      "sensor_timestamp": 151619779438426,
      "time_usec": 151619779438
    },
    {
      "frame_id": 205,
      "sensor_timestamp": 151619812684764,
      "time_usec": 151619812684
    },
    {
      "frame_id": 206,
      "sensor_timestamp": 151619845931102,
      "time_usec": 151619845931
    },
    {
      "frame_id": 207,
      "sensor_timestamp": 151619879177440,
      "time_usec": 151619879177
    },
    {
      "frame_id": 208,
      "sensor_timestamp": 151619912424022,
      "time_usec": 151619912424
    },
    {
      "frame_id": 209,
      "sensor_timestamp": 151619945670360,
      "time_usec": 151619945670
    },
    {
      "frame_id": 210,
      "sensor_timestamp": 151619978916697,
      "time_usec": 151619978916
    },
    {
      "frame_id": 211,
      "sensor_timestamp": 151620012163035,
      "time_usec": 151620012163
    },
    {
      "frame_id": 212,
      "sensor_timestamp": 151620045409617,
      "time_usec": 151620045409
    },
    {
      "frame_id": 213,
      "sensor_timestamp": 151620078655955,
      "time_usec": 151620078655
    },
    {
      "frame_id": 214,
      "sensor_timestamp": 151620111902293,
      "time_usec": 151620111902
    },
    {
      "frame_id": 215,
      "sensor_timestamp": 151620145148631,
      "time_usec": 151620145148
    },
    {
      "frame_id": 216,
      "sensor_timestamp": 151620178395213,
      "time_usec": 151620178395
    },
    {
      "frame_id": 217,
      "sensor_timestamp": 151620211641551,
      "time_usec": 151620211641
    },
    {
      "frame_id": 218,
      "sensor_timestamp": 151620244887889,
      "time_usec": 151620244887
    },
    {
      "frame_id": 219,
      "sensor_timestamp": 151620278134227,
      "time_usec": 151620278134
    },
    {
      "frame_id": 220,
      "sensor_timestamp": 151620311380809,
      "time_usec": 151620311380
    },
    {
      "frame_id": 221,
      "sensor_timestamp": 151620344627147,
      "time_usec": 151620344627
    },
    {
      "frame_id": 222,
      "sensor_timestamp": 151620377873485,
      "time_usec": 151620377873
    },
    {
      "frame_id": 223,
      "sensor_timestamp": 151620411119822,
      "time_usec": 151620411119
    },
    {
      "frame_id": 224,
      "sensor_timestamp": 151620444366404,
      "time_usec": 151620444366
    },
    {
      "frame_id": 225,
      "sensor_timestamp": 151620477612742,
      "time_usec": 151620477612
    },
    {
      "frame_id": 226,
      "sensor_timestamp": 151620510859080,
      "time_usec": 151620510859
    },
    {
      "frame_id": 227,
      "sensor_timestamp": 151620544105418,
      "time_usec": 151620544105
    },
    {
      "frame_id": 228,
      "sensor_timestamp": 151620577352000,
      "time_usec": 151620577352
    },
    {
      "frame_id": 229,
      "sensor_timestamp": 151620610598338,
      "time_usec": 151620610598
    },
    {
      "frame_id": 230,
      "sensor_timestamp": 151620643844676,
      "time_usec": 151620643844
    },
    {
      "frame_id": 231,
      "sensor_timestamp": 151620677091014,
      "time_usec": 151620677091
    },
    {
      "frame_id": 232,
      "sensor_timestamp": 151620710337596,
      "time_usec": 151620710337
    },
    {
      "frame_id": 233,
      "sensor_timestamp": 151620743583934,
      "time_usec": 151620743583
    },
    {
      "frame_id": 234,
      "sensor_timestamp": 151620776830272,
      "time_usec": 151620776830
    },
    {
      "frame_id": 235,
      "sensor_timestamp": 151620810076610,
      "time_usec": 151620810076
    },
    {
      "frame_id": 236,
      "sensor_timestamp": 151620843323192,
      "time_usec": 151620843323
    },
    {
      "frame_id": 237,
      "sensor_timestamp": 151620876569529,
      "time_usec": 151620876569
    },
    {
      "frame_id": 238,
      "sensor_timestamp": 151620909815867,
      "time_usec": 151620909815
    },
    {
      "frame_id": 239,
      "sensor_timestamp": 151620943062205,
      "time_usec": 151620943062
    },
    {
      "frame_id": 240,
      "sensor_timestamp": 151620976308543,
      "time_usec": 151620976308
    },
    {
      "frame_id": 241,
      "sensor_timestamp": 151621009555125,
      "time_usec": 151621009555
    },
    {
      "frame_id": 242,
      "sensor_timestamp": 151621042801463,
      "time_usec": 151621042801
    },
    {
      "frame_id": 243,
      "sensor_timestamp": 151621076047801,
      "time_usec": 151621076047
    },
    {
      "frame_id": 244,
      "sensor_timestamp": 151621109294139,
      "time_usec": 151621109294
    },
    {
      "frame_id": 245,
      "sensor_timestamp": 151621142540721,
      "time_usec": 151621142540
    },
    {
      "frame_id": 246,
      "sensor_timestamp": 151621175787059,
      "time_usec": 151621175787
    },
    {
      "frame_id": 247,
      "sensor_timestamp": 151621209033397,
      "time_usec": 151621209033
    },
    {
      "frame_id": 248,
      "sensor_timestamp": 151621242279735,
      "time_usec": 151621242279
    },
    {
      "frame_id": 249,
      "sensor_timestamp": 151621275526317,
      "time_usec": 151621275526
    },
    {
      "frame_id": 250,
      "sensor_timestamp": 151621308772654,
      "time_usec": 151621308772
    },
    {
      "frame_id": 251,
      "sensor_timestamp": 151621342018992,
      "time_usec": 151621342018
    },
    {
      "frame_id": 252,
      "sensor_timestamp": 151621375265330,
      "time_usec": 151621375265
    },
    {
      "frame_id": 253,
      "sensor_timestamp": 151621408511912,
      "time_usec": 151621408511
    },
    {
      "frame_id": 254,
      "sensor_timestamp": 151621441758250,
      "time_usec": 151621441758
    },
    {
      "frame_id": 255,
      "sensor_timestamp": 151621475004588,
      "time_usec": 151621475004
    },
    {
      "frame_id": 256,
      "sensor_timestamp": 151621508250926,
      "time_usec": 151621508250
    },
    {
      "frame_id": 257,
      "sensor_timestamp": 151621541497508,
      "time_usec": 151621541497
    },
    {
      "frame_id": 258,
      "sensor_timestamp": 151621574743846,
      "time_usec": 151621574743
    },
    {
      "frame_id": 259,
      "sensor_timestamp": 151621607990184,
      "time_usec": 151621607990
    },
    {
      "frame_id": 260,
      "sensor_timestamp": 151621641236522,
      "time_usec": 151621641236
    },
    {
      "frame_id": 261,
      "sensor_timestamp": 151621674483104,
      "time_usec": 151621674483
    },
    {
      "frame_id": 262,
      "sensor_timestamp": 151621707729442,
      "time_usec": 151621707729
    },
    {
      "frame_id": 263,
      "sensor_timestamp": 151621740975779,
      "time_usec": 151621740975
    },
    {
      "frame_id": 264,
      "sensor_timestamp": 151621774222117,
      "time_usec": 151621774222
    },
    {
      "frame_id": 265,
      "sensor_timestamp": 151621807468699,
      "time_usec": 151621807468
    },
    {
      "frame_id": 266,
      "sensor_timestamp": 151621840715037,
      "time_usec": 151621840715
    },
    {
      "frame_id": 267,
      "sensor_timestamp": 151621873961375,
      "time_usec": 151621873961
    },
    {
      "frame_id": 268,
      "sensor_timestamp": 151621907207713,
      "time_usec": 151621907207
    },
    {
      "frame_id": 269,
      "sensor_timestamp": 151621940454295,
      "time_usec": 151621940454
    },
    {
      "frame_id": 270,
      "sensor_timestamp": 151621973700633,
      "time_usec": 151621973700
    },
    {
      "frame_id": 271,
      "sensor_timestamp": 151622006946971,
      "time_usec": 151622006946
    },
    {
      "frame_id": 272,
      "sensor_timestamp": 151622040193309,
      "time_usec": 151622040193
    },
    {
      "frame_id": 273,
      "sensor_timestamp": 151622073439647,
      "time_usec": 151622073439
    },
    {
      "frame_id": 274,
      "sensor_timestamp": 151622106686229,
      "time_usec": 151622106686
    },
    {
      "frame_id": 275,
      "sensor_timestamp": 151622139932567,
      "time_usec": 151622139932
    },
    {
      "frame_id": 276,
      "sensor_timestamp": 151622173178904,
      "time_usec": 151622173178
    },
    {
      "frame_id": 277,
      "sensor_timestamp": 151622206425242,
      "time_usec": 151622206425
    },
    {
      "frame_id": 278,
      "sensor_timestamp": 151622239671824,
      "time_usec": 151622239671
    },
    {
      "frame_id": 279,
      "sensor_timestamp": 151622272918162,
      "time_usec": 151622272918
    },
    {
      "frame_id": 280,
      "sensor_timestamp": 151622306164500,
      "time_usec": 151622306164
    },
    {
      "frame_id": 281,
      "sensor_timestamp": 151622339410838,
      "time_usec": 151622339410
    },
    {
      "frame_id": 282,
      "sensor_timestamp": 151622372657420,
      "time_usec": 151622372657
    },
    {
      "frame_id": 283,
      "sensor_timestamp": 151622405903758,
      "time_usec": 151622405903
    },
    {
      "frame_id": 284,
      "sensor_timestamp": 151622439150096,
      "time_usec": 151622439150
    },
    {
      "frame_id": 285,
      "sensor_timestamp": 151622472396434,
      "time_usec": 151622472396
    },
    {
      "frame_id": 286,
      "sensor_timestamp": 151622505643016,
      "time_usec": 151622505643
    },
    {
      "frame_id": 287,
      "sensor_timestamp": 151622538889354,
      "time_usec": 151622538889
    },
    {
      "frame_id": 288,
      "sensor_timestamp": 151622572135692,
      "time_usec": 151622572135
    },
    {
      "frame_id": 289,
      "sensor_timestamp": 151622605382029,
      "time_usec": 151622605382
    },
    {
      "frame_id": 290,
      "sensor_timestamp": 151622638628612,
      "time_usec": 151622638628
    },
    {
      "frame_id": 291,
      "sensor_timestamp": 151622671874949,
      "time_usec": 151622671874
    },
    {
      "frame_id": 292,
      "sensor_timestamp": 151622705121287,
      "time_usec": 151622705121
    },
    {
      "frame_id": 293,
      "sensor_timestamp": 151622738367625,
      "time_usec": 151622738367
    },
    {
      "frame_id": 294,
      "sensor_timestamp": 151622771614207,
      "time_usec": 151622771614
    },
    {
      "frame_id": 295,
      "sensor_timestamp": 151622804860545,
      "time_usec": 151622804860
    },
    {
      "frame_id": 296,
      "sensor_timestamp": 151622838106883,
      "time_usec": 151622838106
    },
    {
      "frame_id": 297,
      "sensor_timestamp": 151622871353221,
      "time_usec": 151622871353
    },
    {
      "frame_id": 298,
      "sensor_timestamp": 151622904599803,
      "time_usec": 151622904599
    },
    {
      "frame_id": 299,
      "sensor_timestamp": 151622937846141,
      "time_usec": 151622937846
    },
    {
      "frame_id": 300,
      "sensor_timestamp": 151622971092479,
      "time_usec": 151622971092
    },
    {
      "frame_id": 301,
      "sensor_timestamp": 151623004338817,
      "time_usec": 151623004338
    },
    {
      "frame_id": 302,
      "sensor_timestamp": 151623037585399,
      "time_usec": 151623037585
    },
    {
      "frame_id": 303,
      "sensor_timestamp": 151623070831737,
      "time_usec": 151623070831
    },
    {
      "frame_id": 304,
      "sensor_timestamp": 151623104078074,
      "time_usec": 151623104078
    },
    {
      "frame_id": 305,
      "sensor_timestamp": 151623137324412,
      "time_usec": 151623137324
    },
    {
      "frame_id": 306,
      "sensor_timestamp": 151623170570994,
      "time_usec": 151623170570
    },
    {
      "frame_id": 307,
      "sensor_timestamp": 151623203817332,
      "time_usec": 151623203817
    },
    {
      "frame_id": 308,
      "sensor_timestamp": 151623237063670,
      "time_usec": 151623237063
    },
    {
      "frame_id": 309,
      "sensor_timestamp": 151623270310008,
      "time_usec": 151623270310
    },
    {
      "frame_id": 310,
      "sensor_timestamp": 151623303556346,
      "time_usec": 151623303556
    },
    {
      "frame_id": 311,
      "sensor_timestamp": 151623336802928,
      "time_usec": 151623336802
    },
    {
      "frame_id": 312,
      "sensor_timestamp": 151623370049266,
      "time_usec": 151623370049
    },
    {
      "frame_id": 313,
      "sensor_timestamp": 151623403295604,
      "time_usec": 151623403295
    },
    {
      "frame_id": 314,
      "sensor_timestamp": 151623436541942,
      "time_usec": 151623436541
    },
    {
      "frame_id": 315,
      "sensor_timestamp": 151623469788524,
      "time_usec": 151623469788
    },
    {
      "frame_id": 316,
      "sensor_timestamp": 151623503034862,
      "time_usec": 151623503034
    },
    {
      "frame_id": 317,
      "sensor_timestamp": 151623536281199,
      "time_usec": 151623536281
    },
    {
      "frame_id": 318,
      "sensor_timestamp": 151623569527537,
      "time_usec": 151623569527
    },
    {
      "frame_id": 319,
      "sensor_timestamp": 151623602774119,
      "time_usec": 151623602774
    },
    {
      "frame_id": 320,
      "sensor_timestamp": 151623636020457,
      "time_usec": 151623636020
    },
    {
      "frame_id": 321,
      "sensor_timestamp": 151623669266795,
      "time_usec": 151623669266
    },
    {
      "frame_id": 322,
      "sensor_timestamp": 151623702513133,
      "time_usec": 151623702513
    },
    {
      "frame_id": 323,
      "sensor_timestamp": 151623735759715,
      "time_usec": 151623735759
    },
    {
      "frame_id": 324,
      "sensor_timestamp": 151623769006053,
      "time_usec": 151623769006
    },
    {
      "frame_id": 325,
      "sensor_timestamp": 151623802252391,
      "time_usec": 151623802252
    },
    {
      "frame_id": 326,
      "sensor_timestamp": 151623835498729,
      "time_usec": 151623835498
    },
    {
      "frame_id": 327,
      "sensor_timestamp": 151623868745311,
      "time_usec": 151623868745
    },
    {
      "frame_id": 328,
      "sensor_timestamp": 151623901991649,
      "time_usec": 151623901991
    },
    {
      "frame_id": 329,
      "sensor_timestamp": 151623935237987,
      "time_usec": 151623935237
    },
    {
      "frame_id": 330,
      "sensor_timestamp": 151623968484324,
      "time_usec": 151623968484
    },
    {
      "frame_id": 331,
      "sensor_timestamp": 151624001730906,
      "time_usec": 151624001730
    },
    {
      "frame_id": 332,
      "sensor_timestamp": 151624034977244,
      "time_usec": 151624034977
    },
    {
      "frame_id": 333,
      "sensor_timestamp": 151624068223582,
      "time_usec": 151624068223
    },
    {
      "frame_id": 334,
      "sensor_timestamp": 151624101469920,
      "time_usec": 151624101469
    },
    {
      "frame_id": 335,
      "sensor_timestamp": 151624134716502,
      "time_usec": 151624134716
    },
    {
      "frame_id": 336,
      "sensor_timestamp": 151624167962840,
      "time_usec": 151624167962
    },
    {
      "frame_id": 337,
      "sensor_timestamp": 151624201209178,
      "time_usec": 151624201209
    },
    {
      "frame_id": 338,
      "sensor_timestamp": 151624234455516,
      "time_usec": 151624234455
    },
    {
      "frame_id": 339,
      "sensor_timestamp": 151624267702098,
      "time_usec": 151624267702
    },
    {
      "frame_id": 340,
      "sensor_timestamp": 151624300948436,
      "time_usec": 151624300948
    },
    {
      "frame_id": 341,
      "sensor_timestamp": 151624334194774,
      "time_usec": 151624334194
    },
    {
      "frame_id": 342,
      "sensor_timestamp": 151624367441112,
      "time_usec": 151624367441
    },
    {
      "frame_id": 343,
      "sensor_timestamp": 151624400687694,
      "time_usec": 151624400687
    },
    {
      "frame_id": 344,
      "sensor_timestamp": 151624433934031,
      "time_usec": 151624433934
    },
    {
      "frame_id": 345,
      "sensor_timestamp": 151624467180369,
      "time_usec": 151624467180
    },
    {
      "frame_id": 346,
      "sensor_timestamp": 151624500426707,
      "time_usec": 151624500426
    },
    {
      "frame_id": 347,
      "sensor_timestamp": 151624533673045,
      "time_usec": 151624533673
    },
    {
      "frame_id": 348,
      "sensor_timestamp": 151624566919627,
      "time_usec": 151624566919
    },
    {
      "frame_id": 349,
      "sensor_timestamp": 151624600165965,
      "time_usec": 151624600165
    },
    {
      "frame_id": 350,
      "sensor_timestamp": 151624633412303,
      "time_usec": 151624633412
    },
    {
      "frame_id": 351,
      "sensor_timestamp": 151624666658641,
      "time_usec": 151624666658
    },
    {
      "frame_id": 352,
      "sensor_timestamp": 151624699905223,
      "time_usec": 151624699905
    },
    {
      "frame_id": 353,
      "sensor_timestamp": 151624733151561,
      "time_usec": 151624733151
    },
    {
      "frame_id": 354,
      "sensor_timestamp": 151624766397899,
      "time_usec": 151624766397
    },
    {
      "frame_id": 355,
      "sensor_timestamp": 151624799644237,
      "time_usec": 151624799644
    },
    {
      "frame_id": 356,
      "sensor_timestamp": 151624832890819,
      "time_usec": 151624832890
    },
    {
      "frame_id": 357,
      "sensor_timestamp": 151624866137156,
      "time_usec": 151624866137
    },
    {
      "frame_id": 358,
      "sensor_timestamp": 151624899383494,
      "time_usec": 151624899383
    },
    {
      "frame_id": 359,
      "sensor_timestamp": 151624932629832,
      "time_usec": 151624932629
    },
    {
      "frame_id": 360,
      "sensor_timestamp": 151624965876414,
      "time_usec": 151624965876
    },
    {
      "frame_id": 361,
      "sensor_timestamp": 151624999122752,
      "time_usec": 151624999122
    },
    {
      "frame_id": 362,
      "sensor_timestamp": 151625032369090,
      "time_usec": 151625032369
    },
    {
      "frame_id": 363,
      "sensor_timestamp": 151625065615428,
      "time_usec": 151625065615
    },
    {
      "frame_id": 364,
      "sensor_timestamp": 151625098862010,
      "time_usec": 151625098862
    },
    {
      "frame_id": 365,
      "sensor_timestamp": 151625132108348,
      "time_usec": 151625132108
    },
    {
      "frame_id": 366,
      "sensor_timestamp": 151625165354686,
      "time_usec": 151625165354
    },
    {
      "frame_id": 367,
      "sensor_timestamp": 151625198601024,
      "time_usec": 151625198601
    },
    {
      "frame_id": 368,
      "sensor_timestamp": 151625231847606,
      "time_usec": 151625231847
    },
    {
      "frame_id": 369,
      "sensor_timestamp": 151625265093944,
      "time_usec": 151625265093
    },
    {
      "frame_id": 370,
      "sensor_timestamp": 151625298340281,
      "time_usec": 151625298340
    },
    {
      "frame_id": 371,
      "sensor_timestamp": 151625331586619,
      "time_usec": 151625331586
    },
    {
      "frame_id": 372,
      "sensor_timestamp": 151625364833201,
      "time_usec": 151625364833
    },
    {
      "frame_id": 373,
      "sensor_timestamp": 151625398079539,
      "time_usec": 151625398079
    },
    {
      "frame_id": 374,
      "sensor_timestamp": 151625431325877,
      "time_usec": 151625431325
    },
    {
      "frame_id": 375,
      "sensor_timestamp": 151625464572215,
      "time_usec": 151625464572
    },
    {
      "frame_id": 376,
      "sensor_timestamp": 151625497818797,
      "time_usec": 151625497818
    },
    {
      "frame_id": 377,
      "sensor_timestamp": 151625531065135,
      "time_usec": 151625531065
    },
    {
      "frame_id": 378,
      "sensor_timestamp": 151625564311473,
      "time_usec": 151625564311
    },
    {
      "frame_id": 379,
      "sensor_timestamp": 151625597557811,
      "time_usec": 151625597557
    },
    {
      "frame_id": 380,
      "sensor_timestamp": 151625630804393,
      "time_usec": 151625630804
    },
    {
      "frame_id": 381,
      "sensor_timestamp": 151625664050731,
      "time_usec": 151625664050
    },
    {
      "frame_id": 382,
      "sensor_timestamp": 151625697297069,
      "time_usec": 151625697297
    },
    {
      "frame_id": 383,
      "sensor_timestamp": 151625730543406,
      "time_usec": 151625730543
    },
    {
      "frame_id": 384,
      "sensor_timestamp": 151625763789744,
      "time_usec": 151625763789
    },
    {
      "frame_id": 385,
      "sensor_timestamp": 151625797036326,
      "time_usec": 151625797036
    },
    {
      "frame_id": 386,
      "sensor_timestamp": 151625830282664,
      "time_usec": 151625830282
    },
    {
      "frame_id": 387,
      "sensor_timestamp": 151625863529002,
      "time_usec": 151625863529
    },
    {
      "frame_id": 388,
      "sensor_timestamp": 151625896775340,
      "time_usec": 151625896775
    },
    {
      "frame_id": 389,
      "sensor_timestamp": 151625930021922,
      "time_usec": 151625930021
    },
    {
      "frame_id": 390,
      "sensor_timestamp": 151625963268260,
      "time_usec": 151625963268
    },
    {
      "frame_id": 391,
      "sensor_timestamp": 151625996514598,
      "time_usec": 151625996514
    },
    {
      "frame_id": 392,
      "sensor_timestamp": 151626029760936,
      "time_usec": 151626029760
    },
    {
      "frame_id": 393,
      "sensor_timestamp": 151626063007518,
      "time_usec": 151626063007
    },
    {
      "frame_id": 394,
      "sensor_timestamp": 151626096253856,
      "time_usec": 151626096253
    },
    {
      "frame_id": 395,
      "sensor_timestamp": 151626129500194,
      "time_usec": 151626129500
    },
    {
      "frame_id": 396,
      "sensor_timestamp": 151626162746531,
      "time_usec": 151626162746
    },
    {
      "frame_id": 397,
      "sensor_timestamp": 151626195993113,
      "time_usec": 151626195993
    },
    {
      "frame_id": 398,
      "sensor_timestamp": 151626229239451,
      "time_usec": 151626229239
    },
    {
      "frame_id": 399,
      "sensor_timestamp": 151626262485789,
      "time_usec": 151626262485
    },
    {
      "frame_id": 400,
      "sensor_timestamp": 151626295732127,
      "time_usec": 151626295732
    },
    {
      "frame_id": 401,
      "sensor_timestamp": 151626328978709,
      "time_usec": 151626328978
    },
    {
      "frame_id": 402,
      "sensor_timestamp": 151626362225047,
      "time_usec": 151626362225
    },
    {
      "frame_id": 403,
      "sensor_timestamp": 151626395471385,
      "time_usec": 151626395471
    },
    {
      "frame_id": 404,
      "sensor_timestamp": 151626428717723,
      "time_usec": 151626428717
    },
    {
      "frame_id": 405,
      "sensor_timestamp": 151626461964305,
      "time_usec": 151626461964
    },
    {
      "frame_id": 406,
      "sensor_timestamp": 151626495210643,
      "time_usec": 151626495210
    },
    {
      "frame_id": 407,
      "sensor_timestamp": 151626528456981,
      "time_usec": 151626528456
    },
    {
      "frame_id": 408,
      "sensor_timestamp": 151626561703319,
      "time_usec": 151626561703
    },
    {
      "frame_id": 409,
      "sensor_timestamp": 151626594949901,
      "time_usec": 151626594949
    },
    {
      "frame_id": 410,
      "sensor_timestamp": 151626628196238,
      "time_usec": 151626628196
    },
    {
      "frame_id": 411,
      "sensor_timestamp": 151626661442576,
      "time_usec": 151626661442
    },
    {
      "frame_id": 412,
      "sensor_timestamp": 151626694688914,
      "time_usec": 151626694688
    },
    {
      "frame_id": 413,
      "sensor_timestamp": 151626727935496,
      "time_usec": 151626727935
    },
    {
      "frame_id": 414,
      "sensor_timestamp": 151626761181834,
      "time_usec": 151626761181
    },
    {
      "frame_id": 415,
      "sensor_timestamp": 151626794428172,
      "time_usec": 151626794428
    },
    {
      "frame_id": 416,
      "sensor_timestamp": 151626827674510,
      "time_usec": 151626827674
    },
    {
      "frame_id": 417,
      "sensor_timestamp": 151626860921092,
      "time_usec": 151626860921
    },
    {
      "frame_id": 418,
      "sensor_timestamp": 151626894167430,
      "time_usec": 151626894167
    },
    {
      "frame_id": 419,
      "sensor_timestamp": 151626927413768,
      "time_usec": 151626927413
    },
    {
      "frame_id": 420,
      "sensor_timestamp": 151626960660106,
      "time_usec": 151626960660
    },
    {
      "frame_id": 421,
      "sensor_timestamp": 151626993906444,
      "time_usec": 151626993906
    },
    {
      "frame_id": 422,
      "sensor_timestamp": 151627027153026,
      "time_usec": 151627027153
    },
    {
      "frame_id": 423,
      "sensor_timestamp": 151627060399363,
      "time_usec": 151627060399
    },
    {
      "frame_id": 424,
      "sensor_timestamp": 151627093645701,
      "time_usec": 151627093645
    },
    {
      "frame_id": 425,
      "sensor_timestamp": 151627126892039,
      "time_usec": 151627126892
    },
    {
      "frame_id": 426,
      "sensor_timestamp": 151627160138621,
      "time_usec": 151627160138
    },
    {
      "frame_id": 427,
      "sensor_timestamp": 151627193384959,
      "time_usec": 151627193384
    },
    {
      "frame_id": 428,
      "sensor_timestamp": 151627226631297,
      "time_usec": 151627226631
    },
    {
      "frame_id": 429,
      "sensor_timestamp": 151627259877635,
      "time_usec": 151627259877
    },
    {
      "frame_id": 430,
      "sensor_timestamp": 151627293124217,
      "time_usec": 151627293124
    },
    {
      "frame_id": 431,
      "sensor_timestamp": 151627326370555,
      "time_usec": 151627326370
    },
    {
      "frame_id": 432,
      "sensor_timestamp": 151627359616893,
      "time_usec": 151627359616
    },
    {
      "frame_id": 433,
      "sensor_timestamp": 151627392863231,
      "time_usec": 151627392863
    },
    {
      "frame_id": 434,
      "sensor_timestamp": 151627426109813,
      "time_usec": 151627426109
    },
    {
      "frame_id": 435,
      "sensor_timestamp": 151627459356151,
      "time_usec": 151627459356
    },
    {
      "frame_id": 436,
      "sensor_timestamp": 151627492602488,
      "time_usec": 151627492602
    },
    {
      "frame_id": 437,
      "sensor_timestamp": 151627525848826,
      "time_usec": 151627525848
    },
    {
      "frame_id": 438,
      "sensor_timestamp": 151627559095408,
      "time_usec": 151627559095
    },
    {
      "frame_id": 439,
      "sensor_timestamp": 151627592341746,
      "time_usec": 151627592341
    },
    {
      "frame_id": 440,
      "sensor_timestamp": 151627625588084,
      "time_usec": 151627625588
    },
    {
      "frame_id": 441,
      "sensor_timestamp": 151627658834422,
      "time_usec": 151627658834
    },
    {
      "frame_id": 442,
      "sensor_timestamp": 151627692081004,
      "time_usec": 151627692081
    },
    {
      "frame_id": 443,
      "sensor_timestamp": 151627725327342,
      "time_usec": 151627725327
    },
    {
      "frame_id": 444,
      "sensor_timestamp": 151627758520689,
      "time_usec": 151627758520
    },
    {
      "frame_id": 445,
      "sensor_timestamp": 151627791820018,
      "time_usec": 151627791820
    },
    {
      "frame_id": 446,
      "sensor_timestamp": 151627825066600,
      "time_usec": 151627825066
    },
    {
      "frame_id": 447,
      "sensor_timestamp": 151627858312938,
      "time_usec": 151627858312
    },
    {
      "frame_id": 448,
      "sensor_timestamp": 151627891559276,
      "time_usec": 151627891559
    },
    {
      "frame_id": 449,
      "sensor_timestamp": 151627924805613,
      "time_usec": 151627924805
    },
    {
      "frame_id": 450,
      "sensor_timestamp": 151627958052195,
      "time_usec": 151627958052
    },
    {
      "frame_id": 451,
      "sensor_timestamp": 151627991298533,
      "time_usec": 151627991298
    },
    {
      "frame_id": 452,
      "sensor_timestamp": 151628024544871,
      "time_usec": 151628024544
    },
    {
      "frame_id": 453,
      "sensor_timestamp": 151628057791209,
      "time_usec": 151628057791
    },
    {
      "frame_id": 454,
      "sensor_timestamp": 151628091037547,
      "time_usec": 151628091037
    },
    {
      "frame_id": 455,
      "sensor_timestamp": 151628124284129,
      "time_usec": 151628124284
    },
    {
      "frame_id": 456,
      "sensor_timestamp": 151628157530467,
      "time_usec": 151628157530
    },
    {
      "frame_id": 457,
      "sensor_timestamp": 151628190776805,
      "time_usec": 151628190776
    },
    {
      "frame_id": 458,
      "sensor_timestamp": 151628224023143,
      "time_usec": 151628224023
    },
    {
      "frame_id": 459,
      "sensor_timestamp": 151628257269725,
      "time_usec": 151628257269
    },
    {
      "frame_id": 460,
      "sensor_timestamp": 151628290516063,
      "time_usec": 151628290516
    },
    {
      "frame_id": 461,
      "sensor_timestamp": 151628323762401,
      "time_usec": 151628323762
    },
    {
      "frame_id": 462,
      "sensor_timestamp": 151628357008738,
      "time_usec": 151628357008
    },
    {
      "frame_id": 463,
      "sensor_timestamp": 151628390255320,
      "time_usec": 151628390255
    },
    {
      "frame_id": 464,
      "sensor_timestamp": 151628423501658,
      "time_usec": 151628423501
    },
    {
      "frame_id": 465,
      "sensor_timestamp": 151628456747996,
      "time_usec": 151628456747
    },
    {
      "frame_id": 466,
      "sensor_timestamp": 151628489994334,
      "time_usec": 151628489994
    },
    {
      "frame_id": 467,
      "sensor_timestamp": 151628523240916,
      "time_usec": 151628523240
    },
    {
      "frame_id": 468,
      "sensor_timestamp": 151628556487254,
      "time_usec": 151628556487
    },
    {
      "frame_id": 469,
      "sensor_timestamp": 151628589733592,
      "time_usec": 151628589733
    },
    {
      "frame_id": 470,
      "sensor_timestamp": 151628622979930,
      "time_usec": 151628622979
    },
    {
      "frame_id": 471,
      "sensor_timestamp": 151628656226512,
      "time_usec": 151628656226
    },
    {
      "frame_id": 472,
      "sensor_timestamp": 151628689472850,
      "time_usec": 151628689472
    },
    {
      "frame_id": 473,
      "sensor_timestamp": 151628722719188,
      "time_usec": 151628722719
    },
    {
      "frame_id": 474,
      "sensor_timestamp": 151628755965526,
      "time_usec": 151628755965
    },
    {
      "frame_id": 475,
      "sensor_timestamp": 151628789212108,
      "time_usec": 151628789212
    },
    {
      "frame_id": 476,
      "sensor_timestamp": 151628822458445,
      "time_usec": 151628822458
    },
    {
      "frame_id": 477,
      "sensor_timestamp": 151628855704783,
      "time_usec": 151628855704
    },
    {
      "frame_id": 478,
      "sensor_timestamp": 151628888951121,
      "time_usec": 151628888951
    },
    {
      "frame_id": 479,
      "sensor_timestamp": 151628922197703,
      "time_usec": 151628922197
    },
    {
      "frame_id": 480,
      "sensor_timestamp": 151628955444041,
      "time_usec": 151628955444
    },
    {
      "frame_id": 481,
      "sensor_timestamp": 151628988690379,
      "time_usec": 151628988690
    },
    {
      "frame_id": 482,
      "sensor_timestamp": 151629021936717,
      "time_usec": 151629021936
    },
    {
      "frame_id": 483,
      "sensor_timestamp": 151629055183299,
      "time_usec": 151629055183
    },
    {
      "frame_id": 484,
      "sensor_timestamp": 151629088429637,
      "time_usec": 151629088429
    },
    {
      "frame_id": 485,
      "sensor_timestamp": 151629121675975,
      "time_usec": 151629121675
    },
    {
      "frame_id": 486,
      "sensor_timestamp": 151629154922313,
      "time_usec": 151629154922
    },
    {
      "frame_id": 487,
      "sensor_timestamp": 151629188168895,
      "time_usec": 151629188168
    },
    {
      "frame_id": 488,
      "sensor_timestamp": 151629221379576,
      "time_usec": 151629221379
    },
    {
      "frame_id": 489,
      "sensor_timestamp": 151629254661570,
      "time_usec": 151629254661
    },
    {
      "frame_id": 490,
      "sensor_timestamp": 151629287907908,
      "time_usec": 151629287907
    },
    {
      "frame_id": 491,
      "sensor_timestamp": 151629321154246,
      "time_usec": 151629321154
    },
    {
      "frame_id": 492,
      "sensor_timestamp": 151629354400828,
      "time_usec": 151629354400
    },
    {
      "frame_id": 493,
      "sensor_timestamp": 151629387647166,
      "time_usec": 151629387647
    },
    {
      "frame_id": 494,
      "sensor_timestamp": 151629420893504,
      "time_usec": 151629420893
    },
    {
      "frame_id": 495,
      "sensor_timestamp": 151629454139842,
      "time_usec": 151629454139
    },
    {
      "frame_id": 496,
      "sensor_timestamp": 151629487386424,
      "time_usec": 151629487386
    },
    {
      "frame_id": 497,
      "sensor_timestamp": 151629520632762,
      "time_usec": 151629520632
    },
    {
      "frame_id": 498,
      "sensor_timestamp": 151629553879100,
      "time_usec": 151629553879
    },
    {
      "frame_id": 499,
      "sensor_timestamp": 151629587125438,
      "time_usec": 151629587125
    },
    {
      "frame_id": 500,
      "sensor_timestamp": 151629620372020,
      "time_usec": 151629620372
    },
    {
      "frame_id": 501,
      "sensor_timestamp": 151629653618358,
      "time_usec": 151629653618
    },
    {
      "frame_id": 502,
      "sensor_timestamp": 151629686864695,
      "time_usec": 151629686864
    },
    {
      "frame_id": 503,
      "sensor_timestamp": 151629720111033,
      "time_usec": 151629720111
    },
    {
      "frame_id": 504,
      "sensor_timestamp": 151629753357615,
      "time_usec": 151629753357
    },
    {
      "frame_id": 505,
      "sensor_timestamp": 151629786603953,
      "time_usec": 151629786603
    },
    {
      "frame_id": 506,
      "sensor_timestamp": 151629819850291,
      "time_usec": 151629819850
    },
    {
      "frame_id": 507,
      "sensor_timestamp": 151629853096629,
      "time_usec": 151629853096
    },
    {
      "frame_id": 508,
      "sensor_timestamp": 151629886343211,
      "time_usec": 151629886343
    },
    {
      "frame_id": 509,
      "sensor_timestamp": 151629919589549,
      "time_usec": 151629919589
    },
    {
      "frame_id": 510,
      "sensor_timestamp": 151629952835887,
      "time_usec": 151629952835
    },
    {
      "frame_id": 511,
      "sensor_timestamp": 151629986082225,
      "time_usec": 151629986082
    },
    {
      "frame_id": 512,
      "sensor_timestamp": 151630019328807,
      "time_usec": 151630019328
    },
    {
      "frame_id": 513,
      "sensor_timestamp": 151630052575145,
      "time_usec": 151630052575
    },
    {
      "frame_id": 514,
      "sensor_timestamp": 151630085821483,
      "time_usec": 151630085821
    },
    {
      "frame_id": 515,
      "sensor_timestamp": 151630119067820,
      "time_usec": 151630119067
    },
    {
      "frame_id": 516,
      "sensor_timestamp": 151630152314403,
      "time_usec": 151630152314
    },
    {
      "frame_id": 517,
      "sensor_timestamp": 151630185560740,
      "time_usec": 151630185560
    },
    {
      "frame_id": 518,
      "sensor_timestamp": 151630218807078,
      "time_usec": 151630218807
    },
    {
      "frame_id": 519,
      "sensor_timestamp": 151630252053416,
      "time_usec": 151630252053
    },
    {
      "frame_id": 520,
      "sensor_timestamp": 151630285299998,
      "time_usec": 151630285299
    },
    {
      "frame_id": 521,
      "sensor_timestamp": 151630318546336,
      "time_usec": 151630318546
    },
    {
      "frame_id": 522,
      "sensor_timestamp": 151630351792674,
      "time_usec": 151630351792
    },
    {
      "frame_id": 523,
      "sensor_timestamp": 151630385039012,
      "time_usec": 151630385039
    },
    {
      "frame_id": 524,
      "sensor_timestamp": 151630418285594,
      "time_usec": 151630418285
    },
    {
      "frame_id": 525,
      "sensor_timestamp": 151630451531932,
      "time_usec": 151630451531
    },
    {
      "frame_id": 526,
      "sensor_timestamp": 151630484778270,
      "time_usec": 151630484778
    },
    {
      "frame_id": 527,
      "sensor_timestamp": 151630518024608,
      "time_usec": 151630518024
    },
    {
      "frame_id": 528,
      "sensor_timestamp": 151630551270945,
      "time_usec": 151630551270
    },
    {
      "frame_id": 529,
      "sensor_timestamp": 151630584517528,
      "time_usec": 151630584517
    },
    {
      "frame_id": 530,
      "sensor_timestamp": 151630617763865,
      "time_usec": 151630617763
    },
    {
      "frame_id": 531,
      "sensor_timestamp": 151630651010203,
      "time_usec": 151630651010
    },
    {
      "frame_id": 532,
      "sensor_timestamp": 151630684256541,
      "time_usec": 151630684256
    },
    {
      "frame_id": 533,
      "sensor_timestamp": 151630717503123,
      "time_usec": 151630717503
    },
    {
      "frame_id": 534,
      "sensor_timestamp": 151630750749461,
      "time_usec": 151630750749
    },
    {
      "frame_id": 535,
      "sensor_timestamp": 151630783995799,
      "time_usec": 151630783995
    },
    {
      "frame_id": 536,
      "sensor_timestamp": 151630817242137,
      "time_usec": 151630817242
    },
    {
      "frame_id": 537,
      "sensor_timestamp": 151630850488719,
      "time_usec": 151630850488
    },
    {
      "frame_id": 538,
      "sensor_timestamp": 151630883735057,
      "time_usec": 151630883735
    },
    {
      "frame_id": 539,
      "sensor_timestamp": 151630916981395,
      "time_usec": 151630916981
    },
    {
      "frame_id": 540,
      "sensor_timestamp": 151630950227733,
      "time_usec": 151630950227
    },
    {
      "frame_id": 541,
