{
  "frames": [
    {
      "frame_id": 0,
      "sensor_timestamp": 134425187903430,
      "time_usec": 134425187903
    },
    {
      "frame_id": 1,
      "sensor_timestamp": 134425254396350,
      "time_usec": 134425254396
    },
    {
      "frame_id": 2,
      "sensor_timestamp": 134425287642688,
      "time_usec": 134425287642
    },
    {
      "frame_id": 3,
      "sensor_timestamp": 134425320889025,
      "time_usec": 134425320889
    },
    {
      "frame_id": 4,
      "sensor_timestamp": 134425354135363,
      "time_usec": 134425354135
    },
    {
      "frame_id": 5,
      "sensor_timestamp": 134425387381945,
      "time_usec": 134425387381
    },
    {
      "frame_id": 6,
      "sensor_timestamp": 134425420628283,
      "time_usec": 134425420628
    },
    {
      "frame_id": 7,
      "sensor_timestamp": 134425453874621,
      "time_usec": 134425453874
    },
    {
      "frame_id": 8,
      "sensor_timestamp": 134425487120959,
      "time_usec": 134425487120
    },
    {
      "frame_id": 9,
      "sensor_timestamp": 134425520367541,
      "time_usec": 134425520367
    },
    {
      "frame_id": 10,
      "sensor_timestamp": 134425553613879,
      "time_usec": 134425553613
    },
    {
      "frame_id": 11,
      "sensor_timestamp": 134425586860217,
      "time_usec": 134425586860
    },
    {
      "frame_id": 12,
      "sensor_timestamp": 134425620106555,
      "time_usec": 134425620106
    },
    {
      "frame_id": 13,
      "sensor_timestamp": 134425653353137,
      "time_usec": 134425653353
    },
    {
      "frame_id": 14,
      "sensor_timestamp": 134425686599475,
      "time_usec": 134425686599
    },
    {
      "frame_id": 15,
      "sensor_timestamp": 134425719845813,
      "time_usec": 134425719845
    },
    {
      "frame_id": 16,
      "sensor_timestamp": 134425753092150,
      "time_usec": 134425753092
    },
    {
      "frame_id": 17,
      "sensor_timestamp": 134425786338732,
      "time_usec": 134425786338
    },
    {
      "frame_id": 18,
      "sensor_timestamp": 134425819585070,
      "time_usec": 134425819585
    },
    {
      "frame_id": 19,
      "sensor_timestamp": 134425852831408,
      "time_usec": 134425852831
    },
    {
      "frame_id": 20,
      "sensor_timestamp": 134425886077746,
      "time_usec": 134425886077
    },
    {
      "frame_id": 21,
      "sensor_timestamp": 134425919324328,
      "time_usec": 134425919324
    },
    {
      "frame_id": 22,
      "sensor_timestamp": 134425952570666,
      "time_usec": 134425952570
    },
    {
      "frame_id": 23,
      "sensor_timestamp": 134425985817004,
      "time_usec": 134425985817
    },
    {
      "frame_id": 24,
      "sensor_timestamp": 134426019063342,
      "time_usec": 134426019063
    },
    {
      "frame_id": 25,
      "sensor_timestamp": 134426052309924,
      "time_usec": 134426052309
    },
    {
      "frame_id": 26,
      "sensor_timestamp": 134426085556262,
      "time_usec": 134426085556
    },
    {
      "frame_id": 27,
      "sensor_timestamp": 134426118802600,
      "time_usec": 134426118802
    },
    {
      "frame_id": 28,
      "sensor_timestamp": 134426152048938,
      "time_usec": 134426152048
    },
    {
      "frame_id": 29,
      "sensor_timestamp": 134426185295520,
      "time_usec": 134426185295
    },
    {
      "frame_id": 30,
      "sensor_timestamp": 134426218541857,
      "time_usec": 134426218541
    },
    {
      "frame_id": 31,
      "sensor_timestamp": 134426251788195,
      "time_usec": 134426251788
    },
    {
      "frame_id": 32,
      "sensor_timestamp": 134426285034533,
      "time_usec": 134426285034
    },
    {
      "frame_id": 33,
      "sensor_timestamp": 134426318280871,
      "time_usec": 134426318280
    },
    {
      "frame_id": 34,
      "sensor_timestamp": 134426351527453,
      "time_usec": 134426351527
    },
    {
      "frame_id": 35,
      "sensor_timestamp": 134426384773791,
      "time_usec": 134426384773
    },
    {
      "frame_id": 36,
      "sensor_timestamp": 134426418020129,
      "time_usec": 134426418020
    },
    {
      "frame_id": 37,
      "sensor_timestamp": 134426451266467,
      "time_usec": 134426451266
    },
    {
      "frame_id": 38,
      "sensor_timestamp": 134426484513049,
      "time_usec": 134426484513
    },
    {
      "frame_id": 39,
      "sensor_timestamp": 134426517759387,
      "time_usec": 134426517759
    },
    {
      "frame_id": 40,
      "sensor_timestamp": 134426551005725,
      "time_usec": 134426551005
    },
    {
      "frame_id": 41,
      "sensor_timestamp": 134426584252063,
      "time_usec": 134426584252
    },
    {
      "frame_id": 42,
      "sensor_timestamp": 134426617498645,
      "time_usec": 134426617498
    },
    {
      "frame_id": 43,
      "sensor_timestamp": 134426650744982,
      "time_usec": 134426650744
    },
    {
      "frame_id": 44,
      "sensor_timestamp": 134426683991320,
      "time_usec": 134426683991
    },
    {
      "frame_id": 45,
      "sensor_timestamp": 134426717237658,
      "time_usec": 134426717237
    },
    {
      "frame_id": 46,
      "sensor_timestamp": 134426750484240,
      "time_usec": 134426750484
    },
    {
      "frame_id": 47,
      "sensor_timestamp": 134426783730578,
      "time_usec": 134426783730
    },
    {
      "frame_id": 48,
      "sensor_timestamp": 134426816976916,
      "time_usec": 134426816976
    },
    {
      "frame_id": 49,
      "sensor_timestamp": 134426850223254,
      "time_usec": 134426850223
    },
    {
      "frame_id": 50,
      "sensor_timestamp": 134426883469836,
      "time_usec": 134426883469
    },
    {
      "frame_id": 51,
      "sensor_timestamp": 134426916716174,
      "time_usec": 134426916716
    },
    {
      "frame_id": 52,
      "sensor_timestamp": 134426949962512,
      "time_usec": 134426949962
    },
    {
      "frame_id": 53,
      "sensor_timestamp": 134426983208850,
      "time_usec": 134426983208
    },
    {
      "frame_id": 54,
      "sensor_timestamp": 134427016455432,
      "time_usec": 134427016455
    },
    {
      "frame_id": 55,
      "sensor_timestamp": 134427049701770,
      "time_usec": 134427049701
    },
    {
      "frame_id": 56,
      "sensor_timestamp": 134427082948107,
      "time_usec": 134427082948
    },
    {
      "frame_id": 57,
      "sensor_timestamp": 134427116194445,
      "time_usec": 134427116194
    },
    {
      "frame_id": 58,
      "sensor_timestamp": 134427149441027,
      "time_usec": 134427149441
    },
    {
      "frame_id": 59,
      "sensor_timestamp": 134427182687365,
      "time_usec": 134427182687
    },
    {
      "frame_id": 60,
      "sensor_timestamp": 134427215933703,
      "time_usec": 134427215933
    },
    {
      "frame_id": 61,
      "sensor_timestamp": 134427249180041,
      "time_usec": 134427249180
    },
    {
      "frame_id": 62,
      "sensor_timestamp": 134427282426623,
      "time_usec": 134427282426
    },
    {
      "frame_id": 63,
      "sensor_timestamp": 134427315672961,
      "time_usec": 134427315672
    },
    {
      "frame_id": 64,
      "sensor_timestamp": 134427348919299,
      "time_usec": 134427348919
    },
    {
      "frame_id": 65,
      "sensor_timestamp": 134427382165637,
      "time_usec": 134427382165
    },
    {
      "frame_id": 66,
      "sensor_timestamp": 134427415411975,
      "time_usec": 134427415411
    },
    {
      "frame_id": 67,
      "sensor_timestamp": 134427448658557,
      "time_usec": 134427448658
    },
    {
      "frame_id": 68,
      "sensor_timestamp": 134427481904895,
      "time_usec": 134427481904
    },
    {
      "frame_id": 69,
      "sensor_timestamp": 134427515151232,
      "time_usec": 134427515151
    },
    {
      "frame_id": 70,
      "sensor_timestamp": 134427548397570,
      "time_usec": 134427548397
    },
    {
      "frame_id": 71,
      "sensor_timestamp": 134427581644152,
      "time_usec": 134427581644
    },
    {
      "frame_id": 72,
      "sensor_timestamp": 134427614890490,
      "time_usec": 134427614890
    },
    {
      "frame_id": 73,
      "sensor_timestamp": 134427648136828,
      "time_usec": 134427648136
    },
    {
      "frame_id": 74,
      "sensor_timestamp": 134427681383166,
      "time_usec": 134427681383
    },
    {
      "frame_id": 75,
      "sensor_timestamp": 134427714629748,
      "time_usec": 134427714629
    },
    {
      "frame_id": 76,
      "sensor_timestamp": 134427747876086,
      "time_usec": 134427747876
    },
    {
      "frame_id": 77,
      "sensor_timestamp": 134427781122424,
      "time_usec": 134427781122
    },
    {
      "frame_id": 78,
      "sensor_timestamp": 134427814368762,
      "time_usec": 134427814368
    },
    {
      "frame_id": 79,
      "sensor_timestamp": 134427847615344,
      "time_usec": 134427847615
    },
    {
      "frame_id": 80,
      "sensor_timestamp": 134427880861682,
      "time_usec": 134427880861
    },
    {
      "frame_id": 81,
      "sensor_timestamp": 134427914108020,
      "time_usec": 134427914108
    },
    {
      "frame_id": 82,
      "sensor_timestamp": 134427947354357,
      "time_usec": 134427947354
    },
    {
      "frame_id": 83,
      "sensor_timestamp": 134427980600939,
      "time_usec": 134427980600
    },
    {
      "frame_id": 84,
      "sensor_timestamp": 134428013847277,
      "time_usec": 134428013847
    },
    {
      "frame_id": 85,
      "sensor_timestamp": 134428047093615,
      "time_usec": 134428047093
    },
    {
      "frame_id": 86,
      "sensor_timestamp": 134428080339953,
      "time_usec": 134428080339
    },
    {
      "frame_id": 87,
      "sensor_timestamp": 134428113586535,
      "time_usec": 134428113586
    },
    {
      "frame_id": 88,
      "sensor_timestamp": 134428146832873,
      "time_usec": 134428146832
    },
    {
      "frame_id": 89,
      "sensor_timestamp": 134428180079211,
      "time_usec": 134428180079
    },
    {
      "frame_id": 90,
      "sensor_timestamp": 134428213325549,
      "time_usec": 134428213325
    },
    {
      "frame_id": 91,
      "sensor_timestamp": 134428246572131,
      "time_usec": 134428246572
    },
    {
      "frame_id": 92,
      "sensor_timestamp": 134428279818469,
      "time_usec": 134428279818
    },
    {
      "frame_id": 93,
      "sensor_timestamp": 134428313064807,
      "time_usec": 134428313064
    },
    {
      "frame_id": 94,
      "sensor_timestamp": 134428346311145,
      "time_usec": 134428346311
    },
    {
      "frame_id": 95,
      "sensor_timestamp": 134428379557727,
      "time_usec": 134428379557
    },
    {
      "frame_id": 96,
      "sensor_timestamp": 134428412804064,
      "time_usec": 134428412804
    },
    {
      "frame_id": 97,
      "sensor_timestamp": 134428446050402,
      "time_usec": 134428446050
    },
    {
      "frame_id": 98,
      "sensor_timestamp": 134428479296740,
      "time_usec": 134428479296
    },
    {
      "frame_id": 99,
      "sensor_timestamp": 134428512511296,
      "time_usec": 134428512511
    },
    {
      "frame_id": 100,
      "sensor_timestamp": 134428545789660,
      "time_usec": 134428545789
    },
    {
      "frame_id": 101,
      "sensor_timestamp": 134428579035998,
      "time_usec": 134428579035
    },
    {
      "frame_id": 102,
      "sensor_timestamp": 134428612282336,
      "time_usec": 134428612282
    },
    {
      "frame_id": 103,
      "sensor_timestamp": 134428645528674,
      "time_usec": 134428645528
    },
    {
      "frame_id": 104,
      "sensor_timestamp": 134428678775256,
      "time_usec": 134428678775
    },
    {
      "frame_id": 105,
      "sensor_timestamp": 134428712021594,
      "time_usec": 134428712021
    },
    {
      "frame_id": 106,
      "sensor_timestamp": 134428745267932,
      "time_usec": 134428745267
    },
    {
      "frame_id": 107,
      "sensor_timestamp": 134428778514270,
      "time_usec": 134428778514
    },
    {
      "frame_id": 108,
      "sensor_timestamp": 134428811760852,
      "time_usec": 134428811760
    },
    {
      "frame_id": 109,
      "sensor_timestamp": 134428845007189,
      "time_usec": 134428845007
    },
    {
      "frame_id": 110,
      "sensor_timestamp": 134428878253527,
      "time_usec": 134428878253
    },
    {
      "frame_id": 111,
      "sensor_timestamp": 134428911499865,
      "time_usec": 134428911499
    },
    {
      "frame_id": 112,
      "sensor_timestamp": 134428944746447,
      "time_usec": 134428944746
    },
    {
      "frame_id": 113,
      "sensor_timestamp": 134428977992785,
      "time_usec": 134428977992
    },
    {
      "frame_id": 114,
      "sensor_timestamp": 134429011239123,
      "time_usec": 134429011239
    },
    {
      "frame_id": 115,
      "sensor_timestamp": 134429044485461,
      "time_usec": 134429044485
    },
    {
      "frame_id": 116,
      "sensor_timestamp": 134429077732043,
      "time_usec": 134429077732
    },
    {
      "frame_id": 117,
      "sensor_timestamp": 134429110978381,
      "time_usec": 134429110978
    },
    {
      "frame_id": 118,
      "sensor_timestamp": 134429144224719,
      "time_usec": 134429144224
    },
    {
      "frame_id": 119,
      "sensor_timestamp": 134429177471057,
      "time_usec": 134429177471
    },
    {
      "frame_id": 120,
      "sensor_timestamp": 134429210717639,
      "time_usec": 134429210717
    },
    {
      "frame_id": 121,
      "sensor_timestamp": 134429243963977,
      "time_usec": 134429243963
    },
    {
      "frame_id": 122,
      "sensor_timestamp": 134429277210314,
      "time_usec": 134429277210
    },
    {
      "frame_id": 123,
      "sensor_timestamp": 134429310456652,
      "time_usec": 134429310456
    },
    {
      "frame_id": 124,
      "sensor_timestamp": 134429343703234,
      "time_usec": 134429343703
    },
    {
      "frame_id": 125,
      "sensor_timestamp": 134429376949572,
      "time_usec": 134429376949
    },
    {
      "frame_id": 126,
      "sensor_timestamp": 134429410195910,
      "time_usec": 134429410195
    },
    {
      "frame_id": 127,
      "sensor_timestamp": 134429443442248,
      "time_usec": 134429443442
    },
    {
      "frame_id": 128,
      "sensor_timestamp": 134429476688830,
      "time_usec": 134429476688
    },
    {
      "frame_id": 129,
      "sensor_timestamp": 134429509935168,
      "time_usec": 134429509935
    },
    {
      "frame_id": 130,
      "sensor_timestamp": 134429543181506,
      "time_usec": 134429543181
    },
    {
      "frame_id": 131,
      "sensor_timestamp": 134429576427844,
      "time_usec": 134429576427
    },
    {
      "frame_id": 132,
      "sensor_timestamp": 134429609674426,
      "time_usec": 134429609674
    },
    {
      "frame_id": 133,
      "sensor_timestamp": 134429642920764,
      "time_usec": 134429642920
    },
    {
      "frame_id": 134,
      "sensor_timestamp": 134429676167102,
      "time_usec": 134429676167
    },
    {
      "frame_id": 135,
      "sensor_timestamp": 134429709413439,
      "time_usec": 134429709413
    },
    {
      "frame_id": 136,
      "sensor_timestamp": 134429742660022,
      "time_usec": 134429742660
    },
    {
      "frame_id": 137,
      "sensor_timestamp": 134429775906359,
      "time_usec": 134429775906
    },
    {
      "frame_id": 138,
      "sensor_timestamp": 134429809152697,
      "time_usec": 134429809152
    },
    {
      "frame_id": 139,
      "sensor_timestamp": 134429842399035,
      "time_usec": 134429842399
    },
    {
      "frame_id": 140,
      "sensor_timestamp": 134429875645373,
      "time_usec": 134429875645
    },
    {
      "frame_id": 141,
      "sensor_timestamp": 134429908891955,
      "time_usec": 134429908891
    },
    {
      "frame_id": 142,
      "sensor_timestamp": 134429942138293,
      "time_usec": 134429942138
    },
    {
      "frame_id": 143,
      "sensor_timestamp": 134429975384631,
      "time_usec": 134429975384
    },
    {
      "frame_id": 144,
      "sensor_timestamp": 134430008630969,
      "time_usec": 134430008630
    },
    {
      "frame_id": 145,
      "sensor_timestamp": 134430041877551,
      "time_usec": 134430041877
    },
    {
      "frame_id": 146,
      "sensor_timestamp": 134430075123889,
      "time_usec": 134430075123
    },
    {
      "frame_id": 147,
      "sensor_timestamp": 134430108370227,
      "time_usec": 134430108370
    },
    {
      "frame_id": 148,
      "sensor_timestamp": 134430141616564,
      "time_usec": 134430141616
    },
    {
      "frame_id": 149,
      "sensor_timestamp": 134430174863147,
      "time_usec": 134430174863
    },
    {
      "frame_id": 150,
      "sensor_timestamp": 134430208109484,
      "time_usec": 134430208109
    },
    {
      "frame_id": 151,
      "sensor_timestamp": 134430241355822,
      "time_usec": 134430241355
    },
    {
      "frame_id": 152,
      "sensor_timestamp": 134430274602160,
      "time_usec": 134430274602
    },
    {
      "frame_id": 153,
      "sensor_timestamp": 134430307848742,
      "time_usec": 134430307848
    },
    {
      "frame_id": 154,
      "sensor_timestamp": 134430341095080,
      "time_usec": 134430341095
    },
    {
      "frame_id": 155,
      "sensor_timestamp": 134430374341418,
      "time_usec": 134430374341
    },
    {
      "frame_id": 156,
      "sensor_timestamp": 134430407587756,
      "time_usec": 134430407587
    },
    {
      "frame_id": 157,
      "sensor_timestamp": 134430440834338,
      "time_usec": 134430440834
    },
    {
      "frame_id": 158,
      "sensor_timestamp": 134430474080676,
      "time_usec": 134430474080
    },
    {
      "frame_id": 159,
      "sensor_timestamp": 134430507327014,
      "time_usec": 134430507327
    },
    {
      "frame_id": 160,
      "sensor_timestamp": 134430540573352,
      "time_usec": 134430540573
    },
    {
      "frame_id": 161,
      "sensor_timestamp": 134430573819934,
      "time_usec": 134430573819
    },
    {
      "frame_id": 162,
      "sensor_timestamp": 134430607066272,
      "time_usec": 134430607066
    },
    {
      "frame_id": 163,
      "sensor_timestamp": 134430640312609,
      "time_usec": 134430640312
    },
    {
      "frame_id": 164,
      "sensor_timestamp": 134430673558947,
      "time_usec": 134430673558
    },
    {
      "frame_id": 165,
      "sensor_timestamp": 134430706805529,
      "time_usec": 134430706805
    },
    {
      "frame_id": 166,
      "sensor_timestamp": 134430740051867,
      "time_usec": 134430740051
    },
    {
      "frame_id": 167,
      "sensor_timestamp": 134430773298205,
      "time_usec": 134430773298
    },
    {
      "frame_id": 168,
      "sensor_timestamp": 134430806544543,
      "time_usec": 134430806544
    },
    {
      "frame_id": 169,
      "sensor_timestamp": 134430839791125,
      "time_usec": 134430839791
    },
    {
      "frame_id": 170,
      "sensor_timestamp": 134430873037463,
      "time_usec": 134430873037
    },
    {
      "frame_id": 171,
      "sensor_timestamp": 134430906283801,
      "time_usec": 134430906283
    },
    {
      "frame_id": 172,
      "sensor_timestamp": 134430939530139,
      "time_usec": 134430939530
    },
    {
      "frame_id": 173,
      "sensor_timestamp": 134430972776721,
      "time_usec": 134430972776
    },
    {
      "frame_id": 174,
      "sensor_timestamp": 134431006023059,
      "time_usec": 134431006023
    },
    {
      "frame_id": 175,
      "sensor_timestamp": 134431039269397,
      "time_usec": 134431039269
    },
    {
      "frame_id": 176,
      "sensor_timestamp": 134431072515734,
      "time_usec": 134431072515
    },
    {
      "frame_id": 177,
      "sensor_timestamp": 134431105762072,
      "time_usec": 134431105762
    },
    {
      "frame_id": 178,
      "sensor_timestamp": 134431139008654,
      "time_usec": 134431139008
    },
    {
      "frame_id": 179,
      "sensor_timestamp": 134431172254992,
      "time_usec": 134431172254
    },
    {
      "frame_id": 180,
      "sensor_timestamp": 134431205501330,
      "time_usec": 134431205501
    },
    {
      "frame_id": 181,
      "sensor_timestamp": 134431238747668,
      "time_usec": 134431238747
    },
    {
      "frame_id": 182,
      "sensor_timestamp": 134431271994250,
      "time_usec": 134431271994
    },
    {
      "frame_id": 183,
      "sensor_timestamp": 134431305240588,
      "time_usec": 134431305240
    },
    {
      "frame_id": 184,
      "sensor_timestamp": 134431338486926,
      "time_usec": 134431338486
    },
    {
      "frame_id": 185,
      "sensor_timestamp": 134431371733264,
      "time_usec": 134431371733
    },
    {
      "frame_id": 186,
      "sensor_timestamp": 134431404979846,
      "time_usec": 134431404979
    },
    {
      "frame_id": 187,
      "sensor_timestamp": 134431438226184,
      "time_usec": 134431438226
    },
    {
      "frame_id": 188,
      "sensor_timestamp": 134431471472522,
      "time_usec": 134431471472
    },
    {
      "frame_id": 189,
      "sensor_timestamp": 134431504718859,
      "time_usec": 134431504718
    },
    {
      "frame_id": 190,
      "sensor_timestamp": 134431537965441,
      "time_usec": 134431537965
    },
    {
      "frame_id": 191,
      "sensor_timestamp": 134431571211779,
      "time_usec": 134431571211
    },
    {
      "frame_id": 192,
      "sensor_timestamp": 134431604458117,
      "time_usec": 134431604458
    },
    {
      "frame_id": 193,
      "sensor_timestamp": 134431637704455,
      "time_usec": 134431637704
    },
    {
      "frame_id": 194,
      "sensor_timestamp": 134431670951037,
      "time_usec": 134431670951
    },
    {
      "frame_id": 195,
      "sensor_timestamp": 134431704197375,
      "time_usec": 134431704197
    },
    {
      "frame_id": 196,
      "sensor_timestamp": 134431737443713,
      "time_usec": 134431737443
    },
    {
      "frame_id": 197,
      "sensor_timestamp": 134431770690051,
      "time_usec": 134431770690
    },
    {
      "frame_id": 198,
      "sensor_timestamp": 134431803936633,
      "time_usec": 134431803936
    },
    {
      "frame_id": 199,
      "sensor_timestamp": 134431837182971,
      "time_usec": 134431837182
    },
    {
      "frame_id": 200,
      "sensor_timestamp": 134431870429309,
      "time_usec": 134431870429
    },
    {
      "frame_id": 201,
      "sensor_timestamp": 134431903675647,
      "time_usec": 134431903675
    },
    {
      "frame_id": 202,
      "sensor_timestamp": 134431936922229,
      "time_usec": 134431936922
    },
    {
      "frame_id": 203,
      "sensor_timestamp": 134431970168566,
      "time_usec": 134431970168
    },
    {
      "frame_id": 204,
      "sensor_timestamp": 134432003414904,
      "time_usec": 134432003414
    },
    {
      "frame_id": 205,
      "sensor_timestamp": 134432036661242,
      "time_usec": 134432036661
    },
    {
      "frame_id": 206,
      "sensor_timestamp": 134432069907824,
      "time_usec": 134432069907
    },
    {
      "frame_id": 207,
      "sensor_timestamp": 134432103154162,
      "time_usec": 134432103154
    },
    {
      "frame_id": 208,
      "sensor_timestamp": 134432136400500,
      "time_usec": 134432136400
    },
    {
      "frame_id": 209,
      "sensor_timestamp": 134432169646838,
      "time_usec": 134432169646
    },
    {
      "frame_id": 210,
      "sensor_timestamp": 134432202893420,
      "time_usec": 134432202893
    },
    {
      "frame_id": 211,
      "sensor_timestamp": 134432236139758,
      "time_usec": 134432236139
    },
    {
      "frame_id": 212,
      "sensor_timestamp": 134432269386096,
      "time_usec": 134432269386
    },
    {
      "frame_id": 213,
      "sensor_timestamp": 134432302598375,
      "time_usec": 134432302598
    },
    {
      "frame_id": 214,
      "sensor_timestamp": 134432335878772,
      "time_usec": 134432335878
    },
    {
      "frame_id": 215,
      "sensor_timestamp": 134432369125354,
      "time_usec": 134432369125
    },
    {
      "frame_id": 216,
      "sensor_timestamp": 134432402371691,
      "time_usec": 134432402371
    },
    {
      "frame_id": 217,
      "sensor_timestamp": 134432435618029,
      "time_usec": 134432435618
    },
    {
      "frame_id": 218,
      "sensor_timestamp": 134432468864367,
      "time_usec": 134432468864
    },
    {
      "frame_id": 219,
      "sensor_timestamp": 134432502110949,
      "time_usec": 134432502110
    },
    {
      "frame_id": 220,
      "sensor_timestamp": 134432535357287,
      "time_usec": 134432535357
    },
    {
      "frame_id": 221,
      "sensor_timestamp": 134432568603625,
      "time_usec": 134432568603
    },
    {
      "frame_id": 222,
      "sensor_timestamp": 134432601849963,
      "time_usec": 134432601849
    },
    {
      "frame_id": 223,
      "sensor_timestamp": 134432635096545,
      "time_usec": 134432635096
    },
    {
      "frame_id": 224,
      "sensor_timestamp": 134432668342883,
      "time_usec": 134432668342
    },
    {
      "frame_id": 225,
      "sensor_timestamp": 134432701589221,
      "time_usec": 134432701589
    },
    {
      "frame_id": 226,
      "sensor_timestamp": 134432734835559,
      "time_usec": 134432734835
    },
    {
      "frame_id": 227,
      "sensor_timestamp": 134432768082141,
      "time_usec": 134432768082
    },
    {
      "frame_id": 228,
      "sensor_timestamp": 134432801328479,
      "time_usec": 134432801328
    },
    {
      "frame_id": 229,
      "sensor_timestamp": 134432834574816,
      "time_usec": 134432834574
    },
    {
      "frame_id": 230,
      "sensor_timestamp": 134432867821154,
      "time_usec": 134432867821
    },
    {
      "frame_id": 231,
      "sensor_timestamp": 134432901067736,
      "time_usec": 134432901067
    },
    {
      "frame_id": 232,
      "sensor_timestamp": 134432934314074,
      "time_usec": 134432934314
    },
    {
      "frame_id": 233,
      "sensor_timestamp": 134432967560412,
      "time_usec": 134432967560
    },
    {
      "frame_id": 234,
      "sensor_timestamp": 134433000769395,
      "time_usec": 134433000769
    },
    {
      "frame_id": 235,
      "sensor_timestamp": 134433034053332,
      "time_usec": 134433034053
    },
    {
      "frame_id": 236,
      "sensor_timestamp": 134433067299670,
      "time_usec": 134433067299
    },
    {
      "frame_id": 237,
      "sensor_timestamp": 134433100546008,
      "time_usec": 134433100546
    },
    {
      "frame_id": 238,
      "sensor_timestamp": 134433133792346,
      "time_usec": 134433133792
    },
    {
      "frame_id": 239,
      "sensor_timestamp": 134433167038928,
      "time_usec": 134433167038
    },
    {
      "frame_id": 240,
      "sensor_timestamp": 134433200285266,
      "time_usec": 134433200285
    },
    {
      "frame_id": 241,
      "sensor_timestamp": 134433233531604,
      "time_usec": 134433233531
    },
    {
      "frame_id": 242,
      "sensor_timestamp": 134433266777941,
      "time_usec": 134433266777
    },
    {
      "frame_id": 243,
      "sensor_timestamp": 134433300024523,
      "time_usec": 134433300024
    },
    {
      "frame_id": 244,
      "sensor_timestamp": 134433333270861,
      "time_usec": 134433333270
    },
    {
      "frame_id": 245,
      "sensor_timestamp": 134433366517199,
      "time_usec": 134433366517
    },
    {
      "frame_id": 246,
      "sensor_timestamp": 134433399763537,
      "time_usec": 134433399763
    },
    {
      "frame_id": 247,
      "sensor_timestamp": 134433433010119,
      "time_usec": 134433433010
    },
    {
      "frame_id": 248,
      "sensor_timestamp": 134433466256457,
      "time_usec": 134433466256
    },
    {
      "frame_id": 249,
      "sensor_timestamp": 134433499502795,
      "time_usec": 134433499502
    },
    {
      "frame_id": 250,
      "sensor_timestamp": 134433532749133,
      "time_usec": 134433532749
    },
    {
      "frame_id": 251,
      "sensor_timestamp": 134433565995471,
      "time_usec": 134433565995
    },
    {
      "frame_id": 252,
      "sensor_timestamp": 134433599242053,
      "time_usec": 134433599242
    },
    {
      "frame_id": 253,
      "sensor_timestamp": 134433632488391,
      "time_usec": 134433632488
    },
    {
      "frame_id": 254,
      "sensor_timestamp": 134433665734729,
      "time_usec": 134433665734
    },
    {
      "frame_id": 255,
      "sensor_timestamp": 134433698981066,
      "time_usec": 134433698981
    },
    {
      "frame_id": 256,
      "sensor_timestamp": 134433732227648,
      "time_usec": 134433732227
    },
    {
      "frame_id": 257,
      "sensor_timestamp": 134433765473986,
      "time_usec": 134433765473
    },
    {
      "frame_id": 258,
      "sensor_timestamp": 134433798720324,
      "time_usec": 134433798720
    },
    {
      "frame_id": 259,
      "sensor_timestamp": 134433831966662,
      "time_usec": 134433831966
    },
    {
      "frame_id": 260,
      "sensor_timestamp": 134433865213244,
      "time_usec": 134433865213
    },
    {
      "frame_id": 261,
      "sensor_timestamp": 134433898459582,
      "time_usec": 134433898459
    },
    {
      "frame_id": 262,
      "sensor_timestamp": 134433931705920,
      "time_usec": 134433931705
    },
    {
      "frame_id": 263,
      "sensor_timestamp": 134433964924384,
      "time_usec": 134433964924
    },
    {
      "frame_id": 264,
      "sensor_timestamp": 134433998198840,
      "time_usec": 134433998198
    },
    {
      "frame_id": 265,
      "sensor_timestamp": 134434031445178,
      "time_usec": 134434031445
    },
    {
      "frame_id": 266,
      "sensor_timestamp": 134434064691516,
      "time_usec": 134434064691
    },
    {
      "frame_id": 267,
      "sensor_timestamp": 134434097937854,
      "time_usec": 134434097937
    },
    {
      "frame_id": 268,
      "sensor_timestamp": 134434131184436,
      "time_usec": 134434131184
    },
    {
      "frame_id": 269,
      "sensor_timestamp": 134434164430773,
      "time_usec": 134434164430
    },
    {
      "frame_id": 270,
      "sensor_timestamp": 134434197677111,
      "time_usec": 134434197677
    },
    {
      "frame_id": 271,
      "sensor_timestamp": 134434230923449,
      "time_usec": 134434230923
    },
    {
      "frame_id": 272,
      "sensor_timestamp": 134434264170031,
      "time_usec": 134434264170
    },
    {
      "frame_id": 273,
      "sensor_timestamp": 134434297416369,
      "time_usec": 134434297416
    },
    {
      "frame_id": 274,
      "sensor_timestamp": 134434330662707,
      "time_usec": 134434330662
    },
    {
      "frame_id": 275,
      "sensor_timestamp": 134434363909045,
      "time_usec": 134434363909
    },
    {
      "frame_id": 276,
      "sensor_timestamp": 134434397155627,
      "time_usec": 134434397155
    },
    {
      "frame_id": 277,
      "sensor_timestamp": 134434430401965,
      "time_usec": 134434430401
    },
    {
      "frame_id": 278,
      "sensor_timestamp": 134434463648303,
      "time_usec": 134434463648
    },
    {
      "frame_id": 279,
      "sensor_timestamp": 134434496894641,
      "time_usec": 134434496894
    },
    {
      "frame_id": 280,
      "sensor_timestamp": 134434530141223,
      "time_usec": 134434530141
    },
    {
      "frame_id": 281,
      "sensor_timestamp": 134434563387561,
      "time_usec": 134434563387
    },
    {
      "frame_id": 282,
      "sensor_timestamp": 134434596633898,
      "time_usec": 134434596633
    },
    {
      "frame_id": 283,
      "sensor_timestamp": 134434629880236,
      "time_usec": 134434629880
    },
    {
      "frame_id": 284,
      "sensor_timestamp": 134434663126574,
      "time_usec": 134434663126
    },
    {
      "frame_id": 285,
      "sensor_timestamp": 134434696373156,
      "time_usec": 134434696373
    },
    {
      "frame_id": 286,
      "sensor_timestamp": 134434729619494,
      "time_usec": 134434729619
    },
    {
      "frame_id": 287,
      "sensor_timestamp": 134434762865832,
      "time_usec": 134434762865
    },
    {
      "frame_id": 288,
      "sensor_timestamp": 134434796112170,
      "time_usec": 134434796112
    },
    {
      "frame_id": 289,
      "sensor_timestamp": 134434829358752,
      "time_usec": 134434829358
    },
    {
      "frame_id": 290,
      "sensor_timestamp": 134434862605090,
      "time_usec": 134434862605
    },
    {
      "frame_id": 291,
      "sensor_timestamp": 134434895851428,
      "time_usec": 134434895851
    },
    {
      "frame_id": 292,
      "sensor_timestamp": 134434929097766,
      "time_usec": 134434929097
    },
    {
      "frame_id": 293,
      "sensor_timestamp": 134434962344348,
      "time_usec": 134434962344
    },
    {
      "frame_id": 294,
      "sensor_timestamp": 134434995590686,
      "time_usec": 134434995590
    },
    {
      "frame_id": 295,
      "sensor_timestamp": 134435028837023,
      "time_usec": 134435028837
    },
    {
      "frame_id": 296,
      "sensor_timestamp": 134435062083361,
      "time_usec": 134435062083
    },
    {
      "frame_id": 297,
      "sensor_timestamp": 134435095329943,
      "time_usec": 134435095329
    },
    {
      "frame_id": 298,
      "sensor_timestamp": 134435128576281,
      "time_usec": 134435128576
    },
    {
      "frame_id": 299,
      "sensor_timestamp": 134435161822619,
      "time_usec": 134435161822
    },
    {
      "frame_id": 300,
      "sensor_timestamp": 134435195068957,
      "time_usec": 134435195068
    },
    {
      "frame_id": 301,
      "sensor_timestamp": 134435228315539,
      "time_usec": 134435228315
    },
    {
      "frame_id": 302,
      "sensor_timestamp": 134435261561877,
      "time_usec": 134435261561
    },
    {
      "frame_id": 303,
      "sensor_timestamp": 134435294808215,
      "time_usec": 134435294808
    },
    {
      "frame_id": 304,
      "sensor_timestamp": 134435328054553,
      "time_usec": 134435328054
    },
    {
      "frame_id": 305,
      "sensor_timestamp": 134435361301135,
      "time_usec": 134435361301
    },
    {
      "frame_id": 306,
      "sensor_timestamp": 134435394547473,
      "time_usec": 134435394547
    },
    {
      "frame_id": 307,
      "sensor_timestamp": 134435427793811,
      "time_usec": 134435427793
    },
    {
      "frame_id": 308,
      "sensor_timestamp": 134435461040148,
      "time_usec": 134435461040
    },
    {
      "frame_id": 309,
      "sensor_timestamp": 134435494286731,
      "time_usec": 134435494286
    },
    {
      "frame_id": 310,
      "sensor_timestamp": 134435527533068,
      "time_usec": 134435527533
    },
    {
      "frame_id": 311,
      "sensor_timestamp": 134435560779406,
      "time_usec": 134435560779
    },
    {
      "frame_id": 312,
      "sensor_timestamp": 134435594025744,
      "time_usec": 134435594025
    },
    {
      "frame_id": 313,
      "sensor_timestamp": 134435627272326,
      "time_usec": 134435627272
    },
    {
      "frame_id": 314,
      "sensor_timestamp": 134435660518664,
      "time_usec": 134435660518
    },
    {
      "frame_id": 315,
      "sensor_timestamp": 134435693765002,
      "time_usec": 134435693765
    },
    {
      "frame_id": 316,
      "sensor_timestamp": 134435727011340,
      "time_usec": 134435727011
    },
    {
      "frame_id": 317,
      "sensor_timestamp": 134435760257922,
      "time_usec": 134435760257
    },
    {
      "frame_id": 318,
      "sensor_timestamp": 134435793504260,
      "time_usec": 134435793504
    },
    {
      "frame_id": 319,
      "sensor_timestamp": 134435826750598,
      "time_usec": 134435826750
    },
    {
      "frame_id": 320,
      "sensor_timestamp": 134435859996936,
      "time_usec": 134435859996
    },
    {
      "frame_id": 321,
      "sensor_timestamp": 134435893243273,
      "time_usec": 134435893243
    },
    {
      "frame_id": 322,
      "sensor_timestamp": 134435926489856,
      "time_usec": 134435926489
    },
    {
      "frame_id": 323,
      "sensor_timestamp": 134435959736193,
      "time_usec": 134435959736
    },
    {
      "frame_id": 324,
      "sensor_timestamp": 134435992982531,
      "time_usec": 134435992982
    },
    {
      "frame_id": 325,
      "sensor_timestamp": 134436026228869,
      "time_usec": 134436026228
    },
    {
      "frame_id": 326,
      "sensor_timestamp": 134436059475451,
      "time_usec": 134436059475
    },
    {
      "frame_id": 327,
      "sensor_timestamp": 134436092721789,
      "time_usec": 134436092721
    },
    {
      "frame_id": 328,
      "sensor_timestamp": 134436125968127,
      "time_usec": 134436125968
    },
    {
      "frame_id": 329,
      "sensor_timestamp": 134436159214465,
      "time_usec": 134436159214
    },
    {
      "frame_id": 330,
      "sensor_timestamp": 134436192461047,
      "time_usec": 134436192461
    },
    {
      "frame_id": 331,
      "sensor_timestamp": 134436225707385,
      "time_usec": 134436225707
    },
    {
      "frame_id": 332,
      "sensor_timestamp": 134436258953723,
      "time_usec": 134436258953
    },
    {
      "frame_id": 333,
      "sensor_timestamp": 134436292200061,
      "time_usec": 134436292200
    },
    {
      "frame_id": 334,
      "sensor_timestamp": 134436325446643,
      "time_usec": 134436325446
    },
    {
      "frame_id": 335,
      "sensor_timestamp": 134436358692981,
      "time_usec": 134436358692
    },
    {
      "frame_id": 336,
      "sensor_timestamp": 134436391939318,
      "time_usec": 134436391939
    },
    {
      "frame_id": 337,
      "sensor_timestamp": 134436425185656,
      "time_usec": 134436425185
    },
    {
      "frame_id": 338,
      "sensor_timestamp": 134436458432238,
      "time_usec": 134436458432
    },
    {
      "frame_id": 339,
      "sensor_timestamp": 134436491678576,
      "time_usec": 134436491678
    },
    {
      "frame_id": 340,
      "sensor_timestamp": 134436524924914,
      "time_usec": 134436524924
    },
    {
      "frame_id": 341,
      "sensor_timestamp": 134436558171252,
      "time_usec": 134436558171
    },
    {
      "frame_id": 342,
      "sensor_timestamp": 134436591417834,
      "time_usec": 134436591417
    },
    {
      "frame_id": 343,
      "sensor_timestamp": 134436624664172,
      "time_usec": 134436624664
    },
    {
      "frame_id": 344,
      "sensor_timestamp": 134436657910510,
      "time_usec": 134436657910
    },
    {
      "frame_id": 345,
      "sensor_timestamp": 134436691156848,
      "time_usec": 134436691156
    },
    {
      "frame_id": 346,
      "sensor_timestamp": 134436724403430,
      "time_usec": 134436724403
    },
    {
      "frame_id": 347,
      "sensor_timestamp": 134436757649768,
      "time_usec": 134436757649
    },
    {
      "frame_id": 348,
      "sensor_timestamp": 134436790896106,
      "time_usec": 134436790896
    },
    {
      "frame_id": 349,
      "sensor_timestamp": 134436824142443,
      "time_usec": 134436824142
    },
    {
      "frame_id": 350,
      "sensor_timestamp": 134436857389025,
      "time_usec": 134436857389
    },
    {
      "frame_id": 351,
      "sensor_timestamp": 134436890635363,
      "time_usec": 134436890635
    },
    {
      "frame_id": 352,
      "sensor_timestamp": 134436923881701,
      "time_usec": 134436923881
    },
    {
      "frame_id": 353,
      "sensor_timestamp": 134436957128039,
      "time_usec": 134436957128
    },
    {
      "frame_id": 354,
      "sensor_timestamp": 134436990374621,
      "time_usec": 134436990374
    },
    {
      "frame_id": 355,
      "sensor_timestamp": 134437023620959,
      "time_usec": 134437023620
    },
    {
      "frame_id": 356,
      "sensor_timestamp": 134437056867297,
      "time_usec": 134437056867
    },
    {
      "frame_id": 357,
      "sensor_timestamp": 134437090113635,
      "time_usec": 134437090113
    },
    {
      "frame_id": 358,
      "sensor_timestamp": 134437123359973,
      "time_usec": 134437123359
    },
    {
      "frame_id": 359,
      "sensor_timestamp": 134437156606555,
      "time_usec": 134437156606
    },
    {
      "frame_id": 360,
      "sensor_timestamp": 134437189852893,
      "time_usec": 134437189852
    },
    {
      "frame_id": 361,
      "sensor_timestamp": 134437223099231,
      "time_usec": 134437223099
    },
    {
      "frame_id": 362,
      "sensor_timestamp": 134437256345568,
      "time_usec": 134437256345
    },
    {
      "frame_id": 363,
      "sensor_timestamp": 134437289592150,
      "time_usec": 134437289592
    },
    {
      "frame_id": 364,
      "sensor_timestamp": 134437322838488,
      "time_usec": 134437322838
    },
    {
      "frame_id": 365,
      "sensor_timestamp": 134437356084826,
      "time_usec": 134437356084
    },
    {
      "frame_id": 366,
      "sensor_timestamp": 134437389331164,
      "time_usec": 134437389331
    },
    {
      "frame_id": 367,
      "sensor_timestamp": 134437422577746,
      "time_usec": 134437422577
    },
    {
      "frame_id": 368,
      "sensor_timestamp": 134437455824084,
      "time_usec": 134437455824
    },
    {
      "frame_id": 369,
      "sensor_timestamp": 134437489070422,
      "time_usec": 134437489070
    },
    {
      "frame_id": 370,
      "sensor_timestamp": 134437522316760,
      "time_usec": 134437522316
    },
    {
      "frame_id": 371,
      "sensor_timestamp": 134437555563342,
      "time_usec": 134437555563
    },
    {
      "frame_id": 372,
      "sensor_timestamp": 134437588809680,
      "time_usec": 134437588809
    },
    {
      "frame_id": 373,
      "sensor_timestamp": 134437622056018,
      "time_usec": 134437622056
    },
    {
      "frame_id": 374,
      "sensor_timestamp": 134437655327666,
      "time_usec": 134437655327
    },
    {
      "frame_id": 375,
      "sensor_timestamp": 134437688548938,
      "time_usec": 134437688548
    },
    {
      "frame_id": 376,
      "sensor_timestamp": 134437721795275,
      "time_usec": 134437721795
    },
    {
      "frame_id": 377,
      "sensor_timestamp": 134437755041613,
      "time_usec": 134437755041
    },
    {
      "frame_id": 378,
      "sensor_timestamp": 134437788287951,
      "time_usec": 134437788287
    },
    {
      "frame_id": 379,
      "sensor_timestamp": 134437821534533,
      "time_usec": 134437821534
    },
    {
      "frame_id": 380,
      "sensor_timestamp": 134437854780871,
      "time_usec": 134437854780
    },
    {
      "frame_id": 381,
      "sensor_timestamp": 134437888027209,
      "time_usec": 134437888027
    },
    {
      "frame_id": 382,
      "sensor_timestamp": 134437921273547,
      "time_usec": 134437921273
    },
    {
      "frame_id": 383,
      "sensor_timestamp": 134437954520129,
      "time_usec": 134437954520
    },
    {
      "frame_id": 384,
      "sensor_timestamp": 134437987766467,
      "time_usec": 134437987766
    },
    {
      "frame_id": 385,
      "sensor_timestamp": 134438021012805,
      "time_usec": 134438021012
    },
    {
      "frame_id": 386,
      "sensor_timestamp": 134438054259143,
      "time_usec": 134438054259
    },
    {
      "frame_id": 387,
      "sensor_timestamp": 134438087505725,
      "time_usec": 134438087505
    },
    {
      "frame_id": 388,
      "sensor_timestamp": 134438120752063,
      "time_usec": 134438120752
    },
    {
      "frame_id": 389,
      "sensor_timestamp": 134438153998400,
      "time_usec": 134438153998
    },
    {
      "frame_id": 390,
      "sensor_timestamp": 134438187244738,
      "time_usec": 134438187244
    },
    {
      "frame_id": 391,
      "sensor_timestamp": 134438220491320,
      "time_usec": 134438220491
    },
    {
      "frame_id": 392,
      "sensor_timestamp": 134438253737658,
      "time_usec": 134438253737
    },
    {
      "frame_id": 393,
      "sensor_timestamp": 134438286983996,
      "time_usec": 134438286983
    },
    {
      "frame_id": 394,
      "sensor_timestamp": 134438320230334,
      "time_usec": 134438320230
    },
    {
      "frame_id": 395,
      "sensor_timestamp": 134438353476672,
      "time_usec": 134438353476
    },
    {
      "frame_id": 396,
      "sensor_timestamp": 134438386723254,
      "time_usec": 134438386723
    },
    {
      "frame_id": 397,
      "sensor_timestamp": 134438419969592,
      "time_usec": 134438419969
    },
    {
      "frame_id": 398,
      "sensor_timestamp": 134438453215930,
      "time_usec": 134438453215
    },
    {
      "frame_id": 399,
      "sensor_timestamp": 134438486462268,
      "time_usec": 134438486462
    },
    {
      "frame_id": 400,
      "sensor_timestamp": 134438519708850,
      "time_usec": 134438519708
    },
    {
      "frame_id": 401,
      "sensor_timestamp": 134438552955188,
      "time_usec": 134438552955
    },
    {
      "frame_id": 402,
      "sensor_timestamp": 134438586201525,
      "time_usec": 134438586201
    },
    {
      "frame_id": 403,
      "sensor_timestamp": 134438619447863,
      "time_usec": 134438619447
    },
    {
      "frame_id": 404,
      "sensor_timestamp": 134438652694445,
      "time_usec": 134438652694
    },
    {
      "frame_id": 405,
      "sensor_timestamp": 134438685940783,
      "time_usec": 134438685940
    },
    {
      "frame_id": 406,
      "sensor_timestamp": 134438719187121,
      "time_usec": 134438719187
    },
    {
      "frame_id": 407,
      "sensor_timestamp": 134438752433459,
      "time_usec": 134438752433
    },
    {
      "frame_id": 408,
      "sensor_timestamp": 134438785680041,
      "time_usec": 134438785680
    },
    {
      "frame_id": 409,
      "sensor_timestamp": 134438818926379,
      "time_usec": 134438818926
    },
    {
      "frame_id": 410,
      "sensor_timestamp": 134438852172717,
      "time_usec": 134438852172
    },
    {
      "frame_id": 411,
      "sensor_timestamp": 134438885419055,
      "time_usec": 134438885419
    },
    {
      "frame_id": 412,
      "sensor_timestamp": 134438918665637,
      "time_usec": 134438918665
    },
    {
      "frame_id": 413,
      "sensor_timestamp": 134438951911975,
      "time_usec": 134438951911
    },
    {
      "frame_id": 414,
      "sensor_timestamp": 134438985158313,
      "time_usec": 134438985158
    },
    {
      "frame_id": 415,
      "sensor_timestamp": 134439018404650,
      "time_usec": 134439018404
    },
    {
      "frame_id": 416,
      "sensor_timestamp": 134439051651232,
      "time_usec": 134439051651
    },
    {
      "frame_id": 417,
      "sensor_timestamp": 134439084897570,
      "time_usec": 134439084897
    },
    {
      "frame_id": 418,
      "sensor_timestamp": 134439118143908,
      "time_usec": 134439118143
    },
    {
      "frame_id": 419,
      "sensor_timestamp": 134439151390246,
      "time_usec": 134439151390
    },
    {
      "frame_id": 420,
      "sensor_timestamp": 134439184636828,
      "time_usec": 134439184636
    },
    {
      "frame_id": 421,
      "sensor_timestamp": 134439217883166,
      "time_usec": 134439217883
    },
    {
      "frame_id": 422,
      "sensor_timestamp": 134439251129504,
      "time_usec": 134439251129
    },
    {
      "frame_id": 423,
      "sensor_timestamp": 134439284375842,
      "time_usec": 134439284375
    },
    {
      "frame_id": 424,
      "sensor_timestamp": 134439317622424,
      "time_usec": 134439317622
    },
    {
      "frame_id": 425,
      "sensor_timestamp": 134439350868762,
      "time_usec": 134439350868
    },
    {
      "frame_id": 426,
      "sensor_timestamp": 134439384115100,
      "time_usec": 134439384115
    },
    {
      "frame_id": 427,
      "sensor_timestamp": 134439417361438,
      "time_usec": 134439417361
    },
    {
      "frame_id": 428,
      "sensor_timestamp": 134439450608020,
      "time_usec": 134439450608
    },
    {
      "frame_id": 429,
      "sensor_timestamp": 134439483854357,
      "time_usec": 134439483854
    },
    {
      "frame_id": 430,
      "sensor_timestamp": 134439517100695,
      "time_usec": 134439517100
    },
    {
      "frame_id": 431,
      "sensor_timestamp": 134439550347033,
      "time_usec": 134439550347
    },
    {
      "frame_id": 432,
      "sensor_timestamp": 134439583593371,
      "time_usec": 134439583593
    },
    {
      "frame_id": 433,
      "sensor_timestamp": 134439616839953,
      "time_usec": 134439616839
    },
    {
      "frame_id": 434,
      "sensor_timestamp": 134439650086291,
      "time_usec": 134439650086
    },
    {
      "frame_id": 435,
      "sensor_timestamp": 134439683332629,
      "time_usec": 134439683332
    },
    {
      "frame_id": 436,
      "sensor_timestamp": 134439716578967,
      "time_usec": 134439716578
    },
    {
      "frame_id": 437,
      "sensor_timestamp": 134439749825549,
      "time_usec": 134439749825
    },
    {
      "frame_id": 438,
      "sensor_timestamp": 134439783071887,
      "time_usec": 134439783071
    },
    {
      "frame_id": 439,
      "sensor_timestamp": 134439816318225,
      "time_usec": 134439816318
    },
    {
      "frame_id": 440,
      "sensor_timestamp": 134439849554799,
      "time_usec": 134439849554
    },
    {
      "frame_id": 441,
      "sensor_timestamp": 134439882811145,
      "time_usec": 134439882811
    },
    {
      "frame_id": 442,
      "sensor_timestamp": 134439916057482,
      "time_usec": 134439916057
    },
    {
      "frame_id": 443,
      "sensor_timestamp": 134439949303820,
      "time_usec": 134439949303
    },
    {
      "frame_id": 444,
      "sensor_timestamp": 134439982550158,
      "time_usec": 134439982550
    },
    {
      "frame_id": 445,
      "sensor_timestamp": 134440015796740,
      "time_usec": 134440015796
    },
    {
      "frame_id": 446,
      "sensor_timestamp": 134440049043078,
      "time_usec": 134440049043
    },
    {
      "frame_id": 447,
      "sensor_timestamp": 134440082289416,
      "time_usec": 134440082289
    },
    {
      "frame_id": 448,
      "sensor_timestamp": 134440115535754,
      "time_usec": 134440115535
    },
    {
      "frame_id": 449,
      "sensor_timestamp": 134440148782336,
      "time_usec": 134440148782
    },
    {
      "frame_id": 450,
      "sensor_timestamp": 134440182028674,
      "time_usec": 134440182028
    },
    {
      "frame_id": 451,
      "sensor_timestamp": 134440215275012,
      "time_usec": 134440215275
    },
    {
      "frame_id": 452,
      "sensor_timestamp": 134440248521350,
      "time_usec": 134440248521
    },
    {
      "frame_id": 453,
      "sensor_timestamp": 134440281767932,
      "time_usec": 134440281767
    },
    {
      "frame_id": 454,
      "sensor_timestamp": 134440315014270,
      "time_usec": 134440315014
    },
    {
      "frame_id": 455,
      "sensor_timestamp": 134440348260607,
      "time_usec": 134440348260
    },
    {
      "frame_id": 456,
      "sensor_timestamp": 134440381506945,
      "time_usec": 134440381506
    },
    {
      "frame_id": 457,
      "sensor_timestamp": 134440414753527,
      "time_usec": 134440414753
    },
    {
      "frame_id": 458,
      "sensor_timestamp": 134440447999865,
      "time_usec": 134440447999
    },
    {
      "frame_id": 459,
      "sensor_timestamp": 134440481246203,
      "time_usec": 134440481246
    },
    {
      "frame_id": 460,
      "sensor_timestamp": 134440514492541,
      "time_usec": 134440514492
    },
    {
      "frame_id": 461,
      "sensor_timestamp": 134440547739123,
      "time_usec": 134440547739
    },
    {
      "frame_id": 462,
      "sensor_timestamp": 134440580985461,
      "time_usec": 134440580985
    },
    {
      "frame_id": 463,
      "sensor_timestamp": 134440614231799,
      "time_usec": 134440614231
    },
    {
      "frame_id": 464,
      "sensor_timestamp": 134440647478137,
      "time_usec": 134440647478
    },
    {
      "frame_id": 465,
      "sensor_timestamp": 134440680724719,
      "time_usec": 134440680724
    },
    {
      "frame_id": 466,
      "sensor_timestamp": 134440713971057,
      "time_usec": 134440713971
    },
    {
      "frame_id": 467,
      "sensor_timestamp": 134440747217395,
      "time_usec": 134440747217
    },
    {
      "frame_id": 468,
      "sensor_timestamp": 134440780463732,
      "time_usec": 134440780463
    },
    {
      "frame_id": 469,
      "sensor_timestamp": 134440813710070,
      "time_usec": 134440813710
    },
    {
      "frame_id": 470,
      "sensor_timestamp": 134440846956652,
      "time_usec": 134440846956
    },
    {
      "frame_id": 471,
      "sensor_timestamp": 134440880202990,
      "time_usec": 134440880202
    },
    {
      "frame_id": 472,
      "sensor_timestamp": 134440913449328,
      "time_usec": 134440913449
    },
    {
      "frame_id": 473,
      "sensor_timestamp": 134440946695666,
      "time_usec": 134440946695
    },
    {
      "frame_id": 474,
      "sensor_timestamp": 134440979942248,
      "time_usec": 134440979942
    },
    {
      "frame_id": 475,
      "sensor_timestamp": 134441013188586,
      "time_usec": 134441013188
    },
    {
      "frame_id": 476,
      "sensor_timestamp": 134441046434924,
      "time_usec": 134441046434
    },
    {
      "frame_id": 477,
      "sensor_timestamp": 134441079681262,
      "time_usec": 134441079681
    },
    {
      "frame_id": 478,
      "sensor_timestamp": 134441112927844,
      "time_usec": 134441112927
    },
    {
      "frame_id": 479,
      "sensor_timestamp": 134441146174182,
      "time_usec": 134441146174
    },
    {
      "frame_id": 480,
      "sensor_timestamp": 134441179420520,
      "time_usec": 134441179420
    },
    {
      "frame_id": 481,
      "sensor_timestamp": 134441212666857,
      "time_usec": 134441212666
    },
    {
      "frame_id": 482,
      "sensor_timestamp": 134441245913439,
      "time_usec": 134441245913
    },
    {
      "frame_id": 483,
      "sensor_timestamp": 134441279159777,
      "time_usec": 134441279159
    },
    {
      "frame_id": 484,
      "sensor_timestamp": 134441312406115,
      "time_usec": 134441312406
    },
    {
      "frame_id": 485,
      "sensor_timestamp": 134441345652453,
      "time_usec": 134441345652
    },
    {
      "frame_id": 486,
      "sensor_timestamp": 134441378899035,
      "time_usec": 134441378899
    },
    {
      "frame_id": 487,
      "sensor_timestamp": 134441412145373,
      "time_usec": 134441412145
    },
    {
      "frame_id": 488,
      "sensor_timestamp": 134441445391711,
      "time_usec": 134441445391
    },
    {
      "frame_id": 489,
      "sensor_timestamp": 134441478638049,
      "time_usec": 134441478638
    },
    {
      "frame_id": 490,
      "sensor_timestamp": 134441511884631,
      "time_usec": 134441511884
    },
    {
      "frame_id": 491,
      "sensor_timestamp": 134441545130969,
      "time_usec": 134441545130
    },
    {
      "frame_id": 492,
      "sensor_timestamp": 134441578377307,
      "time_usec": 134441578377
    },
    {
      "frame_id": 493,
      "sensor_timestamp": 134441611623645,
      "time_usec": 134441611623
    },
    {
      "frame_id": 494,
      "sensor_timestamp": 134441644870227,
      "time_usec": 134441644870
    },
    {
      "frame_id": 495,
      "sensor_timestamp": 134441678116564,
      "time_usec": 134441678116
    },
    {
      "frame_id": 496,
      "sensor_timestamp": 134441711362902,
      "time_usec": 134441711362
    },
    {
      "frame_id": 497,
      "sensor_timestamp": 134441744609240,
      "time_usec": 134441744609
    },
    {
      "frame_id": 498,
      "sensor_timestamp": 134441777855822,
      "time_usec": 134441777855
    },
    {
      "frame_id": 499,
      "sensor_timestamp": 134441811102160,
      "time_usec": 134441811102
    },
    {
      "frame_id": 500,
      "sensor_timestamp": 134441844348498,
      "time_usec": 134441844348
    },
    {
      "frame_id": 501,
      "sensor_timestamp": 134441877594836,
      "time_usec": 134441877594
    },
    {
      "frame_id": 502,
      "sensor_timestamp": 134441910841174,
      "time_usec": 134441910841
    },
    {
      "frame_id": 503,
      "sensor_timestamp": 134441944087756,
      "time_usec": 134441944087
    },
    {
      "frame_id": 504,
      "sensor_timestamp": 134441977334094,
      "time_usec": 134441977334
    },
    {
      "frame_id": 505,
      "sensor_timestamp": 134442010580432,
      "time_usec": 134442010580
    },
    {
      "frame_id": 506,
      "sensor_timestamp": 134442043826770,
      "time_usec": 134442043826
    },
    {
      "frame_id": 507,
      "sensor_timestamp": 134442077073352,
      "time_usec": 134442077073
    },
    {
      "frame_id": 508,
      "sensor_timestamp": 134442110319689,
      "time_usec": 134442110319
    },
    {
      "frame_id": 509,
      "sensor_timestamp": 134442143566027,
      "time_usec": 134442143566
    },
    {
      "frame_id": 510,
      "sensor_timestamp": 134442176812365,
      "time_usec": 134442176812
    },
    {
      "frame_id": 511,
      "sensor_timestamp": 134442210248648,
      "time_usec": 134442210248
    },
    {
      "frame_id": 512,
      "sensor_timestamp": 134442243305285,
      "time_usec": 134442243305
    },
    {
      "frame_id": 513,
      "sensor_timestamp": 134442276551623,
      "time_usec": 134442276551
    },
    {
      "frame_id": 514,
      "sensor_timestamp": 134442309797961,
      "time_usec": 134442309797
    },
    {
      "frame_id": 515,
      "sensor_timestamp": 134442343044543,
      "time_usec": 134442343044
    },
    {
      "frame_id": 516,
      "sensor_timestamp": 134442376290881,
      "time_usec": 134442376290
    },
    {
      "frame_id": 517,
      "sensor_timestamp": 134442409537219,
      "time_usec": 134442409537
    },
    {
      "frame_id": 518,
      "sensor_timestamp": 134442442783557,
      "time_usec": 134442442783
    },
    {
      "frame_id": 519,
      "sensor_timestamp": 134442476030139,
      "time_usec": 134442476030
    },
    {
      "frame_id": 520,
      "sensor_timestamp": 134442509276477,
      "time_usec": 134442509276
    },
    {
      "frame_id": 521,
      "sensor_timestamp": 134442542522814,
      "time_usec": 134442542522
    },
    {
      "frame_id": 522,
      "sensor_timestamp": 134442575769152,
      "time_usec": 134442575769
    },
    {
      "frame_id": 523,
      "sensor_timestamp": 134442609015734,
      "time_usec": 134442609015
    },
    {
      "frame_id": 524,
      "sensor_timestamp": 134442642262072,
      "time_usec": 134442642262
    },
    {
      "frame_id": 525,
      "sensor_timestamp": 134442675508410,
      "time_usec": 134442675508
    },
    {
      "frame_id": 526,
      "sensor_timestamp": 134442708754748,
      "time_usec": 134442708754
    },
    {
      "frame_id": 527,
      "sensor_timestamp": 134442742001330,
      "time_usec": 134442742001
    },
    {
      "frame_id": 528,
      "sensor_timestamp": 134442775247668,
      "time_usec": 134442775247
    },
    {
      "frame_id": 529,
      "sensor_timestamp": 134442808494006,
      "time_usec": 134442808494
    },
    {
      "frame_id": 530,
      "sensor_timestamp": 134442841740344,
      "time_usec": 134442841740
    },
    {
      "frame_id": 531,
      "sensor_timestamp": 134442874986926,
      "time_usec": 134442874986
    },
    {
      "frame_id": 532,
      "sensor_timestamp": 134442908233264,
      "time_usec": 134442908233
    },
    {
      "frame_id": 533,
      "sensor_timestamp": 134442941479602,
      "time_usec": 134442941479
    },
    {
      "frame_id": 534,
      "sensor_timestamp": 134442974725939,
      "time_usec": 134442974725
    },
    {
      "frame_id": 535,
      "sensor_timestamp": 134443007972522,
      "time_usec": 134443007972
    },
    {
      "frame_id": 536,
      "sensor_timestamp": 134443041218859,
      "time_usec": 134443041218
    },
    {
      "frame_id": 537,
      "sensor_timestamp": 134443074465197,
      "time_usec": 134443074465
    },
    {
      "frame_id": 538,
      "sensor_timestamp": 134443107711535,
      "time_usec": 134443107711
    },
    {
      "frame_id": 539,
      "sensor_timestamp": 134443140957873,
      "time_usec": 134443140957
    },
    {
      "frame_id": 540,
      "sensor_timestamp": 134443174204455,
      "time_usec": 134443174204
    },
    {
      "frame_id": 541,
