{
  "frames": [
    {
      "frame_id": 0,
      "sensor_timestamp": 95318202378283,
      "time_usec": 95318202378
    },
    {
      "frame_id": 1,
      "sensor_timestamp": 95318268870959,
      "time_usec": 95318268870
    },
    {
      "frame_id": 2,
      "sensor_timestamp": 95318302117297,
      "time_usec": 95318302117
    },
    {
      "frame_id": 3,
      "sensor_timestamp": 95318335363879,
      "time_usec": 95318335363
    },
    {
      "frame_id": 4,
      "sensor_timestamp": 95318368610217,
      "time_usec": 95318368610
    },
    {
      "frame_id": 5,
      "sensor_timestamp": 95318401856555,
      "time_usec": 95318401856
    },
    {
      "frame_id": 6,
      "sensor_timestamp": 95318435102893,
      "time_usec": 95318435102
    },
    {
      "frame_id": 7,
      "sensor_timestamp": 95318468349231,
      "time_usec": 95318468349
    },
    {
      "frame_id": 8,
      "sensor_timestamp": 95318501595813,
      "time_usec": 95318501595
    },
    {
      "frame_id": 9,
      "sensor_timestamp": 95318534842150,
      "time_usec": 95318534842
    },
    {
      "frame_id": 10,
      "sensor_timestamp": 95318568088488,
      "time_usec": 95318568088
    },
    {
      "frame_id": 11,
      "sensor_timestamp": 95318601334826,
      "time_usec": 95318601334
    },
    {
      "frame_id": 12,
      "sensor_timestamp": 95318634581408,
      "time_usec": 95318634581
    },
    {
      "frame_id": 13,
      "sensor_timestamp": 95318667827746,
      "time_usec": 95318667827
    },
    {
      "frame_id": 14,
      "sensor_timestamp": 95318701074084,
      "time_usec": 95318701074
    },
    {
      "frame_id": 15,
      "sensor_timestamp": 95318734320422,
      "time_usec": 95318734320
    },
    {
      "frame_id": 16,
      "sensor_timestamp": 95318767567004,
      "time_usec": 95318767567
    },
    {
      "frame_id": 17,
      "sensor_timestamp": 95318800813342,
      "time_usec": 95318800813
    },
    {
      "frame_id": 18,
      "sensor_timestamp": 95318834059680,
      "time_usec": 95318834059
    },
    {
      "frame_id": 19,
      "sensor_timestamp": 95318867306018,
      "time_usec": 95318867306
    },
    {
      "frame_id": 20,
      "sensor_timestamp": 95318900552600,
      "time_usec": 95318900552
    },
    {
      "frame_id": 21,
      "sensor_timestamp": 95318933798938,
      "time_usec": 95318933798
    },
    {
      "frame_id": 22,
      "sensor_timestamp": 95318967045275,
      "time_usec": 95318967045
    },
    {
      "frame_id": 23,
      "sensor_timestamp": 95319000291613,
      "time_usec": 95319000291
    },
    {
      "frame_id": 24,
      "sensor_timestamp": 95319033538195,
      "time_usec": 95319033538
    },
    {
      "frame_id": 25,
      "sensor_timestamp": 95319066784533,
      "time_usec": 95319066784
    },
    {
      "frame_id": 26,
      "sensor_timestamp": 95319100030871,
      "time_usec": 95319100030
    },
    {
      "frame_id": 27,
      "sensor_timestamp": 95319133277209,
      "time_usec": 95319133277
    },
    {
      "frame_id": 28,
      "sensor_timestamp": 95319166523791,
      "time_usec": 95319166523
    },
    {
      "frame_id": 29,
      "sensor_timestamp": 95319199770129,
      "time_usec": 95319199770
    },
    {
      "frame_id": 30,
      "sensor_timestamp": 95319233016467,
      "time_usec": 95319233016
    },
    {
      "frame_id": 31,
      "sensor_timestamp": 95319266262805,
      "time_usec": 95319266262
    },
    {
      "frame_id": 32,
      "sensor_timestamp": 95319299509387,
      "time_usec": 95319299509
    },
    {
      "frame_id": 33,
      "sensor_timestamp": 95319332755725,
      "time_usec": 95319332755
    },
    {
      "frame_id": 34,
      "sensor_timestamp": 95319366002063,
      "time_usec": 95319366002
    },
    {
      "frame_id": 35,
      "sensor_timestamp": 95319399248400,
      "time_usec": 95319399248
    },
    {
      "frame_id": 36,
      "sensor_timestamp": 95319432494982,
      "time_usec": 95319432494
    },
    {
      "frame_id": 37,
      "sensor_timestamp": 95319465741320,
      "time_usec": 95319465741
    },
    {
      "frame_id": 38,
      "sensor_timestamp": 95319498987658,
      "time_usec": 95319498987
    },
    {
      "frame_id": 39,
      "sensor_timestamp": 95319532233996,
      "time_usec": 95319532233
    },
    {
      "frame_id": 40,
      "sensor_timestamp": 95319565480578,
      "time_usec": 95319565480
    },
    {
      "frame_id": 41,
      "sensor_timestamp": 95319598726916,
      "time_usec": 95319598726
    },
    {
      "frame_id": 42,
      "sensor_timestamp": 95319631973254,
      "time_usec": 95319631973
    },
    {
      "frame_id": 43,
      "sensor_timestamp": 95319665219592,
      "time_usec": 95319665219
    },
    {
      "frame_id": 44,
      "sensor_timestamp": 95319698433751,
      "time_usec": 95319698433
    },
    {
      "frame_id": 45,
      "sensor_timestamp": 95319731712512,
      "time_usec": 95319731712
    },
    {
      "frame_id": 46,
      "sensor_timestamp": 95319764958850,
      "time_usec": 95319764958
    },
    {
      "frame_id": 47,
      "sensor_timestamp": 95319798205188,
      "time_usec": 95319798205
    },
    {
      "frame_id": 48,
      "sensor_timestamp": 95319831451525,
      "time_usec": 95319831451
    },
    {
      "frame_id": 49,
      "sensor_timestamp": 95319864698107,
      "time_usec": 95319864698
    },
    {
      "frame_id": 50,
      "sensor_timestamp": 95319897944445,
      "time_usec": 95319897944
    },
    {
      "frame_id": 51,
      "sensor_timestamp": 95319931190783,
      "time_usec": 95319931190
    },
    {
      "frame_id": 52,
      "sensor_timestamp": 95319964437121,
      "time_usec": 95319964437
    },
    {
      "frame_id": 53,
      "sensor_timestamp": 95319997683703,
      "time_usec": 95319997683
    },
    {
      "frame_id": 54,
      "sensor_timestamp": 95320030930041,
      "time_usec": 95320030930
    },
    {
      "frame_id": 55,
      "sensor_timestamp": 95320064176379,
      "time_usec": 95320064176
    },
    {
      "frame_id": 56,
      "sensor_timestamp": 95320097422717,
      "time_usec": 95320097422
    },
    {
      "frame_id": 57,
      "sensor_timestamp": 95320130669299,
      "time_usec": 95320130669
    },
    {
      "frame_id": 58,
      "sensor_timestamp": 95320163915637,
      "time_usec": 95320163915
    },
    {
      "frame_id": 59,
      "sensor_timestamp": 95320197161975,
      "time_usec": 95320197161
    },
    {
      "frame_id": 60,
      "sensor_timestamp": 95320230408313,
      "time_usec": 95320230408
    },
    {
      "frame_id": 61,
      "sensor_timestamp": 95320263654895,
      "time_usec": 95320263654
    },
    {
      "frame_id": 62,
      "sensor_timestamp": 95320296901232,
      "time_usec": 95320296901
    },
    {
      "frame_id": 63,
      "sensor_timestamp": 95320330147570,
      "time_usec": 95320330147
    },
    {
      "frame_id": 64,
      "sensor_timestamp": 95320363393908,
      "time_usec": 95320363393
    },
    {
      "frame_id": 65,
      "sensor_timestamp": 95320396640490,
      "time_usec": 95320396640
    },
    {
      "frame_id": 66,
      "sensor_timestamp": 95320429886828,
      "time_usec": 95320429886
    },
    {
      "frame_id": 67,
      "sensor_timestamp": 95320463133166,
      "time_usec": 95320463133
    },
    {
      "frame_id": 68,
      "sensor_timestamp": 95320496379504,
      "time_usec": 95320496379
    },
    {
      "frame_id": 69,
      "sensor_timestamp": 95320529626086,
      "time_usec": 95320529626
    },
    {
      "frame_id": 70,
      "sensor_timestamp": 95320562872424,
      "time_usec": 95320562872
    },
    {
      "frame_id": 71,
      "sensor_timestamp": 95320596118762,
      "time_usec": 95320596118
    },
    {
      "frame_id": 72,
      "sensor_timestamp": 95320629365100,
      "time_usec": 95320629365
    },
    {
      "frame_id": 73,
      "sensor_timestamp": 95320662611682,
      "time_usec": 95320662611
    },
    {
      "frame_id": 74,
      "sensor_timestamp": 95320695858020,
      "time_usec": 95320695858
    },
    {
      "frame_id": 75,
      "sensor_timestamp": 95320729104357,
      "time_usec": 95320729104
    },
    {
      "frame_id": 76,
      "sensor_timestamp": 95320762350695,
      "time_usec": 95320762350
    },
    {
      "frame_id": 77,
      "sensor_timestamp": 95320795597277,
      "time_usec": 95320795597
    },
    {
      "frame_id": 78,
      "sensor_timestamp": 95320828843615,
      "time_usec": 95320828843
    },
    {
      "frame_id": 79,
      "sensor_timestamp": 95320862089953,
      "time_usec": 95320862089
    },
    {
      "frame_id": 80,
      "sensor_timestamp": 95320895336291,
      "time_usec": 95320895336
    },
    {
      "frame_id": 81,
      "sensor_timestamp": 95320928582629,
      "time_usec": 95320928582
    },
    {
      "frame_id": 82,
      "sensor_timestamp": 95320961829211,
      "time_usec": 95320961829
    },
    {
      "frame_id": 83,
      "sensor_timestamp": 95320995075549,
      "time_usec": 95320995075
    },
    {
      "frame_id": 84,
      "sensor_timestamp": 95321028321887,
      "time_usec": 95321028321
    },
    {
      "frame_id": 85,
      "sensor_timestamp": 95321061568225,
      "time_usec": 95321061568
    },
    {
      "frame_id": 86,
      "sensor_timestamp": 95321094814807,
      "time_usec": 95321094814
    },
    {
      "frame_id": 87,
      "sensor_timestamp": 95321128061145,
      "time_usec": 95321128061
    },
    {
      "frame_id": 88,
      "sensor_timestamp": 95321161307482,
      "time_usec": 95321161307
    },
    {
      "frame_id": 89,
      "sensor_timestamp": 95321194553820,
      "time_usec": 95321194553
    },
    {
      "frame_id": 90,
      "sensor_timestamp": 95321227800402,
      "time_usec": 95321227800
    },
    {
      "frame_id": 91,
      "sensor_timestamp": 95321261046740,
      "time_usec": 95321261046
    },
    {
      "frame_id": 92,
      "sensor_timestamp": 95321294293078,
      "time_usec": 95321294293
    },
    {
      "frame_id": 93,
      "sensor_timestamp": 95321327539416,
      "time_usec": 95321327539
    },
    {
      "frame_id": 94,
      "sensor_timestamp": 95321360785998,
      "time_usec": 95321360785
    },
    {
      "frame_id": 95,
      "sensor_timestamp": 95321394032336,
      "time_usec": 95321394032
    },
    {
      "frame_id": 96,
      "sensor_timestamp": 95321427278674,
      "time_usec": 95321427278
    },
    {
      "frame_id": 97,
      "sensor_timestamp": 95321460525012,
      "time_usec": 95321460525
    },
    {
      "frame_id": 98,
      "sensor_timestamp": 95321493771594,
      "time_usec": 95321493771
    },
    {
      "frame_id": 99,
      "sensor_timestamp": 95321527017932,
      "time_usec": 95321527017
    },
    {
      "frame_id": 100,
      "sensor_timestamp": 95321560264270,
      "time_usec": 95321560264
    },
    {
      "frame_id": 101,
      "sensor_timestamp": 95321593510607,
      "time_usec": 95321593510
    },
    {
      "frame_id": 102,
      "sensor_timestamp": 95321626757189,
      "time_usec": 95321626757
    },
    {
      "frame_id": 103,
      "sensor_timestamp": 95321660003527,
      "time_usec": 95321660003
    },
    {
      "frame_id": 104,
      "sensor_timestamp": 95321693249865,
      "time_usec": 95321693249
    },
    {
      "frame_id": 105,
      "sensor_timestamp": 95321726496203,
      "time_usec": 95321726496
    },
    {
      "frame_id": 106,
      "sensor_timestamp": 95321759742785,
      "time_usec": 95321759742
    },
    {
      "frame_id": 107,
      "sensor_timestamp": 95321792989123,
      "time_usec": 95321792989
    },
    {
      "frame_id": 108,
      "sensor_timestamp": 95321826235461,
      "time_usec": 95321826235
    },
    {
      "frame_id": 109,
      "sensor_timestamp": 95321859481799,
      "time_usec": 95321859481
    },
    {
      "frame_id": 110,
      "sensor_timestamp": 95321892728381,
      "time_usec": 95321892728
    },
    {
      "frame_id": 111,
      "sensor_timestamp": 95321925974719,
      "time_usec": 95321925974
    },
    {
      "frame_id": 112,
      "sensor_timestamp": 95321959221057,
      "time_usec": 95321959221
    },
    {
      "frame_id": 113,
      "sensor_timestamp": 95321992467395,
      "time_usec": 95321992467
    },
    {
      "frame_id": 114,
      "sensor_timestamp": 95322025713977,
      "time_usec": 95322025713
    },
    {
      "frame_id": 115,
      "sensor_timestamp": 95322058960314,
      "time_usec": 95322058960
    },
    {
      "frame_id": 116,
      "sensor_timestamp": 95322092206652,
      "time_usec": 95322092206
    },
    {
      "frame_id": 117,
      "sensor_timestamp": 95322125452990,
      "time_usec": 95322125452
    },
    {
      "frame_id": 118,
      "sensor_timestamp": 95322158699328,
      "time_usec": 95322158699
    },
    {
      "frame_id": 119,
      "sensor_timestamp": 95322191945910,
      "time_usec": 95322191945
    },
    {
      "frame_id": 120,
      "sensor_timestamp": 95322225192248,
      "time_usec": 95322225192
    },
    {
      "frame_id": 121,
      "sensor_timestamp": 95322258438586,
      "time_usec": 95322258438
    },
    {
      "frame_id": 122,
      "sensor_timestamp": 95322291684924,
      "time_usec": 95322291684
    },
    {
      "frame_id": 123,
      "sensor_timestamp": 95322324931506,
      "time_usec": 95322324931
    },
    {
      "frame_id": 124,
      "sensor_timestamp": 95322358177844,
      "time_usec": 95322358177
    },
    {
      "frame_id": 125,
      "sensor_timestamp": 95322391424182,
      "time_usec": 95322391424
    },
    {
      "frame_id": 126,
      "sensor_timestamp": 95322424670520,
      "time_usec": 95322424670
    },
    {
      "frame_id": 127,
      "sensor_timestamp": 95322457917102,
      "time_usec": 95322457917
    },
    {
      "frame_id": 128,
      "sensor_timestamp": 95322491163439,
      "time_usec": 95322491163
    },
    {
      "frame_id": 129,
      "sensor_timestamp": 95322524409777,
      "time_usec": 95322524409
    },
    {
      "frame_id": 130,
      "sensor_timestamp": 95322557656115,
      "time_usec": 95322557656
    },
    {
      "frame_id": 131,
      "sensor_timestamp": 95322590902697,
      "time_usec": 95322590902
    },
    {
      "frame_id": 132,
      "sensor_timestamp": 95322624149035,
      "time_usec": 95322624149
    },
    {
      "frame_id": 133,
      "sensor_timestamp": 95322657395373,
      "time_usec": 95322657395
    },
    {
      "frame_id": 134,
      "sensor_timestamp": 95322690641711,
      "time_usec": 95322690641
    },
    {
      "frame_id": 135,
      "sensor_timestamp": 95322723888293,
      "time_usec": 95322723888
    },
    {
      "frame_id": 136,
      "sensor_timestamp": 95322757134631,
      "time_usec": 95322757134
    },
    {
      "frame_id": 137,
      "sensor_timestamp": 95322790380969,
      "time_usec": 95322790380
    },
    {
      "frame_id": 138,
      "sensor_timestamp": 95322823627307,
      "time_usec": 95322823627
    },
    {
      "frame_id": 139,
      "sensor_timestamp": 95322856873889,
      "time_usec": 95322856873
    },
    {
      "frame_id": 140,
      "sensor_timestamp": 95322890120227,
      "time_usec": 95322890120
    },
    {
      "frame_id": 141,
      "sensor_timestamp": 95322923366564,
      "time_usec": 95322923366
    },
    {
      "frame_id": 142,
      "sensor_timestamp": 95322956612902,
      "time_usec": 95322956612
    },
    {
      "frame_id": 143,
      "sensor_timestamp": 95322989859484,
      "time_usec": 95322989859
    },
    {
      "frame_id": 144,
      "sensor_timestamp": 95323023105822,
      "time_usec": 95323023105
    },
    {
      "frame_id": 145,
      "sensor_timestamp": 95323056352160,
      "time_usec": 95323056352
    },
    {
      "frame_id": 146,
      "sensor_timestamp": 95323089598498,
      "time_usec": 95323089598
    },
    {
      "frame_id": 147,
      "sensor_timestamp": 95323122845080,
      "time_usec": 95323122845
    },
    {
      "frame_id": 148,
      "sensor_timestamp": 95323156091418,
      "time_usec": 95323156091
    },
    {
      "frame_id": 149,
      "sensor_timestamp": 95323189337756,
      "time_usec": 95323189337
    },
    {
      "frame_id": 150,
      "sensor_timestamp": 95323222584094,
      "time_usec": 95323222584
    },
    {
      "frame_id": 151,
      "sensor_timestamp": 95323255830676,
      "time_usec": 95323255830
    },
    {
      "frame_id": 152,
      "sensor_timestamp": 95323289077014,
      "time_usec": 95323289077
    },
    {
      "frame_id": 153,
      "sensor_timestamp": 95323322323352,
      "time_usec": 95323322323
    },
    {
      "frame_id": 154,
      "sensor_timestamp": 95323355569689,
      "time_usec": 95323355569
    },
    {
      "frame_id": 155,
      "sensor_timestamp": 95323388816027,
      "time_usec": 95323388816
    },
    {
      "frame_id": 156,
      "sensor_timestamp": 95323422062609,
      "time_usec": 95323422062
    },
    {
      "frame_id": 157,
      "sensor_timestamp": 95323455308947,
      "time_usec": 95323455308
    },
    {
      "frame_id": 158,
      "sensor_timestamp": 95323488555285,
      "time_usec": 95323488555
    },
    {
      "frame_id": 159,
      "sensor_timestamp": 95323521801623,
      "time_usec": 95323521801
    },
    {
      "frame_id": 160,
      "sensor_timestamp": 95323555048205,
      "time_usec": 95323555048
    },
    {
      "frame_id": 161,
      "sensor_timestamp": 95323588294543,
      "time_usec": 95323588294
    },
    {
      "frame_id": 162,
      "sensor_timestamp": 95323621540881,
      "time_usec": 95323621540
    },
    {
      "frame_id": 163,
      "sensor_timestamp": 95323654787219,
      "time_usec": 95323654787
    },
    {
      "frame_id": 164,
      "sensor_timestamp": 95323688033801,
      "time_usec": 95323688033
    },
    {
      "frame_id": 165,
      "sensor_timestamp": 95323721280139,
      "time_usec": 95323721280
    },
    {
      "frame_id": 166,
      "sensor_timestamp": 95323754526477,
      "time_usec": 95323754526
    },
    {
      "frame_id": 167,
      "sensor_timestamp": 95323787772814,
      "time_usec": 95323787772
    },
    {
      "frame_id": 168,
      "sensor_timestamp": 95323821019397,
      "time_usec": 95323821019
    },
    {
      "frame_id": 169,
      "sensor_timestamp": 95323854265734,
      "time_usec": 95323854265
    },
    {
      "frame_id": 170,
      "sensor_timestamp": 95323887512072,
      "time_usec": 95323887512
    },
    {
      "frame_id": 171,
      "sensor_timestamp": 95323920758410,
      "time_usec": 95323920758
    },
    {
      "frame_id": 172,
      "sensor_timestamp": 95323954004992,
      "time_usec": 95323954004
    },
    {
      "frame_id": 173,
      "sensor_timestamp": 95323987251330,
      "time_usec": 95323987251
    },
    {
      "frame_id": 174,
      "sensor_timestamp": 95324020497668,
      "time_usec": 95324020497
    },
    {
      "frame_id": 175,
      "sensor_timestamp": 95324053744006,
      "time_usec": 95324053744
    },
    {
      "frame_id": 176,
      "sensor_timestamp": 95324086990588,
      "time_usec": 95324086990
    },
    {
      "frame_id": 177,
      "sensor_timestamp": 95324120236926,
      "time_usec": 95324120236
    },
    {
      "frame_id": 178,
      "sensor_timestamp": 95324153483264,
      "time_usec": 95324153483
    },
    {
      "frame_id": 179,
      "sensor_timestamp": 95324186729602,
      "time_usec": 95324186729
    },
    {
      "frame_id": 180,
      "sensor_timestamp": 95324219976184,
      "time_usec": 95324219976
    },
    {
      "frame_id": 181,
      "sensor_timestamp": 95324253222522,
      "time_usec": 95324253222
    },
    {
      "frame_id": 182,
      "sensor_timestamp": 95324286468859,
      "time_usec": 95324286468
    },
    {
      "frame_id": 183,
      "sensor_timestamp": 95324319715197,
      "time_usec": 95324319715
    },
    {
      "frame_id": 184,
      "sensor_timestamp": 95324352961779,
      "time_usec": 95324352961
    },
    {
      "frame_id": 185,
      "sensor_timestamp": 95324386208117,
      "time_usec": 95324386208
    },
    {
      "frame_id": 186,
      "sensor_timestamp": 95324419454455,
      "time_usec": 95324419454
    },
    {
      "frame_id": 187,
      "sensor_timestamp": 95324452700793,
      "time_usec": 95324452700
    },
    {
      "frame_id": 188,
      "sensor_timestamp": 95324485947375,
      "time_usec": 95324485947
    },
    {
      "frame_id": 189,
      "sensor_timestamp": 95324519193713,
      "time_usec": 95324519193
    },
    {
      "frame_id": 190,
      "sensor_timestamp": 95324552440051,
      "time_usec": 95324552440
    },
    {
      "frame_id": 191,
      "sensor_timestamp": 95324585686389,
      "time_usec": 95324585686
    },
    {
      "frame_id": 192,
      "sensor_timestamp": 95324618932727,
      "time_usec": 95324618932
    },
    {
      "frame_id": 193,
      "sensor_timestamp": 95324652179309,
      "time_usec": 95324652179
    },
    {
      "frame_id": 194,
      "sensor_timestamp": 95324685425647,
      "time_usec": 95324685425
    },
    {
      "frame_id": 195,
      "sensor_timestamp": 95324718671984,
      "time_usec": 95324718671
    },
    {
      "frame_id": 196,
      "sensor_timestamp": 95324751918322,
      "time_usec": 95324751918
    },
    {
      "frame_id": 197,
      "sensor_timestamp": 95324785164904,
      "time_usec": 95324785164
    },
    {
      "frame_id": 198,
      "sensor_timestamp": 95324818411242,
      "time_usec": 95324818411
    },
    {
      "frame_id": 199,
      "sensor_timestamp": 95324851657580,
      "time_usec": 95324851657
    },
    {
      "frame_id": 200,
      "sensor_timestamp": 95324884903918,
      "time_usec": 95324884903
    },
    {
      "frame_id": 201,
      "sensor_timestamp": 95324918150500,
      "time_usec": 95324918150
    },
    {
      "frame_id": 202,
      "sensor_timestamp": 95324951396838,
      "time_usec": 95324951396
    },
    {
      "frame_id": 203,
      "sensor_timestamp": 95324984643176,
      "time_usec": 95324984643
    },
    {
      "frame_id": 204,
      "sensor_timestamp": 95325017889514,
      "time_usec": 95325017889
    },
    {
      "frame_id": 205,
      "sensor_timestamp": 95325051136096,
      "time_usec": 95325051136
    },
    {
      "frame_id": 206,
      "sensor_timestamp": 95325084382434,
      "time_usec": 95325084382
    },
    {
      "frame_id": 207,
      "sensor_timestamp": 95325117628772,
      "time_usec": 95325117628
    },
    {
      "frame_id": 208,
      "sensor_timestamp": 95325150875109,
      "time_usec": 95325150875
    },
    {
      "frame_id": 209,
      "sensor_timestamp": 95325184121691,
      "time_usec": 95325184121
    },
    {
      "frame_id": 210,
      "sensor_timestamp": 95325217368029,
      "time_usec": 95325217368
    },
    {
      "frame_id": 211,
      "sensor_timestamp": 95325250614367,
      "time_usec": 95325250614
    },
    {
      "frame_id": 212,
      "sensor_timestamp": 95325283860705,
      "time_usec": 95325283860
    },
    {
      "frame_id": 213,
      "sensor_timestamp": 95325317107287,
      "time_usec": 95325317107
    },
    {
      "frame_id": 214,
      "sensor_timestamp": 95325350353625,
      "time_usec": 95325350353
    },
    {
      "frame_id": 215,
      "sensor_timestamp": 95325383599963,
      "time_usec": 95325383599
    },
    {
      "frame_id": 216,
      "sensor_timestamp": 95325416846301,
      "time_usec": 95325416846
    },
    {
      "frame_id": 217,
      "sensor_timestamp": 95325450092883,
      "time_usec": 95325450092
    },
    {
      "frame_id": 218,
      "sensor_timestamp": 95325483339221,
      "time_usec": 95325483339
    },
    {
      "frame_id": 219,
      "sensor_timestamp": 95325516585559,
      "time_usec": 95325516585
    },
    {
      "frame_id": 220,
      "sensor_timestamp": 95325549831897,
      "time_usec": 95325549831
    },
    {
      "frame_id": 221,
      "sensor_timestamp": 95325583078479,
      "time_usec": 95325583078
    },
    {
      "frame_id": 222,
      "sensor_timestamp": 95325616324816,
      "time_usec": 95325616324
    },
    {
      "frame_id": 223,
      "sensor_timestamp": 95325649571154,
      "time_usec": 95325649571
    },
    {
      "frame_id": 224,
      "sensor_timestamp": 95325682817492,
      "time_usec": 95325682817
    },
    {
      "frame_id": 225,
      "sensor_timestamp": 95325716063830,
      "time_usec": 95325716063
    },
    {
      "frame_id": 226,
      "sensor_timestamp": 95325749310412,
      "time_usec": 95325749310
    },
    {
      "frame_id": 227,
      "sensor_timestamp": 95325782556750,
      "time_usec": 95325782556
    },
    {
      "frame_id": 228,
      "sensor_timestamp": 95325815803088,
      "time_usec": 95325815803
    },
    {
      "frame_id": 229,
      "sensor_timestamp": 95325849049426,
      "time_usec": 95325849049
    },
    {
      "frame_id": 230,
      "sensor_timestamp": 95325882296008,
      "time_usec": 95325882296
    },
    {
      "frame_id": 231,
      "sensor_timestamp": 95325915542346,
      "time_usec": 95325915542
    },
    {
      "frame_id": 232,
      "sensor_timestamp": 95325948788684,
      "time_usec": 95325948788
    },
    {
      "frame_id": 233,
      "sensor_timestamp": 95325982035022,
      "time_usec": 95325982035
    },
    {
      "frame_id": 234,
      "sensor_timestamp": 95326015281604,
      "time_usec": 95326015281
    },
    {
      "frame_id": 235,
      "sensor_timestamp": 95326048527941,
      "time_usec": 95326048527
    },
    {
      "frame_id": 236,
      "sensor_timestamp": 95326081774279,
      "time_usec": 95326081774
    },
    {
      "frame_id": 237,
      "sensor_timestamp": 95326115020617,
      "time_usec": 95326115020
    },
    {
      "frame_id": 238,
      "sensor_timestamp": 95326148267199,
      "time_usec": 95326148267
    },
    {
      "frame_id": 239,
      "sensor_timestamp": 95326181513537,
      "time_usec": 95326181513
    },
    {
      "frame_id": 240,
      "sensor_timestamp": 95326214759875,
      "time_usec": 95326214759
    },
    {
      "frame_id": 241,
      "sensor_timestamp": 95326248006213,
      "time_usec": 95326248006
    },
    {
      "frame_id": 242,
      "sensor_timestamp": 95326281252795,
      "time_usec": 95326281252
    },
    {
      "frame_id": 243,
      "sensor_timestamp": 95326314499133,
      "time_usec": 95326314499
    },
    {
      "frame_id": 244,
      "sensor_timestamp": 95326347745471,
      "time_usec": 95326347745
    },
    {
      "frame_id": 245,
      "sensor_timestamp": 95326380991809,
      "time_usec": 95326380991
    },
    {
      "frame_id": 246,
      "sensor_timestamp": 95326414238391,
      "time_usec": 95326414238
    },
    {
      "frame_id": 247,
      "sensor_timestamp": 95326447484729,
      "time_usec": 95326447484
    },
    {
      "frame_id": 248,
      "sensor_timestamp": 95326480731066,
      "time_usec": 95326480731
    },
    {
      "frame_id": 249,
      "sensor_timestamp": 95326514000649,
      "time_usec": 95326514000
    },
    {
      "frame_id": 250,
      "sensor_timestamp": 95326547223986,
      "time_usec": 95326547223
    },
    {
      "frame_id": 251,
      "sensor_timestamp": 95326580470324,
      "time_usec": 95326580470
    },
    {
      "frame_id": 252,
      "sensor_timestamp": 95326613716662,
      "time_usec": 95326613716
    },
    {
      "frame_id": 253,
      "sensor_timestamp": 95326646963000,
      "time_usec": 95326646963
    },
    {
      "frame_id": 254,
      "sensor_timestamp": 95326680209582,
      "time_usec": 95326680209
    },
    {
      "frame_id": 255,
      "sensor_timestamp": 95326713455920,
      "time_usec": 95326713455
    },
    {
      "frame_id": 256,
      "sensor_timestamp": 95326746702258,
      "time_usec": 95326746702
    },
    {
      "frame_id": 257,
      "sensor_timestamp": 95326779948596,
      "time_usec": 95326779948
    },
    {
      "frame_id": 258,
      "sensor_timestamp": 95326813195178,
      "time_usec": 95326813195
    },
    {
      "frame_id": 259,
      "sensor_timestamp": 95326846441516,
      "time_usec": 95326846441
    },
    {
      "frame_id": 260,
      "sensor_timestamp": 95326879687854,
      "time_usec": 95326879687
    },
    {
      "frame_id": 261,
      "sensor_timestamp": 95326912934191,
      "time_usec": 95326912934
    },
    {
      "frame_id": 262,
      "sensor_timestamp": 95326946180529,
      "time_usec": 95326946180
    },
    {
      "frame_id": 263,
      "sensor_timestamp": 95326979427111,
      "time_usec": 95326979427
    },
    {
      "frame_id": 264,
      "sensor_timestamp": 95327012673449,
      "time_usec": 95327012673
    },
    {
      "frame_id": 265,
      "sensor_timestamp": 95327045919787,
      "time_usec": 95327045919
    },
    {
      "frame_id": 266,
      "sensor_timestamp": 95327079166125,
      "time_usec": 95327079166
    },
    {
      "frame_id": 267,
      "sensor_timestamp": 95327112412707,
      "time_usec": 95327112412
    },
    {
      "frame_id": 268,
      "sensor_timestamp": 95327145659045,
      "time_usec": 95327145659
    },
    {
      "frame_id": 269,
      "sensor_timestamp": 95327178905383,
      "time_usec": 95327178905
    },
    {
      "frame_id": 270,
      "sensor_timestamp": 95327212151721,
      "time_usec": 95327212151
    },
    {
      "frame_id": 271,
      "sensor_timestamp": 95327245398303,
      "time_usec": 95327245398
    },
    {
      "frame_id": 272,
      "sensor_timestamp": 95327278644641,
      "time_usec": 95327278644
    },
    {
      "frame_id": 273,
      "sensor_timestamp": 95327311890979,
      "time_usec": 95327311890
    },
    {
      "frame_id": 274,
      "sensor_timestamp": 95327345137316,
      "time_usec": 95327345137
    },
    {
      "frame_id": 275,
      "sensor_timestamp": 95327378383898,
      "time_usec": 95327378383
    },
    {
      "frame_id": 276,
      "sensor_timestamp": 95327411630236,
      "time_usec": 95327411630
    },
    {
      "frame_id": 277,
      "sensor_timestamp": 95327444876574,
      "time_usec": 95327444876
    },
    {
      "frame_id": 278,
      "sensor_timestamp": 95327478122912,
      "time_usec": 95327478122
    },
    {
      "frame_id": 279,
      "sensor_timestamp": 95327511369494,
      "time_usec": 95327511369
    },
    {
      "frame_id": 280,
      "sensor_timestamp": 95327544615832,
      "time_usec": 95327544615
    },
    {
      "frame_id": 281,
      "sensor_timestamp": 95327577862170,
      "time_usec": 95327577862
    },
    {
      "frame_id": 282,
      "sensor_timestamp": 95327611108508,
      "time_usec": 95327611108
    },
    {
      "frame_id": 283,
      "sensor_timestamp": 95327644355090,
      "time_usec": 95327644355
    },
    {
      "frame_id": 284,
      "sensor_timestamp": 95327677601428,
      "time_usec": 95327677601
    },
    {
      "frame_id": 285,
      "sensor_timestamp": 95327710847766,
      "time_usec": 95327710847
    },
    {
      "frame_id": 286,
      "sensor_timestamp": 95327744094104,
      "time_usec": 95327744094
    },
    {
      "frame_id": 287,
      "sensor_timestamp": 95327777340686,
      "time_usec": 95327777340
    },
    {
      "frame_id": 288,
      "sensor_timestamp": 95327810587023,
      "time_usec": 95327810587
    },
    {
      "frame_id": 289,
      "sensor_timestamp": 95327843833361,
      "time_usec": 95327843833
    },
    {
      "frame_id": 290,
      "sensor_timestamp": 95327877079699,
      "time_usec": 95327877079
    },
    {
      "frame_id": 291,
      "sensor_timestamp": 95327910326281,
      "time_usec": 95327910326
    },
    {
      "frame_id": 292,
      "sensor_timestamp": 95327943572619,
      "time_usec": 95327943572
    },
    {
      "frame_id": 293,
      "sensor_timestamp": 95327976818957,
      "time_usec": 95327976818
    },
    {
      "frame_id": 294,
      "sensor_timestamp": 95328010065295,
      "time_usec": 95328010065
    },
    {
      "frame_id": 295,
      "sensor_timestamp": 95328043311877,
      "time_usec": 95328043311
    },
    {
      "frame_id": 296,
      "sensor_timestamp": 95328076558215,
      "time_usec": 95328076558
    },
    {
      "frame_id": 297,
      "sensor_timestamp": 95328109804553,
      "time_usec": 95328109804
    },
    {
      "frame_id": 298,
      "sensor_timestamp": 95328143050891,
      "time_usec": 95328143050
    },
    {
      "frame_id": 299,
      "sensor_timestamp": 95328176297229,
      "time_usec": 95328176297
    },
    {
      "frame_id": 300,
      "sensor_timestamp": 95328209543811,
      "time_usec": 95328209543
    },
    {
      "frame_id": 301,
      "sensor_timestamp": 95328242745319,
      "time_usec": 95328242745
    },
    {
      "frame_id": 302,
      "sensor_timestamp": 95328276036486,
      "time_usec": 95328276036
    },
    {
      "frame_id": 303,
      "sensor_timestamp": 95328309282824,
      "time_usec": 95328309282
    },
    {
      "frame_id": 304,
      "sensor_timestamp": 95328342529406,
      "time_usec": 95328342529
    },
    {
      "frame_id": 305,
      "sensor_timestamp": 95328375775744,
      "time_usec": 95328375775
    },
    {
      "frame_id": 306,
      "sensor_timestamp": 95328409022082,
      "time_usec": 95328409022
    },
    {
      "frame_id": 307,
      "sensor_timestamp": 95328442268420,
      "time_usec": 95328442268
    },
    {
      "frame_id": 308,
      "sensor_timestamp": 95328475515002,
      "time_usec": 95328475515
    },
    {
      "frame_id": 309,
      "sensor_timestamp": 95328508761340,
      "time_usec": 95328508761
    },
    {
      "frame_id": 310,
      "sensor_timestamp": 95328542007678,
      "time_usec": 95328542007
    },
    {
      "frame_id": 311,
      "sensor_timestamp": 95328575254016,
      "time_usec": 95328575254
    },
    {
      "frame_id": 312,
      "sensor_timestamp": 95328608500598,
      "time_usec": 95328608500
    },
    {
      "frame_id": 313,
      "sensor_timestamp": 95328641746936,
      "time_usec": 95328641746
    },
    {
      "frame_id": 314,
      "sensor_timestamp": 95328674993273,
      "time_usec": 95328674993
    },
    {
      "frame_id": 315,
      "sensor_timestamp": 95328708239611,
      "time_usec": 95328708239
    },
    {
      "frame_id": 316,
      "sensor_timestamp": 95328741486193,
      "time_usec": 95328741486
    },
    {
      "frame_id": 317,
      "sensor_timestamp": 95328774732531,
      "time_usec": 95328774732
    },
    {
      "frame_id": 318,
      "sensor_timestamp": 95328807978869,
      "time_usec": 95328807978
    },
    {
      "frame_id": 319,
      "sensor_timestamp": 95328841225207,
      "time_usec": 95328841225
    },
    {
      "frame_id": 320,
      "sensor_timestamp": 95328874471789,
      "time_usec": 95328874471
    },
    {
      "frame_id": 321,
      "sensor_timestamp": 95328907718127,
      "time_usec": 95328907718
    },
    {
      "frame_id": 322,
      "sensor_timestamp": 95328940964465,
      "time_usec": 95328940964
    },
    {
      "frame_id": 323,
      "sensor_timestamp": 95328974210803,
      "time_usec": 95328974210
    },
    {
      "frame_id": 324,
      "sensor_timestamp": 95329007457385,
      "time_usec": 95329007457
    },
    {
      "frame_id": 325,
      "sensor_timestamp": 95329040703723,
      "time_usec": 95329040703
    },
    {
      "frame_id": 326,
      "sensor_timestamp": 95329073950061,
      "time_usec": 95329073950
    },
    {
      "frame_id": 327,
      "sensor_timestamp": 95329107196398,
      "time_usec": 95329107196
    },
    {
      "frame_id": 328,
      "sensor_timestamp": 95329140442981,
      "time_usec": 95329140442
    },
    {
      "frame_id": 329,
      "sensor_timestamp": 95329173689318,
      "time_usec": 95329173689
    },
    {
      "frame_id": 330,
      "sensor_timestamp": 95329206935656,
      "time_usec": 95329206935
    },
    {
      "frame_id": 331,
      "sensor_timestamp": 95329240181994,
      "time_usec": 95329240181
    },
    {
      "frame_id": 332,
      "sensor_timestamp": 95329273428576,
      "time_usec": 95329273428
    },
    {
      "frame_id": 333,
      "sensor_timestamp": 95329306674914,
      "time_usec": 95329306674
    },
    {
      "frame_id": 334,
      "sensor_timestamp": 95329339921252,
      "time_usec": 95329339921
    },
    {
      "frame_id": 335,
      "sensor_timestamp": 95329373167590,
      "time_usec": 95329373167
    },
    {
      "frame_id": 336,
      "sensor_timestamp": 95329406413928,
      "time_usec": 95329406413
    },
    {
      "frame_id": 337,
      "sensor_timestamp": 95329439660510,
      "time_usec": 95329439660
    },
    {
      "frame_id": 338,
      "sensor_timestamp": 95329472906848,
      "time_usec": 95329472906
    },
    {
      "frame_id": 339,
      "sensor_timestamp": 95329506153186,
      "time_usec": 95329506153
    },
    {
      "frame_id": 340,
      "sensor_timestamp": 95329539399523,
      "time_usec": 95329539399
    },
    {
      "frame_id": 341,
      "sensor_timestamp": 95329572646106,
      "time_usec": 95329572646
    },
    {
      "frame_id": 342,
      "sensor_timestamp": 95329605892443,
      "time_usec": 95329605892
    },
    {
      "frame_id": 343,
      "sensor_timestamp": 95329639138781,
      "time_usec": 95329639138
    },
    {
      "frame_id": 344,
      "sensor_timestamp": 95329672385119,
      "time_usec": 95329672385
    },
    {
      "frame_id": 345,
      "sensor_timestamp": 95329705631701,
      "time_usec": 95329705631
    },
    {
      "frame_id": 346,
      "sensor_timestamp": 95329738878039,
      "time_usec": 95329738878
    },
    {
      "frame_id": 347,
      "sensor_timestamp": 95329772124377,
      "time_usec": 95329772124
    },
    {
      "frame_id": 348,
      "sensor_timestamp": 95329805370715,
      "time_usec": 95329805370
    },
    {
      "frame_id": 349,
      "sensor_timestamp": 95329838617297,
      "time_usec": 95329838617
    },
    {
      "frame_id": 350,
      "sensor_timestamp": 95329871863635,
      "time_usec": 95329871863
    },
    {
      "frame_id": 351,
      "sensor_timestamp": 95329905109973,
      "time_usec": 95329905109
    },
    {
      "frame_id": 352,
      "sensor_timestamp": 95329938356311,
      "time_usec": 95329938356
    },
    {
      "frame_id": 353,
      "sensor_timestamp": 95329971602893,
      "time_usec": 95329971602
    },
    {
      "frame_id": 354,
      "sensor_timestamp": 95330004849231,
      "time_usec": 95330004849
    },
    {
      "frame_id": 355,
      "sensor_timestamp": 95330038095568,
      "time_usec": 95330038095
    },
    {
      "frame_id": 356,
      "sensor_timestamp": 95330071341906,
      "time_usec": 95330071341
    },
    {
      "frame_id": 357,
      "sensor_timestamp": 95330104588488,
      "time_usec": 95330104588
    },
    {
      "frame_id": 358,
      "sensor_timestamp": 95330137834826,
      "time_usec": 95330137834
    },
    {
      "frame_id": 359,
      "sensor_timestamp": 95330171081164,
      "time_usec": 95330171081
    },
    {
      "frame_id": 360,
      "sensor_timestamp": 95330204327502,
      "time_usec": 95330204327
    },
    {
      "frame_id": 361,
      "sensor_timestamp": 95330237574084,
      "time_usec": 95330237574
    },
    {
      "frame_id": 362,
      "sensor_timestamp": 95330270820422,
      "time_usec": 95330270820
    },
    {
      "frame_id": 363,
      "sensor_timestamp": 95330304066760,
      "time_usec": 95330304066
    },
    {
      "frame_id": 364,
      "sensor_timestamp": 95330337313098,
      "time_usec": 95330337313
    },
    {
      "frame_id": 365,
      "sensor_timestamp": 95330370559680,
      "time_usec": 95330370559
    },
    {
      "frame_id": 366,
      "sensor_timestamp": 95330403806018,
      "time_usec": 95330403806
    },
    {
      "frame_id": 367,
      "sensor_timestamp": 95330437052356,
      "time_usec": 95330437052
    },
    {
      "frame_id": 368,
      "sensor_timestamp": 95330470298693,
      "time_usec": 95330470298
    },
    {
      "frame_id": 369,
      "sensor_timestamp": 95330503545275,
      "time_usec": 95330503545
    },
    {
      "frame_id": 370,
      "sensor_timestamp": 95330536791613,
      "time_usec": 95330536791
    },
    {
      "frame_id": 371,
      "sensor_timestamp": 95330570037951,
      "time_usec": 95330570037
    },
    {
      "frame_id": 372,
      "sensor_timestamp": 95330603284289,
      "time_usec": 95330603284
    },
    {
      "frame_id": 373,
      "sensor_timestamp": 95330636530627,
      "time_usec": 95330636530
    },
    {
      "frame_id": 374,
      "sensor_timestamp": 95330669777209,
      "time_usec": 95330669777
    },
    {
      "frame_id": 375,
      "sensor_timestamp": 95330703023547,
      "time_usec": 95330703023
    },
    {
      "frame_id": 376,
      "sensor_timestamp": 95330736269885,
      "time_usec": 95330736269
    },
    {
      "frame_id": 377,
      "sensor_timestamp": 95330769516223,
      "time_usec": 95330769516
    },
    {
      "frame_id": 378,
      "sensor_timestamp": 95330802831787,
      "time_usec": 95330802831
    },
    {
      "frame_id": 379,
      "sensor_timestamp": 95330836009143,
      "time_usec": 95330836009
    },
    {
      "frame_id": 380,
      "sensor_timestamp": 95330869255481,
      "time_usec": 95330869255
    },
    {
      "frame_id": 381,
      "sensor_timestamp": 95330902501818,
      "time_usec": 95330902501
    },
    {
      "frame_id": 382,
      "sensor_timestamp": 95330935748400,
      "time_usec": 95330935748
    },
    {
      "frame_id": 383,
      "sensor_timestamp": 95330968994738,
      "time_usec": 95330968994
    },
    {
      "frame_id": 384,
      "sensor_timestamp": 95331002241076,
      "time_usec": 95331002241
    },
    {
      "frame_id": 385,
      "sensor_timestamp": 95331035487414,
      "time_usec": 95331035487
    },
    {
      "frame_id": 386,
      "sensor_timestamp": 95331068733996,
      "time_usec": 95331068733
    },
    {
      "frame_id": 387,
      "sensor_timestamp": 95331101980334,
      "time_usec": 95331101980
    },
    {
      "frame_id": 388,
      "sensor_timestamp": 95331135226672,
      "time_usec": 95331135226
    },
    {
      "frame_id": 389,
      "sensor_timestamp": 95331168473010,
      "time_usec": 95331168473
    },
    {
      "frame_id": 390,
      "sensor_timestamp": 95331201719592,
      "time_usec": 95331201719
    },
    {
      "frame_id": 391,
      "sensor_timestamp": 95331234965930,
      "time_usec": 95331234965
    },
    {
      "frame_id": 392,
      "sensor_timestamp": 95331268212268,
      "time_usec": 95331268212
    },
    {
      "frame_id": 393,
      "sensor_timestamp": 95331301458606,
      "time_usec": 95331301458
    },
    {
      "frame_id": 394,
      "sensor_timestamp": 95331334705188,
      "time_usec": 95331334705
    },
    {
      "frame_id": 395,
      "sensor_timestamp": 95331367951525,
      "time_usec": 95331367951
    },
    {
      "frame_id": 396,
      "sensor_timestamp": 95331401197863,
      "time_usec": 95331401197
    },
    {
      "frame_id": 397,
      "sensor_timestamp": 95331434444201,
      "time_usec": 95331434444
    },
    {
      "frame_id": 398,
      "sensor_timestamp": 95331467690783,
      "time_usec": 95331467690
    },
    {
      "frame_id": 399,
      "sensor_timestamp": 95331500937121,
      "time_usec": 95331500937
    },
    {
      "frame_id": 400,
      "sensor_timestamp": 95331534183459,
      "time_usec": 95331534183
    },
    {
      "frame_id": 401,
      "sensor_timestamp": 95331567429797,
      "time_usec": 95331567429
    },
    {
      "frame_id": 402,
      "sensor_timestamp": 95331600676379,
      "time_usec": 95331600676
    },
    {
      "frame_id": 403,
      "sensor_timestamp": 95331633922717,
      "time_usec": 95331633922
    },
    {
      "frame_id": 404,
      "sensor_timestamp": 95331667169055,
      "time_usec": 95331667169
    },
    {
      "frame_id": 405,
      "sensor_timestamp": 95331700415393,
      "time_usec": 95331700415
    },
    {
      "frame_id": 406,
      "sensor_timestamp": 95331733661731,
      "time_usec": 95331733661
    },
    {
      "frame_id": 407,
      "sensor_timestamp": 95331766908313,
      "time_usec": 95331766908
    },
    {
      "frame_id": 408,
      "sensor_timestamp": 95331800154650,
      "time_usec": 95331800154
    },
    {
      "frame_id": 409,
      "sensor_timestamp": 95331833400988,
      "time_usec": 95331833400
    },
    {
      "frame_id": 410,
      "sensor_timestamp": 95331866647326,
      "time_usec": 95331866647
    },
    {
      "frame_id": 411,
      "sensor_timestamp": 95331899893908,
      "time_usec": 95331899893
    },
    {
      "frame_id": 412,
      "sensor_timestamp": 95331933140246,
      "time_usec": 95331933140
    },
    {
      "frame_id": 413,
      "sensor_timestamp": 95331966386584,
      "time_usec": 95331966386
    },
    {
      "frame_id": 414,
      "sensor_timestamp": 95331999632922,
      "time_usec": 95331999632
    },
    {
      "frame_id": 415,
      "sensor_timestamp": 95332032879504,
      "time_usec": 95332032879
    },
    {
      "frame_id": 416,
      "sensor_timestamp": 95332066125842,
      "time_usec": 95332066125
    },
    {
      "frame_id": 417,
      "sensor_timestamp": 95332099372180,
      "time_usec": 95332099372
    },
    {
      "frame_id": 418,
      "sensor_timestamp": 95332132618518,
      "time_usec": 95332132618
    },
    {
      "frame_id": 419,
      "sensor_timestamp": 95332165865100,
      "time_usec": 95332165865
    },
    {
      "frame_id": 420,
      "sensor_timestamp": 95332199111438,
      "time_usec": 95332199111
    },
    {
      "frame_id": 421,
      "sensor_timestamp": 95332232357775,
      "time_usec": 95332232357
    },
    {
      "frame_id": 422,
      "sensor_timestamp": 95332265604113,
      "time_usec": 95332265604
    },
    {
      "frame_id": 423,
      "sensor_timestamp": 95332298850695,
      "time_usec": 95332298850
    },
    {
      "frame_id": 424,
      "sensor_timestamp": 95332332097033,
      "time_usec": 95332332097
    },
    {
      "frame_id": 425,
      "sensor_timestamp": 95332365343371,
      "time_usec": 95332365343
    },
    {
      "frame_id": 426,
      "sensor_timestamp": 95332398589709,
      "time_usec": 95332398589
    },
    {
      "frame_id": 427,
      "sensor_timestamp": 95332431836291,
      "time_usec": 95332431836
    },
    {
      "frame_id": 428,
      "sensor_timestamp": 95332465082629,
      "time_usec": 95332465082
    },
    {
      "frame_id": 429,
      "sensor_timestamp": 95332498328967,
      "time_usec": 95332498328
    },
    {
      "frame_id": 430,
      "sensor_timestamp": 95332531575305,
      "time_usec": 95332531575
    },
    {
      "frame_id": 431,
      "sensor_timestamp": 95332564821887,
      "time_usec": 95332564821
    },
    {
      "frame_id": 432,
      "sensor_timestamp": 95332598068225,
      "time_usec": 95332598068
    },
    {
      "frame_id": 433,
      "sensor_timestamp": 95332631314563,
      "time_usec": 95332631314
    },
    {
      "frame_id": 434,
      "sensor_timestamp": 95332664560900,
      "time_usec": 95332664560
    },
    {
      "frame_id": 435,
      "sensor_timestamp": 95332697807482,
      "time_usec": 95332697807
    },
    {
      "frame_id": 436,
      "sensor_timestamp": 95332731053820,
      "time_usec": 95332731053
    },
    {
      "frame_id": 437,
      "sensor_timestamp": 95332764300158,
      "time_usec": 95332764300
    },
    {
      "frame_id": 438,
      "sensor_timestamp": 95332797546496,
      "time_usec": 95332797546
    },
    {
      "frame_id": 439,
      "sensor_timestamp": 95332830793078,
      "time_usec": 95332830793
    },
    {
      "frame_id": 440,
      "sensor_timestamp": 95332864039416,
      "time_usec": 95332864039
    },
    {
      "frame_id": 441,
      "sensor_timestamp": 95332897285754,
      "time_usec": 95332897285
    },
    {
      "frame_id": 442,
      "sensor_timestamp": 95332930532092,
      "time_usec": 95332930532
    },
    {
      "frame_id": 443,
      "sensor_timestamp": 95332963778430,
      "time_usec": 95332963778
    },
    {
      "frame_id": 444,
      "sensor_timestamp": 95332997025012,
      "time_usec": 95332997025
    },
    {
      "frame_id": 445,
      "sensor_timestamp": 95333030271350,
      "time_usec": 95333030271
    },
    {
      "frame_id": 446,
      "sensor_timestamp": 95333063517688,
      "time_usec": 95333063517
    },
    {
      "frame_id": 447,
      "sensor_timestamp": 95333096764025,
      "time_usec": 95333096764
    },
    {
      "frame_id": 448,
      "sensor_timestamp": 95333130010607,
      "time_usec": 95333130010
    },
    {
      "frame_id": 449,
      "sensor_timestamp": 95333163256945,
      "time_usec": 95333163256
    },
    {
      "frame_id": 450,
      "sensor_timestamp": 95333196503283,
      "time_usec": 95333196503
    },
    {
      "frame_id": 451,
      "sensor_timestamp": 95333229749621,
      "time_usec": 95333229749
    },
    {
      "frame_id": 452,
      "sensor_timestamp": 95333262996203,
      "time_usec": 95333262996
    },
    {
      "frame_id": 453,
      "sensor_timestamp": 95333296242541,
      "time_usec": 95333296242
    },
    {
      "frame_id": 454,
      "sensor_timestamp": 95333329488879,
      "time_usec": 95333329488
    },
    {
      "frame_id": 455,
      "sensor_timestamp": 95333362735217,
      "time_usec": 95333362735
    },
    {
      "frame_id": 456,
      "sensor_timestamp": 95333395981799,
      "time_usec": 95333395981
    },
    {
      "frame_id": 457,
      "sensor_timestamp": 95333429228137,
      "time_usec": 95333429228
    },
    {
      "frame_id": 458,
      "sensor_timestamp": 95333462474475,
      "time_usec": 95333462474
    },
    {
      "frame_id": 459,
      "sensor_timestamp": 95333495720813,
      "time_usec": 95333495720
    },
    {
      "frame_id": 460,
      "sensor_timestamp": 95333528967395,
      "time_usec": 95333528967
    },
    {
      "frame_id": 461,
      "sensor_timestamp": 95333562213732,
      "time_usec": 95333562213
    },
    {
      "frame_id": 462,
      "sensor_timestamp": 95333595460070,
      "time_usec": 95333595460
    },
    {
      "frame_id": 463,
      "sensor_timestamp": 95333628706408,
      "time_usec": 95333628706
    },
    {
      "frame_id": 464,
      "sensor_timestamp": 95333661952990,
      "time_usec": 95333661952
    },
    {
      "frame_id": 465,
      "sensor_timestamp": 95333695199328,
      "time_usec": 95333695199
    },
    {
      "frame_id": 466,
      "sensor_timestamp": 95333728445666,
      "time_usec": 95333728445
    },
    {
      "frame_id": 467,
      "sensor_timestamp": 95333761692004,
      "time_usec": 95333761692
    },
    {
      "frame_id": 468,
      "sensor_timestamp": 95333794938586,
      "time_usec": 95333794938
    },
    {
      "frame_id": 469,
      "sensor_timestamp": 95333828184924,
      "time_usec": 95333828184
    },
    {
      "frame_id": 470,
      "sensor_timestamp": 95333861431262,
      "time_usec": 95333861431
    },
    {
      "frame_id": 471,
      "sensor_timestamp": 95333894677600,
      "time_usec": 95333894677
    },
    {
      "frame_id": 472,
      "sensor_timestamp": 95333927924182,
      "time_usec": 95333927924
    },
    {
      "frame_id": 473,
      "sensor_timestamp": 95333961170520,
      "time_usec": 95333961170
    },
    {
      "frame_id": 474,
      "sensor_timestamp": 95333994416857,
      "time_usec": 95333994416
    },
    {
      "frame_id": 475,
      "sensor_timestamp": 95334027663195,
      "time_usec": 95334027663
    },
    {
      "frame_id": 476,
      "sensor_timestamp": 95334060909777,
      "time_usec": 95334060909
    },
    {
      "frame_id": 477,
      "sensor_timestamp": 95334094156115,
      "time_usec": 95334094156
    },
    {
      "frame_id": 478,
      "sensor_timestamp": 95334127402453,
      "time_usec": 95334127402
    },
    {
      "frame_id": 479,
      "sensor_timestamp": 95334160648791,
      "time_usec": 95334160648
    },
    {
      "frame_id": 480,
      "sensor_timestamp": 95334193895129,
      "time_usec": 95334193895
    },
    {
      "frame_id": 481,
      "sensor_timestamp": 95334227141711,
      "time_usec": 95334227141
    },
    {
      "frame_id": 482,
      "sensor_timestamp": 95334260388049,
      "time_usec": 95334260388
    },
    {
      "frame_id": 483,
      "sensor_timestamp": 95334293634387,
      "time_usec": 95334293634
    },
    {
      "frame_id": 484,
      "sensor_timestamp": 95334326880725,
      "time_usec": 95334326880
    },
    {
      "frame_id": 485,
      "sensor_timestamp": 95334360127307,
      "time_usec": 95334360127
    },
    {
      "frame_id": 486,
      "sensor_timestamp": 95334393373645,
      "time_usec": 95334393373
    },
    {
      "frame_id": 487,
      "sensor_timestamp": 95334426619982,
      "time_usec": 95334426619
    },
    {
      "frame_id": 488,
      "sensor_timestamp": 95334459866320,
      "time_usec": 95334459866
    },
    {
      "frame_id": 489,
      "sensor_timestamp": 95334493112902,
      "time_usec": 95334493112
    },
    {
      "frame_id": 490,
      "sensor_timestamp": 95334526359240,
      "time_usec": 95334526359
    },
    {
      "frame_id": 491,
      "sensor_timestamp": 95334559605578,
      "time_usec": 95334559605
    },
    {
      "frame_id": 492,
      "sensor_timestamp": 95334592851916,
      "time_usec": 95334592851
    },
    {
      "frame_id": 493,
      "sensor_timestamp": 95334626098498,
      "time_usec": 95334626098
    },
    {
      "frame_id": 494,
      "sensor_timestamp": 95334659344836,
      "time_usec": 95334659344
    },
    {
      "frame_id": 495,
      "sensor_timestamp": 95334692591174,
      "time_usec": 95334692591
    },
    {
      "frame_id": 496,
      "sensor_timestamp": 95334725837512,
      "time_usec": 95334725837
    },
    {
      "frame_id": 497,
      "sensor_timestamp": 95334759084094,
      "time_usec": 95334759084
    },
    {
      "frame_id": 498,
      "sensor_timestamp": 95334792330432,
      "time_usec": 95334792330
    },
    {
      "frame_id": 499,
      "sensor_timestamp": 95334825576770,
      "time_usec": 95334825576
    },
    {
      "frame_id": 500,
      "sensor_timestamp": 95334858823107,
      "time_usec": 95334858823
    },
    {
      "frame_id": 501,
      "sensor_timestamp": 95334892069689,
      "time_usec": 95334892069
    },
    {
      "frame_id": 502,
      "sensor_timestamp": 95334925316027,
      "time_usec": 95334925316
    },
    {
      "frame_id": 503,
      "sensor_timestamp": 95334958562365,
      "time_usec": 95334958562
    },
    {
      "frame_id": 504,
      "sensor_timestamp": 95334991808703,
      "time_usec": 95334991808
    },
    {
      "frame_id": 505,
      "sensor_timestamp": 95335025055285,
      "time_usec": 95335025055
    },
    {
      "frame_id": 506,
      "sensor_timestamp": 95335058301623,
      "time_usec": 95335058301
    },
    {
      "frame_id": 507,
      "sensor_timestamp": 95335091547961,
      "time_usec": 95335091547
    },
    {
      "frame_id": 508,
      "sensor_timestamp": 95335124794299,
      "time_usec": 95335124794
    },
    {
      "frame_id": 509,
      "sensor_timestamp": 95335158040881,
      "time_usec": 95335158040
    },
    {
      "frame_id": 510,
      "sensor_timestamp": 95335191287219,
      "time_usec": 95335191287
    },
    {
      "frame_id": 511,
      "sensor_timestamp": 95335224533557,
      "time_usec": 95335224533
    },
    {
      "frame_id": 512,
      "sensor_timestamp": 95335257779895,
      "time_usec": 95335257779
    },
    {
      "frame_id": 513,
      "sensor_timestamp": 95335291026477,
      "time_usec": 95335291026
    },
    {
      "frame_id": 514,
      "sensor_timestamp": 95335324272814,
      "time_usec": 95335324272
    },
    {
      "frame_id": 515,
      "sensor_timestamp": 95335357519152,
      "time_usec": 95335357519
    },
    {
      "frame_id": 516,
      "sensor_timestamp": 95335390765490,
      "time_usec": 95335390765
    },
    {
      "frame_id": 517,
      "sensor_timestamp": 95335424011828,
      "time_usec": 95335424011
    },
    {
      "frame_id": 518,
      "sensor_timestamp": 95335457258410,
      "time_usec": 95335457258
    },
    {
      "frame_id": 519,
      "sensor_timestamp": 95335490504748,
      "time_usec": 95335490504
    },
    {
      "frame_id": 520,
      "sensor_timestamp": 95335523751086,
      "time_usec": 95335523751
    },
    {
      "frame_id": 521,
      "sensor_timestamp": 95335556997424,
      "time_usec": 95335556997
    },
    {
      "frame_id": 522,
      "sensor_timestamp": 95335590244006,
      "time_usec": 95335590244
    },
    {
      "frame_id": 523,
      "sensor_timestamp": 95335623490344,
      "time_usec": 95335623490
    },
    {
      "frame_id": 524,
      "sensor_timestamp": 95335656736682,
      "time_usec": 95335656736
    },
    {
      "frame_id": 525,
      "sensor_timestamp": 95335689983020,
      "time_usec": 95335689983
    },
    {
      "frame_id": 526,
      "sensor_timestamp": 95335723229602,
      "time_usec": 95335723229
    },
    {
      "frame_id": 527,
      "sensor_timestamp": 95335756475939,
      "time_usec": 95335756475
    },
    {
      "frame_id": 528,
      "sensor_timestamp": 95335789722277,
      "time_usec": 95335789722
    },
    {
      "frame_id": 529,
      "sensor_timestamp": 95335822968615,
      "time_usec": 95335822968
    },
    {
      "frame_id": 530,
      "sensor_timestamp": 95335856215197,
      "time_usec": 95335856215
    },
    {
      "frame_id": 531,
      "sensor_timestamp": 95335889461535,
      "time_usec": 95335889461
    },
    {
      "frame_id": 532,
      "sensor_timestamp": 95335922707873,
      "time_usec": 95335922707
    },
    {
      "frame_id": 533,
      "sensor_timestamp": 95335955954211,
      "time_usec": 95335955954
    },
    {
      "frame_id": 534,
      "sensor_timestamp": 95335989200793,
      "time_usec": 95335989200
    },
    {
      "frame_id": 535,
      "sensor_timestamp": 95336022447131,
      "time_usec": 95336022447
    },
    {
      "frame_id": 536,
      "sensor_timestamp": 95336055693469,
      "time_usec": 95336055693
    },
    {
      "frame_id": 537,
      "sensor_timestamp": 95336088939807,
      "time_usec": 95336088939
    },
    {
      "frame_id": 538,
      "sensor_timestamp": 95336122186389,
      "time_usec": 95336122186
    },
    {
      "frame_id": 539,
      "sensor_timestamp": 95336155432727,
      "time_usec": 95336155432
    },
    {
      "frame_id": 540,
      "sensor_timestamp": 95336188679064,
      "time_usec": 95336188679
    },
    {
      "frame_id": 541,
      "sensor_timestamp": 95336221925402,
      "time_usec": 95336221925
    },
    {
      "frame_id": 542,
      "sensor_timestamp": 95336255171984,
      "time_usec": 95336255171
    },
    {
      "frame_id": 543,
      "sensor_timestamp": 95336288418322,
      "time_usec": 95336288418
    },
    {
      "frame_id": 544,
      "sensor_timestamp": 95336321664660,
      "time_usec": 95336321664
    },
    {
      "frame_id": 545,
      "sensor_timestamp": 95336354910998,
      "time_usec": 95336354910
    },
    {
      "frame_id": 546,
      "sensor_timestamp": 95336388157580,
      "time_usec": 95336388157
    },
    {
      "frame_id": 547,
      "sensor_timestamp": 95336421403918,
      "time_usec": 95336421403
    },
    {
      "frame_id": 548,
      "sensor_timestamp": 95336454650256,
      "time_usec": 95336454650
    },
    {
      "frame_id": 549,
      "sensor_timestamp": 95336487896594,
      "time_usec": 95336487896
    },
    {
      "frame_id": 550,
      "sensor_timestamp": 95336521143176,
      "time_usec": 95336521143
    },
    {
      "frame_id": 551,
