{
  "frames": [
    {
      "frame_id": 0,
      "sensor_timestamp": 667833319268989,
      "time_usec": 667833319268
    },
    {
      "frame_id": 1,
      "sensor_timestamp": 667833385761909,
      "time_usec": 667833385761
    },
    {
      "frame_id": 2,
      "sensor_timestamp": 667833419008247,
      "time_usec": 667833419008
    },
    {
      "frame_id": 3,
      "sensor_timestamp": 667833452254585,
      "time_usec": 667833452254
    },
    {
      "frame_id": 4,
      "sensor_timestamp": 667833485501167,
      "time_usec": 667833485501
    },
    {
      "frame_id": 5,
      "sensor_timestamp": 667833518747505,
      "time_usec": 667833518747
    },
    {
      "frame_id": 6,
      "sensor_timestamp": 667833551993843,
      "time_usec": 667833551993
    },
    {
      "frame_id": 7,
      "sensor_timestamp": 667833585240180,
      "time_usec": 667833585240
    },
    {
      "frame_id": 8,
      "sensor_timestamp": 667833618486762,
      "time_usec": 667833618486
    },
    {
      "frame_id": 9,
      "sensor_timestamp": 667833651733100,
      "time_usec": 667833651733
    },
    {
      "frame_id": 10,
      "sensor_timestamp": 667833684979438,
      "time_usec": 667833684979
    },
    {
      "frame_id": 11,
      "sensor_timestamp": 667833718225776,
      "time_usec": 667833718225
    },
    {
      "frame_id": 12,
      "sensor_timestamp": 667833751472114,
      "time_usec": 667833751472
    },
    {
      "frame_id": 13,
      "sensor_timestamp": 667833784718696,
      "time_usec": 667833784718
    },
    {
      "frame_id": 14,
      "sensor_timestamp": 667833817965034,
      "time_usec": 667833817965
    },
    {
      "frame_id": 15,
      "sensor_timestamp": 667833851211372,
      "time_usec": 667833851211
    },
    {
      "frame_id": 16,
      "sensor_timestamp": 667833884457710,
      "time_usec": 667833884457
    },
    {
      "frame_id": 17,
      "sensor_timestamp": 667833917704292,
      "time_usec": 667833917704
    },
    {
      "frame_id": 18,
      "sensor_timestamp": 667833950950630,
      "time_usec": 667833950950
    },
    {
      "frame_id": 19,
      "sensor_timestamp": 667833984196968,
      "time_usec": 667833984196
    },
    {
      "frame_id": 20,
      "sensor_timestamp": 667834017443305,
      "time_usec": 667834017443
    },
    {
      "frame_id": 21,
      "sensor_timestamp": 667834050689887,
      "time_usec": 667834050689
    },
    {
      "frame_id": 22,
      "sensor_timestamp": 667834083936225,
      "time_usec": 667834083936
    },
    {
      "frame_id": 23,
      "sensor_timestamp": 667834117182563,
      "time_usec": 667834117182
    },
    {
      "frame_id": 24,
      "sensor_timestamp": 667834150428901,
      "time_usec": 667834150428
    },
    {
      "frame_id": 25,
      "sensor_timestamp": 667834183675483,
      "time_usec": 667834183675
    },
    {
      "frame_id": 26,
      "sensor_timestamp": 667834216921821,
      "time_usec": 667834216921
    },
    {
      "frame_id": 27,
      "sensor_timestamp": 667834250168159,
      "time_usec": 667834250168
    },
    {
      "frame_id": 28,
      "sensor_timestamp": 667834283414497,
      "time_usec": 667834283414
    },
    {
      "frame_id": 29,
      "sensor_timestamp": 667834316661079,
      "time_usec": 667834316661
    },
    {
      "frame_id": 30,
      "sensor_timestamp": 667834349907417,
      "time_usec": 667834349907
    },
    {
      "frame_id": 31,
      "sensor_timestamp": 667834383153755,
      "time_usec": 667834383153
    },
    {
      "frame_id": 32,
      "sensor_timestamp": 667834416400093,
      "time_usec": 667834416400
    },
    {
      "frame_id": 33,
      "sensor_timestamp": 667834449646675,
      "time_usec": 667834449646
    },
    {
      "frame_id": 34,
      "sensor_timestamp": 667834482893012,
      "time_usec": 667834482893
    },
    {
      "frame_id": 35,
      "sensor_timestamp": 667834516139350,
      "time_usec": 667834516139
    },
    {
      "frame_id": 36,
      "sensor_timestamp": 667834549385688,
      "time_usec": 667834549385
    },
    {
      "frame_id": 37,
      "sensor_timestamp": 667834582632270,
      "time_usec": 667834582632
    },
    {
      "frame_id": 38,
      "sensor_timestamp": 667834615878608,
      "time_usec": 667834615878
    },
    {
      "frame_id": 39,
      "sensor_timestamp": 667834649124946,
      "time_usec": 667834649124
    },
    {
      "frame_id": 40,
      "sensor_timestamp": 667834682371284,
      "time_usec": 667834682371
    },
    {
      "frame_id": 41,
      "sensor_timestamp": 667834715617866,
      "time_usec": 667834715617
    },
    {
      "frame_id": 42,
      "sensor_timestamp": 667834748864204,
      "time_usec": 667834748864
    },
    {
      "frame_id": 43,
      "sensor_timestamp": 667834782110542,
      "time_usec": 667834782110
    },
    {
      "frame_id": 44,
      "sensor_timestamp": 667834815356880,
      "time_usec": 667834815356
    },
    {
      "frame_id": 45,
      "sensor_timestamp": 667834848603462,
      "time_usec": 667834848603
    },
    {
      "frame_id": 46,
      "sensor_timestamp": 667834881849800,
      "time_usec": 667834881849
    },
    {
      "frame_id": 47,
      "sensor_timestamp": 667834915096137,
      "time_usec": 667834915096
    },
    {
      "frame_id": 48,
      "sensor_timestamp": 667834948342475,
      "time_usec": 667834948342
    },
    {
      "frame_id": 49,
      "sensor_timestamp": 667834981588813,
      "time_usec": 667834981588
    },
    {
      "frame_id": 50,
      "sensor_timestamp": 667835014835395,
      "time_usec": 667835014835
    },
    {
      "frame_id": 51,
      "sensor_timestamp": 667835048081733,
      "time_usec": 667835048081
    },
    {
      "frame_id": 52,
      "sensor_timestamp": 667835081328071,
      "time_usec": 667835081328
    },
    {
      "frame_id": 53,
      "sensor_timestamp": 667835114574409,
      "time_usec": 667835114574
    },
    {
      "frame_id": 54,
      "sensor_timestamp": 667835147820991,
      "time_usec": 667835147820
    },
    {
      "frame_id": 55,
      "sensor_timestamp": 667835181067329,
      "time_usec": 667835181067
    },
    {
      "frame_id": 56,
      "sensor_timestamp": 667835214313667,
      "time_usec": 667835214313
    },
    {
      "frame_id": 57,
      "sensor_timestamp": 667835247560005,
      "time_usec": 667835247560
    },
    {
      "frame_id": 58,
      "sensor_timestamp": 667835280806587,
      "time_usec": 667835280806
    },
    {
      "frame_id": 59,
      "sensor_timestamp": 667835314052925,
      "time_usec": 667835314052
    },
    {
      "frame_id": 60,
      "sensor_timestamp": 667835347299262,
      "time_usec": 667835347299
    },
    {
      "frame_id": 61,
      "sensor_timestamp": 667835380545600,
      "time_usec": 667835380545
    },
    {
      "frame_id": 62,
      "sensor_timestamp": 667835413792182,
      "time_usec": 667835413792
    },
    {
      "frame_id": 63,
      "sensor_timestamp": 667835447038520,
      "time_usec": 667835447038
    },
    {
      "frame_id": 64,
      "sensor_timestamp": 667835480284858,
      "time_usec": 667835480284
    },
    {
      "frame_id": 65,
      "sensor_timestamp": 667835513531196,
      "time_usec": 667835513531
    },
    {
      "frame_id": 66,
      "sensor_timestamp": 667835546777778,
      "time_usec": 667835546777
    },
    {
      "frame_id": 67,
      "sensor_timestamp": 667835580024116,
      "time_usec": 667835580024
    },
    {
      "frame_id": 68,
      "sensor_timestamp": 667835613270454,
      "time_usec": 667835613270
    },
    {
      "frame_id": 69,
      "sensor_timestamp": 667835646516792,
      "time_usec": 667835646516
    },
    {
      "frame_id": 70,
      "sensor_timestamp": 667835679763374,
      "time_usec": 667835679763
    },
    {
      "frame_id": 71,
      "sensor_timestamp": 667835713009712,
      "time_usec": 667835713009
    },
    {
      "frame_id": 72,
      "sensor_timestamp": 667835746256050,
      "time_usec": 667835746256
    },
    {
      "frame_id": 73,
      "sensor_timestamp": 667835779502387,
      "time_usec": 667835779502
    },
    {
      "frame_id": 74,
      "sensor_timestamp": 667835812748969,
      "time_usec": 667835812748
    },
    {
      "frame_id": 75,
      "sensor_timestamp": 667835845995307,
      "time_usec": 667835845995
    },
    {
      "frame_id": 76,
      "sensor_timestamp": 667835879241645,
      "time_usec": 667835879241
    },
    {
      "frame_id": 77,
      "sensor_timestamp": 667835912487983,
      "time_usec": 667835912487
    },
    {
      "frame_id": 78,
      "sensor_timestamp": 667835945734565,
      "time_usec": 667835945734
    },
    {
      "frame_id": 79,
      "sensor_timestamp": 667835978980903,
      "time_usec": 667835978980
    },
    {
      "frame_id": 80,
      "sensor_timestamp": 667836012227241,
      "time_usec": 667836012227
    },
    {
      "frame_id": 81,
      "sensor_timestamp": 667836045473579,
      "time_usec": 667836045473
    },
    {
      "frame_id": 82,
      "sensor_timestamp": 667836078720161,
      "time_usec": 667836078720
    },
    {
      "frame_id": 83,
      "sensor_timestamp": 667836111966499,
      "time_usec": 667836111966
    },
    {
      "frame_id": 84,
      "sensor_timestamp": 667836145212837,
      "time_usec": 667836145212
    },
    {
      "frame_id": 85,
      "sensor_timestamp": 667836178459175,
      "time_usec": 667836178459
    },
    {
      "frame_id": 86,
      "sensor_timestamp": 667836211705512,
      "time_usec": 667836211705
    },
    {
      "frame_id": 87,
      "sensor_timestamp": 667836244952094,
      "time_usec": 667836244952
    },
    {
      "frame_id": 88,
      "sensor_timestamp": 667836278198432,
      "time_usec": 667836278198
    },
    {
      "frame_id": 89,
      "sensor_timestamp": 667836311444770,
      "time_usec": 667836311444
    },
    {
      "frame_id": 90,
      "sensor_timestamp": 667836344691108,
      "time_usec": 667836344691
    },
    {
      "frame_id": 91,
      "sensor_timestamp": 667836377937690,
      "time_usec": 667836377937
    },
    {
      "frame_id": 92,
      "sensor_timestamp": 667836411184028,
      "time_usec": 667836411184
    },
    {
      "frame_id": 93,
      "sensor_timestamp": 667836444430366,
      "time_usec": 667836444430
    },
    {
      "frame_id": 94,
      "sensor_timestamp": 667836477676704,
      "time_usec": 667836477676
    },
    {
      "frame_id": 95,
      "sensor_timestamp": 667836510923286,
      "time_usec": 667836510923
    },
    {
      "frame_id": 96,
      "sensor_timestamp": 667836544169624,
      "time_usec": 667836544169
    },
    {
      "frame_id": 97,
      "sensor_timestamp": 667836577415962,
      "time_usec": 667836577415
    },
    {
      "frame_id": 98,
      "sensor_timestamp": 667836610662300,
      "time_usec": 667836610662
    },
    {
      "frame_id": 99,
      "sensor_timestamp": 667836643908882,
      "time_usec": 667836643908
    },
    {
      "frame_id": 100,
      "sensor_timestamp": 667836677155219,
      "time_usec": 667836677155
    },
    {
      "frame_id": 101,
      "sensor_timestamp": 667836710401557,
      "time_usec": 667836710401
    },
    {
      "frame_id": 102,
      "sensor_timestamp": 667836743647895,
      "time_usec": 667836743647
    },
    {
      "frame_id": 103,
      "sensor_timestamp": 667836776894477,
      "time_usec": 667836776894
    },
    {
      "frame_id": 104,
      "sensor_timestamp": 667836810140815,
      "time_usec": 667836810140
    },
    {
      "frame_id": 105,
      "sensor_timestamp": 667836843387153,
      "time_usec": 667836843387
    },
    {
      "frame_id": 106,
      "sensor_timestamp": 667836876633491,
      "time_usec": 667836876633
    },
    {
      "frame_id": 107,
      "sensor_timestamp": 667836909880073,
      "time_usec": 667836909880
    },
    {
      "frame_id": 108,
      "sensor_timestamp": 667836943126411,
      "time_usec": 667836943126
    },
    {
      "frame_id": 109,
      "sensor_timestamp": 667836976372749,
      "time_usec": 667836976372
    },
    {
      "frame_id": 110,
      "sensor_timestamp": 667837009619087,
      "time_usec": 667837009619
    },
    {
      "frame_id": 111,
      "sensor_timestamp": 667837042865669,
      "time_usec": 667837042865
    },
    {
      "frame_id": 112,
      "sensor_timestamp": 667837076112007,
      "time_usec": 667837076112
    },
    {
      "frame_id": 113,
      "sensor_timestamp": 667837109358344,
      "time_usec": 667837109358
    },
    {
      "frame_id": 114,
      "sensor_timestamp": 667837142604682,
      "time_usec": 667837142604
    },
    {
      "frame_id": 115,
      "sensor_timestamp": 667837175851264,
      "time_usec": 667837175851
    },
    {
      "frame_id": 116,
      "sensor_timestamp": 667837209097602,
      "time_usec": 667837209097
    },
    {
      "frame_id": 117,
      "sensor_timestamp": 667837242343940,
      "time_usec": 667837242343
    },
    {
      "frame_id": 118,
      "sensor_timestamp": 667837275590278,
      "time_usec": 667837275590
    },
    {
      "frame_id": 119,
      "sensor_timestamp": 667837308836860,
      "time_usec": 667837308836
    },
    {
      "frame_id": 120,
      "sensor_timestamp": 667837342083198,
      "time_usec": 667837342083
    },
    {
      "frame_id": 121,
      "sensor_timestamp": 667837375329536,
      "time_usec": 667837375329
    },
    {
      "frame_id": 122,
      "sensor_timestamp": 667837408575874,
      "time_usec": 667837408575
    },
    {
      "frame_id": 123,
      "sensor_timestamp": 667837441822212,
      "time_usec": 667837441822
    },
    {
      "frame_id": 124,
      "sensor_timestamp": 667837475068794,
      "time_usec": 667837475068
    },
    {
      "frame_id": 125,
      "sensor_timestamp": 667837508315132,
      "time_usec": 667837508315
    },
    {
      "frame_id": 126,
      "sensor_timestamp": 667837541561469,
      "time_usec": 667837541561
    },
    {
      "frame_id": 127,
      "sensor_timestamp": 667837574807807,
      "time_usec": 667837574807
    },
    {
      "frame_id": 128,
      "sensor_timestamp": 667837608054389,
      "time_usec": 667837608054
    },
    {
      "frame_id": 129,
      "sensor_timestamp": 667837641300727,
      "time_usec": 667837641300
    },
    {
      "frame_id": 130,
      "sensor_timestamp": 667837674547065,
      "time_usec": 667837674547
    },
    {
      "frame_id": 131,
      "sensor_timestamp": 667837707793403,
      "time_usec": 667837707793
    },
    {
      "frame_id": 132,
      "sensor_timestamp": 667837741039985,
      "time_usec": 667837741039
    },
    {
      "frame_id": 133,
      "sensor_timestamp": 667837774286323,
      "time_usec": 667837774286
    },
    {
      "frame_id": 134,
      "sensor_timestamp": 667837807532661,
      "time_usec": 667837807532
    },
    {
      "frame_id": 135,
      "sensor_timestamp": 667837840778999,
      "time_usec": 667837840778
    },
    {
      "frame_id": 136,
      "sensor_timestamp": 667837874025581,
      "time_usec": 667837874025
    },
    {
      "frame_id": 137,
      "sensor_timestamp": 667837907271919,
      "time_usec": 667837907271
    },
    {
      "frame_id": 138,
      "sensor_timestamp": 667837940518257,
      "time_usec": 667837940518
    },
    {
      "frame_id": 139,
      "sensor_timestamp": 667837973764594,
      "time_usec": 667837973764
    },
    {
      "frame_id": 140,
      "sensor_timestamp": 667838007011176,
      "time_usec": 667838007011
    },
    {
      "frame_id": 141,
      "sensor_timestamp": 667838040257514,
      "time_usec": 667838040257
    },
    {
      "frame_id": 142,
      "sensor_timestamp": 667838073503852,
      "time_usec": 667838073503
    },
    {
      "frame_id": 143,
      "sensor_timestamp": 667838106750190,
      "time_usec": 667838106750
    },
    {
      "frame_id": 144,
      "sensor_timestamp": 667838139996772,
      "time_usec": 667838139996
    },
    {
      "frame_id": 145,
      "sensor_timestamp": 667838173243110,
      "time_usec": 667838173243
    },
    {
      "frame_id": 146,
      "sensor_timestamp": 667838206489448,
      "time_usec": 667838206489
    },
    {
      "frame_id": 147,
      "sensor_timestamp": 667838239735786,
      "time_usec": 667838239735
    },
    {
      "frame_id": 148,
      "sensor_timestamp": 667838272982368,
      "time_usec": 667838272982
    },
    {
      "frame_id": 149,
      "sensor_timestamp": 667838306228706,
      "time_usec": 667838306228
    },
    {
      "frame_id": 150,
      "sensor_timestamp": 667838339475044,
      "time_usec": 667838339475
    },
    {
      "frame_id": 151,
      "sensor_timestamp": 667838372721382,
      "time_usec": 667838372721
    },
    {
      "frame_id": 152,
      "sensor_timestamp": 667838405967964,
      "time_usec": 667838405967
    },
    {
      "frame_id": 153,
      "sensor_timestamp": 667838439214301,
      "time_usec": 667838439214
    },
    {
      "frame_id": 154,
      "sensor_timestamp": 667838472460639,
      "time_usec": 667838472460
    },
    {
      "frame_id": 155,
      "sensor_timestamp": 667838505706977,
      "time_usec": 667838505706
    },
    {
      "frame_id": 156,
      "sensor_timestamp": 667838538953559,
      "time_usec": 667838538953
    },
    {
      "frame_id": 157,
      "sensor_timestamp": 667838572199897,
      "time_usec": 667838572199
    },
    {
      "frame_id": 158,
      "sensor_timestamp": 667838605446235,
      "time_usec": 667838605446
    },
    {
      "frame_id": 159,
      "sensor_timestamp": 667838638692573,
      "time_usec": 667838638692
    },
    {
      "frame_id": 160,
      "sensor_timestamp": 667838671938911,
      "time_usec": 667838671938
    },
    {
      "frame_id": 161,
      "sensor_timestamp": 667838705185493,
      "time_usec": 667838705185
    },
    {
      "frame_id": 162,
      "sensor_timestamp": 667838738431831,
      "time_usec": 667838738431
    },
    {
      "frame_id": 163,
      "sensor_timestamp": 667838771678169,
      "time_usec": 667838771678
    },
    {
      "frame_id": 164,
      "sensor_timestamp": 667838804924507,
      "time_usec": 667838804924
    },
    {
      "frame_id": 165,
      "sensor_timestamp": 667838838171089,
      "time_usec": 667838838171
    },
    {
      "frame_id": 166,
      "sensor_timestamp": 667838871417426,
      "time_usec": 667838871417
    },
    {
      "frame_id": 167,
      "sensor_timestamp": 667838904663764,
      "time_usec": 667838904663
    },
    {
      "frame_id": 168,
      "sensor_timestamp": 667838937910102,
      "time_usec": 667838937910
    },
    {
      "frame_id": 169,
      "sensor_timestamp": 667838971156684,
      "time_usec": 667838971156
    },
    {
      "frame_id": 170,
      "sensor_timestamp": 667839004403022,
      "time_usec": 667839004403
    },
    {
      "frame_id": 171,
      "sensor_timestamp": 667839037649360,
      "time_usec": 667839037649
    },
    {
      "frame_id": 172,
      "sensor_timestamp": 667839070895698,
      "time_usec": 667839070895
    },
    {
      "frame_id": 173,
      "sensor_timestamp": 667839104142280,
      "time_usec": 667839104142
    },
    {
      "frame_id": 174,
      "sensor_timestamp": 667839137340370,
      "time_usec": 667839137340
    },
    {
      "frame_id": 175,
      "sensor_timestamp": 667839170634956,
      "time_usec": 667839170634
    },
    {
      "frame_id": 176,
      "sensor_timestamp": 667839203881294,
      "time_usec": 667839203881
    },
    {
      "frame_id": 177,
      "sensor_timestamp": 667839237127876,
      "time_usec": 667839237127
    },
    {
      "frame_id": 178,
      "sensor_timestamp": 667839270374214,
      "time_usec": 667839270374
    },
    {
      "frame_id": 179,
      "sensor_timestamp": 667839303620551,
      "time_usec": 667839303620
    },
    {
      "frame_id": 180,
      "sensor_timestamp": 667839336866889,
      "time_usec": 667839336866
    },
    {
      "frame_id": 181,
      "sensor_timestamp": 667839370113471,
      "time_usec": 667839370113
    },
    {
      "frame_id": 182,
      "sensor_timestamp": 667839403359809,
      "time_usec": 667839403359
    },
    {
      "frame_id": 183,
      "sensor_timestamp": 667839436606147,
      "time_usec": 667839436606
    },
    {
      "frame_id": 184,
      "sensor_timestamp": 667839469852485,
      "time_usec": 667839469852
    },
    {
      "frame_id": 185,
      "sensor_timestamp": 667839503099067,
      "time_usec": 667839503099
    },
    {
      "frame_id": 186,
      "sensor_timestamp": 667839536345405,
      "time_usec": 667839536345
    },
    {
      "frame_id": 187,
      "sensor_timestamp": 667839569591743,
      "time_usec": 667839569591
    },
    {
      "frame_id": 188,
      "sensor_timestamp": 667839602838081,
      "time_usec": 667839602838
    },
    {
      "frame_id": 189,
      "sensor_timestamp": 667839636084663,
      "time_usec": 667839636084
    },
    {
      "frame_id": 190,
      "sensor_timestamp": 667839669331001,
      "time_usec": 667839669331
    },
    {
      "frame_id": 191,
      "sensor_timestamp": 667839702577339,
      "time_usec": 667839702577
    },
    {
      "frame_id": 192,
      "sensor_timestamp": 667839735823676,
      "time_usec": 667839735823
    },
    {
      "frame_id": 193,
      "sensor_timestamp": 667839769070259,
      "time_usec": 667839769070
    },
    {
      "frame_id": 194,
      "sensor_timestamp": 667839802266884,
      "time_usec": 667839802266
    },
    {
      "frame_id": 195,
      "sensor_timestamp": 667839835562934,
      "time_usec": 667839835562
    },
    {
      "frame_id": 196,
      "sensor_timestamp": 667839868809272,
      "time_usec": 667839868809
    },
    {
      "frame_id": 197,
      "sensor_timestamp": 667839902055610,
      "time_usec": 667839902055
    },
    {
      "frame_id": 198,
      "sensor_timestamp": 667839935302192,
      "time_usec": 667839935302
    },
    {
      "frame_id": 199,
      "sensor_timestamp": 667839968548530,
      "time_usec": 667839968548
    },
    {
      "frame_id": 200,
      "sensor_timestamp": 667840001794868,
      "time_usec": 667840001794
    },
    {
      "frame_id": 201,
      "sensor_timestamp": 667840035041206,
      "time_usec": 667840035041
    },
    {
      "frame_id": 202,
      "sensor_timestamp": 667840068287788,
      "time_usec": 667840068287
    },
    {
      "frame_id": 203,
      "sensor_timestamp": 667840101534126,
      "time_usec": 667840101534
    },
    {
      "frame_id": 204,
      "sensor_timestamp": 667840134780464,
      "time_usec": 667840134780
    },
    {
      "frame_id": 205,
      "sensor_timestamp": 667840168026801,
      "time_usec": 667840168026
    },
    {
      "frame_id": 206,
      "sensor_timestamp": 667840201273384,
      "time_usec": 667840201273
    },
    {
      "frame_id": 207,
      "sensor_timestamp": 667840234519721,
      "time_usec": 667840234519
    },
    {
      "frame_id": 208,
      "sensor_timestamp": 667840267766059,
      "time_usec": 667840267766
    },
    {
      "frame_id": 209,
      "sensor_timestamp": 667840301012397,
      "time_usec": 667840301012
    },
    {
      "frame_id": 210,
      "sensor_timestamp": 667840334258979,
      "time_usec": 667840334258
    },
    {
      "frame_id": 211,
      "sensor_timestamp": 667840367505317,
      "time_usec": 667840367505
    },
    {
      "frame_id": 212,
      "sensor_timestamp": 667840400751655,
      "time_usec": 667840400751
    },
    {
      "frame_id": 213,
      "sensor_timestamp": 667840433997993,
      "time_usec": 667840433997
    },
    {
      "frame_id": 214,
      "sensor_timestamp": 667840467244575,
      "time_usec": 667840467244
    },
    {
      "frame_id": 215,
      "sensor_timestamp": 667840500490913,
      "time_usec": 667840500490
    },
    {
      "frame_id": 216,
      "sensor_timestamp": 667840533737251,
      "time_usec": 667840533737
    },
    {
      "frame_id": 217,
      "sensor_timestamp": 667840566930865,
      "time_usec": 667840566930
    },
    {
      "frame_id": 218,
      "sensor_timestamp": 667840600230171,
      "time_usec": 667840600230
    },
    {
      "frame_id": 219,
      "sensor_timestamp": 667840633476509,
      "time_usec": 667840633476
    },
    {
      "frame_id": 220,
      "sensor_timestamp": 667840666722846,
      "time_usec": 667840666722
    },
    {
      "frame_id": 221,
      "sensor_timestamp": 667840699969184,
      "time_usec": 667840699969
    },
    {
      "frame_id": 222,
      "sensor_timestamp": 667840733215766,
      "time_usec": 667840733215
    },
    {
      "frame_id": 223,
      "sensor_timestamp": 667840766462104,
      "time_usec": 667840766462
    },
    {
      "frame_id": 224,
      "sensor_timestamp": 667840799708442,
      "time_usec": 667840799708
    },
    {
      "frame_id": 225,
      "sensor_timestamp": 667840832954780,
      "time_usec": 667840832954
    },
    {
      "frame_id": 226,
      "sensor_timestamp": 667840866201362,
      "time_usec": 667840866201
    },
    {
      "frame_id": 227,
      "sensor_timestamp": 667840899447700,
      "time_usec": 667840899447
    },
    {
      "frame_id": 228,
      "sensor_timestamp": 667840932694038,
      "time_usec": 667840932694
    },
    {
      "frame_id": 229,
      "sensor_timestamp": 667840965940376,
      "time_usec": 667840965940
    },
    {
      "frame_id": 230,
      "sensor_timestamp": 667840999186714,
      "time_usec": 667840999186
    },
    {
      "frame_id": 231,
      "sensor_timestamp": 667841032433296,
      "time_usec": 667841032433
    },
    {
      "frame_id": 232,
      "sensor_timestamp": 667841065679634,
      "time_usec": 667841065679
    },
    {
      "frame_id": 233,
      "sensor_timestamp": 667841098925971,
      "time_usec": 667841098925
    },
    {
      "frame_id": 234,
      "sensor_timestamp": 667841132172309,
      "time_usec": 667841132172
    },
    {
      "frame_id": 235,
      "sensor_timestamp": 667841165418891,
      "time_usec": 667841165418
    },
    {
      "frame_id": 236,
      "sensor_timestamp": 667841198665229,
      "time_usec": 667841198665
    },
    {
      "frame_id": 237,
      "sensor_timestamp": 667841231911567,
      "time_usec": 667841231911
    },
    {
      "frame_id": 238,
      "sensor_timestamp": 667841265157905,
      "time_usec": 667841265157
    },
    {
      "frame_id": 239,
      "sensor_timestamp": 667841298404487,
      "time_usec": 667841298404
    },
    {
      "frame_id": 240,
      "sensor_timestamp": 667841331650825,
      "time_usec": 667841331650
    },
    {
      "frame_id": 241,
      "sensor_timestamp": 667841364897163,
      "time_usec": 667841364897
    },
    {
      "frame_id": 242,
      "sensor_timestamp": 667841398143501,
      "time_usec": 667841398143
    },
    {
      "frame_id": 243,
      "sensor_timestamp": 667841431390083,
      "time_usec": 667841431390
    },
    {
      "frame_id": 244,
      "sensor_timestamp": 667841464636421,
      "time_usec": 667841464636
    },
    {
      "frame_id": 245,
      "sensor_timestamp": 667841497882759,
      "time_usec": 667841497882
    },
    {
      "frame_id": 246,
      "sensor_timestamp": 667841531129096,
      "time_usec": 667841531129
    },
    {
      "frame_id": 247,
      "sensor_timestamp": 667841564375678,
      "time_usec": 667841564375
    },
    {
      "frame_id": 248,
      "sensor_timestamp": 667841597622016,
      "time_usec": 667841597622
    },
    {
      "frame_id": 249,
      "sensor_timestamp": 667841630868354,
      "time_usec": 667841630868
    },
    {
      "frame_id": 250,
      "sensor_timestamp": 667841664114692,
      "time_usec": 667841664114
    },
    {
      "frame_id": 251,
      "sensor_timestamp": 667841697361274,
      "time_usec": 667841697361
    },
    {
      "frame_id": 252,
      "sensor_timestamp": 667841730607612,
      "time_usec": 667841730607
    },
    {
      "frame_id": 253,
      "sensor_timestamp": 667841763853950,
      "time_usec": 667841763853
    },
    {
      "frame_id": 254,
      "sensor_timestamp": 667841797100288,
      "time_usec": 667841797100
    },
    {
      "frame_id": 255,
      "sensor_timestamp": 667841830346870,
      "time_usec": 667841830346
    },
    {
      "frame_id": 256,
      "sensor_timestamp": 667841863593208,
      "time_usec": 667841863593
    },
    {
      "frame_id": 257,
      "sensor_timestamp": 667841896839546,
      "time_usec": 667841896839
    },
    {
      "frame_id": 258,
      "sensor_timestamp": 667841930085884,
      "time_usec": 667841930085
    },
    {
      "frame_id": 259,
      "sensor_timestamp": 667841963332466,
      "time_usec": 667841963332
    },
    {
      "frame_id": 260,
      "sensor_timestamp": 667841996578803,
      "time_usec": 667841996578
    },
    {
      "frame_id": 261,
      "sensor_timestamp": 667842029825141,
      "time_usec": 667842029825
    },
    {
      "frame_id": 262,
      "sensor_timestamp": 667842063071479,
      "time_usec": 667842063071
    },
    {
      "frame_id": 263,
      "sensor_timestamp": 667842096318061,
      "time_usec": 667842096318
    },
    {
      "frame_id": 264,
      "sensor_timestamp": 667842129564399,
      "time_usec": 667842129564
    },
    {
      "frame_id": 265,
      "sensor_timestamp": 667842162810737,
      "time_usec": 667842162810
    },
    {
      "frame_id": 266,
      "sensor_timestamp": 667842196057075,
      "time_usec": 667842196057
    },
    {
      "frame_id": 267,
      "sensor_timestamp": 667842229303413,
      "time_usec": 667842229303
    },
    {
      "frame_id": 268,
      "sensor_timestamp": 667842262549995,
      "time_usec": 667842262549
    },
    {
      "frame_id": 269,
      "sensor_timestamp": 667842295796333,
      "time_usec": 667842295796
    },
    {
      "frame_id": 270,
      "sensor_timestamp": 667842329042671,
      "time_usec": 667842329042
    },
    {
      "frame_id": 271,
      "sensor_timestamp": 667842362289009,
      "time_usec": 667842362289
    },
    {
      "frame_id": 272,
      "sensor_timestamp": 667842395535591,
      "time_usec": 667842395535
    },
    {
      "frame_id": 273,
      "sensor_timestamp": 667842428781928,
      "time_usec": 667842428781
    },
    {
      "frame_id": 274,
      "sensor_timestamp": 667842462028266,
      "time_usec": 667842462028
    },
    {
      "frame_id": 275,
      "sensor_timestamp": 667842495274604,
      "time_usec": 667842495274
    },
    {
      "frame_id": 276,
      "sensor_timestamp": 667842528521186,
      "time_usec": 667842528521
    },
    {
      "frame_id": 277,
      "sensor_timestamp": 667842561771687,
      "time_usec": 667842561771
    },
    {
      "frame_id": 278,
      "sensor_timestamp": 667842595013862,
      "time_usec": 667842595013
    },
    {
      "frame_id": 279,
      "sensor_timestamp": 667842628260200,
      "time_usec": 667842628260
    },
    {
      "frame_id": 280,
      "sensor_timestamp": 667842661506782,
      "time_usec": 667842661506
    },
    {
      "frame_id": 281,
      "sensor_timestamp": 667842694753120,
      "time_usec": 667842694753
    },
    {
      "frame_id": 282,
      "sensor_timestamp": 667842727999458,
      "time_usec": 667842727999
    },
    {
      "frame_id": 283,
      "sensor_timestamp": 667842761245796,
      "time_usec": 667842761245
    },
    {
      "frame_id": 284,
      "sensor_timestamp": 667842794492378,
      "time_usec": 667842794492
    },
    {
      "frame_id": 285,
      "sensor_timestamp": 667842827738716,
      "time_usec": 667842827738
    },
    {
      "frame_id": 286,
      "sensor_timestamp": 667842860985053,
      "time_usec": 667842860985
    },
    {
      "frame_id": 287,
      "sensor_timestamp": 667842894231391,
      "time_usec": 667842894231
    },
    {
      "frame_id": 288,
      "sensor_timestamp": 667842927477973,
      "time_usec": 667842927477
    },
    {
      "frame_id": 289,
      "sensor_timestamp": 667842960724311,
      "time_usec": 667842960724
    },
    {
      "frame_id": 290,
      "sensor_timestamp": 667842993970649,
      "time_usec": 667842993970
    },
    {
      "frame_id": 291,
      "sensor_timestamp": 667843027216987,
      "time_usec": 667843027216
    },
    {
      "frame_id": 292,
      "sensor_timestamp": 667843060463569,
      "time_usec": 667843060463
    },
    {
      "frame_id": 293,
      "sensor_timestamp": 667843093709907,
      "time_usec": 667843093709
    },
    {
      "frame_id": 294,
      "sensor_timestamp": 667843126956245,
      "time_usec": 667843126956
    },
    {
      "frame_id": 295,
      "sensor_timestamp": 667843160202583,
      "time_usec": 667843160202
    },
    {
      "frame_id": 296,
      "sensor_timestamp": 667843193449165,
      "time_usec": 667843193449
    },
    {
      "frame_id": 297,
      "sensor_timestamp": 667843226695503,
      "time_usec": 667843226695
    },
    {
      "frame_id": 298,
      "sensor_timestamp": 667843259941841,
      "time_usec": 667843259941
    },
    {
      "frame_id": 299,
      "sensor_timestamp": 667843293188178,
      "time_usec": 667843293188
    },
    {
      "frame_id": 300,
      "sensor_timestamp": 667843326434760,
      "time_usec": 667843326434
    },
    {
      "frame_id": 301,
      "sensor_timestamp": 667843359681098,
      "time_usec": 667843359681
    },
    {
      "frame_id": 302,
      "sensor_timestamp": 667843392927436,
      "time_usec": 667843392927
    },
    {
      "frame_id": 303,
      "sensor_timestamp": 667843426173774,
      "time_usec": 667843426173
    },
    {
      "frame_id": 304,
      "sensor_timestamp": 667843459420112,
      "time_usec": 667843459420
    },
    {
      "frame_id": 305,
      "sensor_timestamp": 667843492666694,
      "time_usec": 667843492666
    },
    {
      "frame_id": 306,
      "sensor_timestamp": 667843525913032,
      "time_usec": 667843525913
    },
    {
      "frame_id": 307,
      "sensor_timestamp": 667843559159370,
      "time_usec": 667843559159
    },
    {
      "frame_id": 308,
      "sensor_timestamp": 667843592405708,
      "time_usec": 667843592405
    },
    {
      "frame_id": 309,
      "sensor_timestamp": 667843625652290,
      "time_usec": 667843625652
    },
    {
      "frame_id": 310,
      "sensor_timestamp": 667843658898628,
      "time_usec": 667843658898
    },
    {
      "frame_id": 311,
      "sensor_timestamp": 667843692144966,
      "time_usec": 667843692144
    },
    {
      "frame_id": 312,
      "sensor_timestamp": 667843725391303,
      "time_usec": 667843725391
    },
    {
      "frame_id": 313,
      "sensor_timestamp": 667843758637885,
      "time_usec": 667843758637
    },
    {
      "frame_id": 314,
      "sensor_timestamp": 667843791884223,
      "time_usec": 667843791884
    },
    {
      "frame_id": 315,
      "sensor_timestamp": 667843825130561,
      "time_usec": 667843825130
    },
    {
      "frame_id": 316,
      "sensor_timestamp": 667843858376899,
      "time_usec": 667843858376
    },
    {
      "frame_id": 317,
      "sensor_timestamp": 667843891623481,
      "time_usec": 667843891623
    },
    {
      "frame_id": 318,
      "sensor_timestamp": 667843924869819,
      "time_usec": 667843924869
    },
    {
      "frame_id": 319,
      "sensor_timestamp": 667843958116157,
      "time_usec": 667843958116
    },
    {
      "frame_id": 320,
      "sensor_timestamp": 667843991362495,
      "time_usec": 667843991362
    },
    {
      "frame_id": 321,
      "sensor_timestamp": 667844024609077,
      "time_usec": 667844024609
    },
    {
      "frame_id": 322,
      "sensor_timestamp": 667844057855415,
      "time_usec": 667844057855
    },
    {
      "frame_id": 323,
      "sensor_timestamp": 667844091101753,
      "time_usec": 667844091101
    },
    {
      "frame_id": 324,
      "sensor_timestamp": 667844124348091,
      "time_usec": 667844124348
    },
    {
      "frame_id": 325,
      "sensor_timestamp": 667844157594673,
      "time_usec": 667844157594
    },
    {
      "frame_id": 326,
      "sensor_timestamp": 667844190841010,
      "time_usec": 667844190841
    },
    {
      "frame_id": 327,
      "sensor_timestamp": 667844224087348,
      "time_usec": 667844224087
    },
    {
      "frame_id": 328,
      "sensor_timestamp": 667844257333686,
      "time_usec": 667844257333
    },
    {
      "frame_id": 329,
      "sensor_timestamp": 667844290580268,
      "time_usec": 667844290580
    },
    {
      "frame_id": 330,
      "sensor_timestamp": 667844323826606,
      "time_usec": 667844323826
    },
    {
      "frame_id": 331,
      "sensor_timestamp": 667844357072944,
      "time_usec": 667844357072
    },
    {
      "frame_id": 332,
      "sensor_timestamp": 667844390319282,
      "time_usec": 667844390319
    },
    {
      "frame_id": 333,
      "sensor_timestamp": 667844423565864,
      "time_usec": 667844423565
    },
    {
      "frame_id": 334,
      "sensor_timestamp": 667844456812202,
      "time_usec": 667844456812
    },
    {
      "frame_id": 335,
      "sensor_timestamp": 667844490058540,
      "time_usec": 667844490058
    },
    {
      "frame_id": 336,
      "sensor_timestamp": 667844523304878,
      "time_usec": 667844523304
    },
    {
      "frame_id": 337,
      "sensor_timestamp": 667844556551460,
      "time_usec": 667844556551
    },
    {
      "frame_id": 338,
      "sensor_timestamp": 667844589797798,
      "time_usec": 667844589797
    },
    {
      "frame_id": 339,
      "sensor_timestamp": 667844623044135,
      "time_usec": 667844623044
    },
    {
      "frame_id": 340,
      "sensor_timestamp": 667844656290473,
      "time_usec": 667844656290
    },
    {
      "frame_id": 341,
      "sensor_timestamp": 667844689536811,
      "time_usec": 667844689536
    },
    {
      "frame_id": 342,
      "sensor_timestamp": 667844722783393,
      "time_usec": 667844722783
    },
    {
      "frame_id": 343,
      "sensor_timestamp": 667844756029731,
      "time_usec": 667844756029
    },
    {
      "frame_id": 344,
      "sensor_timestamp": 667844789276069,
      "time_usec": 667844789276
    },
    {
      "frame_id": 345,
      "sensor_timestamp": 667844822522407,
      "time_usec": 667844822522
    },
    {
      "frame_id": 346,
      "sensor_timestamp": 667844855768989,
      "time_usec": 667844855768
    },
    {
      "frame_id": 347,
      "sensor_timestamp": 667844889015327,
      "time_usec": 667844889015
    },
    {
      "frame_id": 348,
      "sensor_timestamp": 667844922261665,
      "time_usec": 667844922261
    },
    {
      "frame_id": 349,
      "sensor_timestamp": 667844955508003,
      "time_usec": 667844955508
    },
    {
      "frame_id": 350,
      "sensor_timestamp": 667844988754585,
      "time_usec": 667844988754
    },
    {
      "frame_id": 351,
      "sensor_timestamp": 667845022000923,
      "time_usec": 667845022000
    },
    {
      "frame_id": 352,
      "sensor_timestamp": 667845055247260,
      "time_usec": 667845055247
    },
    {
      "frame_id": 353,
      "sensor_timestamp": 667845088493598,
      "time_usec": 667845088493
    },
    {
      "frame_id": 354,
      "sensor_timestamp": 667845121740180,
      "time_usec": 667845121740
    },
    {
      "frame_id": 355,
      "sensor_timestamp": 667845154986518,
      "time_usec": 667845154986
    },
    {
      "frame_id": 356,
      "sensor_timestamp": 667845188232856,
      "time_usec": 667845188232
    },
    {
      "frame_id": 357,
      "sensor_timestamp": 667845221479194,
      "time_usec": 667845221479
    },
    {
      "frame_id": 358,
      "sensor_timestamp": 667845254725776,
      "time_usec": 667845254725
    },
    {
      "frame_id": 359,
      "sensor_timestamp": 667845287972114,
      "time_usec": 667845287972
    },
    {
      "frame_id": 360,
      "sensor_timestamp": 667845321218452,
      "time_usec": 667845321218
    },
    {
      "frame_id": 361,
      "sensor_timestamp": 667845354464790,
      "time_usec": 667845354464
    },
    {
      "frame_id": 362,
      "sensor_timestamp": 667845387711372,
      "time_usec": 667845387711
    },
    {
      "frame_id": 363,
      "sensor_timestamp": 667845420957710,
      "time_usec": 667845420957
    },
    {
      "frame_id": 364,
      "sensor_timestamp": 667845454204048,
      "time_usec": 667845454204
    },
    {
      "frame_id": 365,
      "sensor_timestamp": 667845487450385,
      "time_usec": 667845487450
    },
    {
      "frame_id": 366,
      "sensor_timestamp": 667845520696968,
      "time_usec": 667845520696
    },
    {
      "frame_id": 367,
      "sensor_timestamp": 667845553943305,
      "time_usec": 667845553943
    },
    {
      "frame_id": 368,
      "sensor_timestamp": 667845587189643,
      "time_usec": 667845587189
    },
    {
      "frame_id": 369,
      "sensor_timestamp": 667845620435981,
      "time_usec": 667845620435
    },
    {
      "frame_id": 370,
      "sensor_timestamp": 667845653682563,
      "time_usec": 667845653682
    },
    {
      "frame_id": 371,
      "sensor_timestamp": 667845686928901,
      "time_usec": 667845686928
    },
    {
      "frame_id": 372,
      "sensor_timestamp": 667845720175239,
      "time_usec": 667845720175
    },
    {
      "frame_id": 373,
      "sensor_timestamp": 667845753421577,
      "time_usec": 667845753421
    },
    {
      "frame_id": 374,
      "sensor_timestamp": 667845786668159,
      "time_usec": 667845786668
    },
    {
      "frame_id": 375,
      "sensor_timestamp": 667845819914497,
      "time_usec": 667845819914
    },
    {
      "frame_id": 376,
      "sensor_timestamp": 667845853160835,
      "time_usec": 667845853160
    },
    {
      "frame_id": 377,
      "sensor_timestamp": 667845886407173,
      "time_usec": 667845886407
    },
    {
      "frame_id": 378,
      "sensor_timestamp": 667845919653510,
      "time_usec": 667845919653
    },
    {
      "frame_id": 379,
      "sensor_timestamp": 667845952900093,
      "time_usec": 667845952900
    },
    {
      "frame_id": 380,
      "sensor_timestamp": 667845986146430,
      "time_usec": 667845986146
    },
    {
      "frame_id": 381,
      "sensor_timestamp": 667846019392768,
      "time_usec": 667846019392
    },
    {
      "frame_id": 382,
      "sensor_timestamp": 667846052639106,
      "time_usec": 667846052639
    },
    {
      "frame_id": 383,
      "sensor_timestamp": 667846085885688,
      "time_usec": 667846085885
    },
    {
      "frame_id": 384,
      "sensor_timestamp": 667846119132026,
      "time_usec": 667846119132
    },
    {
      "frame_id": 385,
      "sensor_timestamp": 667846152378364,
      "time_usec": 667846152378
    },
    {
      "frame_id": 386,
      "sensor_timestamp": 667846185624702,
      "time_usec": 667846185624
    },
    {
      "frame_id": 387,
      "sensor_timestamp": 667846218871284,
      "time_usec": 667846218871
    },
    {
      "frame_id": 388,
      "sensor_timestamp": 667846252117622,
      "time_usec": 667846252117
    },
    {
      "frame_id": 389,
      "sensor_timestamp": 667846285363960,
      "time_usec": 667846285363
    },
    {
      "frame_id": 390,
      "sensor_timestamp": 667846318610298,
      "time_usec": 667846318610
    },
    {
      "frame_id": 391,
      "sensor_timestamp": 667846351856880,
      "time_usec": 667846351856
    },
    {
      "frame_id": 392,
      "sensor_timestamp": 667846385103218,
      "time_usec": 667846385103
    },
    {
      "frame_id": 393,
      "sensor_timestamp": 667846418349555,
      "time_usec": 667846418349
    },
    {
      "frame_id": 394,
      "sensor_timestamp": 667846451595893,
      "time_usec": 667846451595
    },
    {
      "frame_id": 395,
      "sensor_timestamp": 667846484842475,
      "time_usec": 667846484842
    },
    {
      "frame_id": 396,
      "sensor_timestamp": 667846518088813,
      "time_usec": 667846518088
    },
    {
      "frame_id": 397,
      "sensor_timestamp": 667846551335151,
      "time_usec": 667846551335
    },
    {
      "frame_id": 398,
      "sensor_timestamp": 667846584581489,
      "time_usec": 667846584581
    },
    {
      "frame_id": 399,
      "sensor_timestamp": 667846617828071,
      "time_usec": 667846617828
    },
    {
      "frame_id": 400,
      "sensor_timestamp": 667846651074409,
      "time_usec": 667846651074
    },
    {
      "frame_id": 401,
      "sensor_timestamp": 667846684320747,
      "time_usec": 667846684320
    },
    {
      "frame_id": 402,
      "sensor_timestamp": 667846717567085,
      "time_usec": 667846717567
    },
    {
      "frame_id": 403,
      "sensor_timestamp": 667846750813667,
      "time_usec": 667846750813
    },
    {
      "frame_id": 404,
      "sensor_timestamp": 667846784060005,
      "time_usec": 667846784060
    },
    {
      "frame_id": 405,
      "sensor_timestamp": 667846817306343,
      "time_usec": 667846817306
    },
    {
      "frame_id": 406,
      "sensor_timestamp": 667846850552680,
      "time_usec": 667846850552
    },
    {
      "frame_id": 407,
      "sensor_timestamp": 667846883799262,
      "time_usec": 667846883799
    },
    {
      "frame_id": 408,
      "sensor_timestamp": 667846917045600,
      "time_usec": 667846917045
    },
    {
      "frame_id": 409,
      "sensor_timestamp": 667846950291938,
      "time_usec": 667846950291
    },
    {
      "frame_id": 410,
      "sensor_timestamp": 667846983538276,
      "time_usec": 667846983538
    },
    {
      "frame_id": 411,
      "sensor_timestamp": 667847016784614,
      "time_usec": 667847016784
    },
    {
      "frame_id": 412,
      "sensor_timestamp": 667847050031196,
      "time_usec": 667847050031
    },
    {
      "frame_id": 413,
      "sensor_timestamp": 667847083277534,
      "time_usec": 667847083277
    },
    {
      "frame_id": 414,
      "sensor_timestamp": 667847116523872,
      "time_usec": 667847116523
    },
    {
      "frame_id": 415,
      "sensor_timestamp": 667847149770210,
      "time_usec": 667847149770
    },
    {
      "frame_id": 416,
      "sensor_timestamp": 667847183016792,
      "time_usec": 667847183016
    },
    {
      "frame_id": 417,
      "sensor_timestamp": 667847216263130,
      "time_usec": 667847216263
    },
    {
      "frame_id": 418,
      "sensor_timestamp": 667847249509468,
      "time_usec": 667847249509
    },
    {
      "frame_id": 419,
      "sensor_timestamp": 667847282755805,
      "time_usec": 667847282755
    },
    {
      "frame_id": 420,
      "sensor_timestamp": 667847316002387,
      "time_usec": 667847316002
    },
    {
      "frame_id": 421,
      "sensor_timestamp": 667847349248725,
      "time_usec": 667847349248
    },
    {
      "frame_id": 422,
      "sensor_timestamp": 667847382495063,
      "time_usec": 667847382495
    },
    {
      "frame_id": 423,
      "sensor_timestamp": 667847415741401,
      "time_usec": 667847415741
    },
    {
      "frame_id": 424,
      "sensor_timestamp": 667847448987983,
      "time_usec": 667847448987
    },
    {
      "frame_id": 425,
      "sensor_timestamp": 667847482234321,
      "time_usec": 667847482234
    },
    {
      "frame_id": 426,
      "sensor_timestamp": 667847515480659,
      "time_usec": 667847515480
    },
    {
      "frame_id": 427,
      "sensor_timestamp": 667847548726997,
      "time_usec": 667847548726
    },
    {
      "frame_id": 428,
      "sensor_timestamp": 667847581973579,
      "time_usec": 667847581973
    },
    {
      "frame_id": 429,
      "sensor_timestamp": 667847615219917,
      "time_usec": 667847615219
    },
    {
      "frame_id": 430,
      "sensor_timestamp": 667847648466255,
      "time_usec": 667847648466
    },
    {
      "frame_id": 431,
      "sensor_timestamp": 667847681712593,
      "time_usec": 667847681712
    },
    {
      "frame_id": 432,
      "sensor_timestamp": 667847714959175,
      "time_usec": 667847714959
    },
    {
      "frame_id": 433,
      "sensor_timestamp": 667847748205512,
      "time_usec": 667847748205
    },
    {
      "frame_id": 434,
      "sensor_timestamp": 667847781451850,
      "time_usec": 667847781451
    },
    {
      "frame_id": 435,
      "sensor_timestamp": 667847814698188,
      "time_usec": 667847814698
    },
    {
      "frame_id": 436,
      "sensor_timestamp": 667847847944770,
      "time_usec": 667847847944
    },
    {
      "frame_id": 437,
      "sensor_timestamp": 667847881191108,
      "time_usec": 667847881191
    },
    {
      "frame_id": 438,
      "sensor_timestamp": 667847914437446,
      "time_usec": 667847914437
    },
    {
      "frame_id": 439,
      "sensor_timestamp": 667847947683784,
      "time_usec": 667847947683
    },
    {
      "frame_id": 440,
      "sensor_timestamp": 667847980930366,
      "time_usec": 667847980930
    },
    {
      "frame_id": 441,
      "sensor_timestamp": 667848014176704,
      "time_usec": 667848014176
    },
    {
      "frame_id": 442,
      "sensor_timestamp": 667848047423042,
      "time_usec": 667848047423
    },
    {
      "frame_id": 443,
      "sensor_timestamp": 667848080669380,
      "time_usec": 667848080669
    },
    {
      "frame_id": 444,
      "sensor_timestamp": 667848113915962,
      "time_usec": 667848113915
    },
    {
      "frame_id": 445,
      "sensor_timestamp": 667848147162300,
      "time_usec": 667848147162
    },
    {
      "frame_id": 446,
      "sensor_timestamp": 667848180408637,
      "time_usec": 667848180408
    },
    {
      "frame_id": 447,
      "sensor_timestamp": 667848213654975,
      "time_usec": 667848213654
    },
    {
      "frame_id": 448,
      "sensor_timestamp": 667848246901313,
      "time_usec": 667848246901
    },
    {
      "frame_id": 449,
      "sensor_timestamp": 667848280147895,
      "time_usec": 667848280147
    },
    {
      "frame_id": 450,
      "sensor_timestamp": 667848313394233,
      "time_usec": 667848313394
    },
    {
      "frame_id": 451,
      "sensor_timestamp": 667848346640571,
      "time_usec": 667848346640
    },
    {
      "frame_id": 452,
      "sensor_timestamp": 667848379886909,
      "time_usec": 667848379886
    },
    {
      "frame_id": 453,
      "sensor_timestamp": 667848413133491,
      "time_usec": 667848413133
    },
    {
      "frame_id": 454,
      "sensor_timestamp": 667848446379829,
      "time_usec": 667848446379
    },
    {
      "frame_id": 455,
      "sensor_timestamp": 667848479626167,
      "time_usec": 667848479626
    },
    {
      "frame_id": 456,
      "sensor_timestamp": 667848512872505,
      "time_usec": 667848512872
    },
    {
      "frame_id": 457,
      "sensor_timestamp": 667848546119087,
      "time_usec": 667848546119
    },
    {
      "frame_id": 458,
      "sensor_timestamp": 667848579365425,
      "time_usec": 667848579365
    },
    {
      "frame_id": 459,
      "sensor_timestamp": 667848612611762,
      "time_usec": 667848612611
    },
    {
      "frame_id": 460,
      "sensor_timestamp": 667848645858100,
      "time_usec": 667848645858
    },
    {
      "frame_id": 461,
      "sensor_timestamp": 667848679104682,
      "time_usec": 667848679104
    },
    {
      "frame_id": 462,
      "sensor_timestamp": 667848712351020,
      "time_usec": 667848712351
    },
    {
      "frame_id": 463,
      "sensor_timestamp": 667848745597358,
      "time_usec": 667848745597
    },
    {
      "frame_id": 464,
      "sensor_timestamp": 667848778843696,
      "time_usec": 667848778843
    },
    {
      "frame_id": 465,
      "sensor_timestamp": 667848812090278,
      "time_usec": 667848812090
    },
    {
      "frame_id": 466,
      "sensor_timestamp": 667848845336616,
      "time_usec": 667848845336
    },
    {
      "frame_id": 467,
      "sensor_timestamp": 667848878582954,
      "time_usec": 667848878582
    },
    {
      "frame_id": 468,
      "sensor_timestamp": 667848911829292,
      "time_usec": 667848911829
    },
    {
      "frame_id": 469,
      "sensor_timestamp": 667848945075874,
      "time_usec": 667848945075
    },
    {
      "frame_id": 470,
      "sensor_timestamp": 667848978322212,
      "time_usec": 667848978322
    },
    {
      "frame_id": 471,
      "sensor_timestamp": 667849011568550,
      "time_usec": 667849011568
    },
    {
      "frame_id": 472,
      "sensor_timestamp": 667849044814887,
      "time_usec": 667849044814
    },
    {
      "frame_id": 473,
      "sensor_timestamp": 667849078061469,
      "time_usec": 667849078061
    },
    {
      "frame_id": 474,
      "sensor_timestamp": 667849111307807,
      "time_usec": 667849111307
    },
    {
      "frame_id": 475,
      "sensor_timestamp": 667849144554145,
      "time_usec": 667849144554
    },
    {
      "frame_id": 476,
      "sensor_timestamp": 667849177800483,
      "time_usec": 667849177800
    },
    {
      "frame_id": 477,
      "sensor_timestamp": 667849211047065,
      "time_usec": 667849211047
    },
    {
      "frame_id": 478,
      "sensor_timestamp": 667849244293403,
      "time_usec": 667849244293
    },
    {
      "frame_id": 479,
      "sensor_timestamp": 667849277539741,
      "time_usec": 667849277539
    },
    {
      "frame_id": 480,
      "sensor_timestamp": 667849310786079,
      "time_usec": 667849310786
    },
    {
      "frame_id": 481,
      "sensor_timestamp": 667849344032661,
      "time_usec": 667849344032
    },
    {
      "frame_id": 482,
      "sensor_timestamp": 667849377278999,
      "time_usec": 667849377278
    },
    {
      "frame_id": 483,
      "sensor_timestamp": 667849410525337,
      "time_usec": 667849410525
    },
    {
      "frame_id": 484,
      "sensor_timestamp": 667849443771675,
      "time_usec": 667849443771
    },
    {
      "frame_id": 485,
      "sensor_timestamp": 667849477018012,
      "time_usec": 667849477018
    },
    {
      "frame_id": 486,
      "sensor_timestamp": 667849510264594,
      "time_usec": 667849510264
    },
    {
      "frame_id": 487,
      "sensor_timestamp": 667849543510932,
      "time_usec": 667849543510
    },
    {
      "frame_id": 488,
      "sensor_timestamp": 667849576757270,
      "time_usec": 667849576757
    },
    {
      "frame_id": 489,
      "sensor_timestamp": 667849610003608,
      "time_usec": 667849610003
    },
    {
      "frame_id": 490,
      "sensor_timestamp": 667849643250190,
      "time_usec": 667849643250
    },
    {
      "frame_id": 491,
      "sensor_timestamp": 667849676496528,
      "time_usec": 667849676496
    },
    {
      "frame_id": 492,
      "sensor_timestamp": 667849709742866,
      "time_usec": 667849709742
    },
    {
      "frame_id": 493,
      "sensor_timestamp": 667849742989204,
      "time_usec": 667849742989
    },
    {
      "frame_id": 494,
      "sensor_timestamp": 667849776235786,
      "time_usec": 667849776235
    },
    {
      "frame_id": 495,
      "sensor_timestamp": 667849809482124,
      "time_usec": 667849809482
    },
    {
      "frame_id": 496,
      "sensor_timestamp": 667849842728462,
      "time_usec": 667849842728
    },
    {
      "frame_id": 497,
      "sensor_timestamp": 667849875974800,
      "time_usec": 667849875974
    },
    {
      "frame_id": 498,
      "sensor_timestamp": 667849909221382,
      "time_usec": 667849909221
    },
    {
      "frame_id": 499,
      "sensor_timestamp": 667849942467719,
      "time_usec": 667849942467
    },
    {
      "frame_id": 500,
      "sensor_timestamp": 667849975714057,
      "time_usec": 667849975714
    },
    {
      "frame_id": 501,
      "sensor_timestamp": 667850008960395,
      "time_usec": 667850008960
    },
    {
      "frame_id": 502,
      "sensor_timestamp": 667850042206977,
      "time_usec": 667850042206
    },
    {
      "frame_id": 503,
      "sensor_timestamp": 667850075453315,
      "time_usec": 667850075453
    },
    {
      "frame_id": 504,
      "sensor_timestamp": 667850108699653,
      "time_usec": 667850108699
    },
    {
      "frame_id": 505,
      "sensor_timestamp": 667850141945991,
      "time_usec": 667850141945
    },
    {
      "frame_id": 506,
      "sensor_timestamp": 667850175192573,
      "time_usec": 667850175192
    },
    {
      "frame_id": 507,
      "sensor_timestamp": 667850208438911,
      "time_usec": 667850208438
    },
    {
      "frame_id": 508,
      "sensor_timestamp": 667850241685249,
      "time_usec": 667850241685
    },
    {
      "frame_id": 509,
      "sensor_timestamp": 667850274931587,
      "time_usec": 667850274931
    },
    {
      "frame_id": 510,
      "sensor_timestamp": 667850308178169,
      "time_usec": 667850308178
    },
    {
      "frame_id": 511,
      "sensor_timestamp": 667850341424507,
      "time_usec": 667850341424
    },
    {
      "frame_id": 512,
      "sensor_timestamp": 667850374670844,
      "time_usec": 667850374670
    },
    {
      "frame_id": 513,
      "sensor_timestamp": 667850407917182,
      "time_usec": 667850407917
    },
    {
      "frame_id": 514,
      "sensor_timestamp": 667850441163764,
      "time_usec": 667850441163
    },
    {
      "frame_id": 515,
      "sensor_timestamp": 667850474410102,
      "time_usec": 667850474410
    },
    {
      "frame_id": 516,
      "sensor_timestamp": 667850507656440,
      "time_usec": 667850507656
    },
    {
      "frame_id": 517,
      "sensor_timestamp": 667850540902778,
      "time_usec": 667850540902
    },
    {
      "frame_id": 518,
      "sensor_timestamp": 667850574149360,
      "time_usec": 667850574149
    },
    {
      "frame_id": 519,
      "sensor_timestamp": 667850607395698,
      "time_usec": 667850607395
    },
    {
      "frame_id": 520,
      "sensor_timestamp": 667850640642036,
      "time_usec": 667850640642
    },
    {
      "frame_id": 521,
      "sensor_timestamp": 667850673888374,
      "time_usec": 667850673888
    },
    {
      "frame_id": 522,
      "sensor_timestamp": 667850707134712,
      "time_usec": 667850707134
    },
    {
      "frame_id": 523,
      "sensor_timestamp": 667850740381294,
      "time_usec": 667850740381
    },
    {
      "frame_id": 524,
      "sensor_timestamp": 667850773627632,
      "time_usec": 667850773627
    },
    {
      "frame_id": 525,
      "sensor_timestamp": 667850806873969,
      "time_usec": 667850806873
    },
    {
      "frame_id": 526,
      "sensor_timestamp": 667850840120307,
      "time_usec": 667850840120
    },
    {
      "frame_id": 527,
      "sensor_timestamp": 667850873366889,
      "time_usec": 667850873366
    },
    {
      "frame_id": 528,
      "sensor_timestamp": 667850906613227,
      "time_usec": 667850906613
    },
    {
      "frame_id": 529,
      "sensor_timestamp": 667850939859565,
      "time_usec": 667850939859
    },
    {
      "frame_id": 530,
      "sensor_timestamp": 667850973105903,
      "time_usec": 667850973105
    },
    {
      "frame_id": 531,
      "sensor_timestamp": 667851006352485,
      "time_usec": 667851006352
    },
    {
      "frame_id": 532,
      "sensor_timestamp": 667851039598823,
      "time_usec": 667851039598
    },
    {
      "frame_id": 533,
      "sensor_timestamp": 667851072845161,
      "time_usec": 667851072845
    },
    {
      "frame_id": 534,
      "sensor_timestamp": 667851106091499,
      "time_usec": 667851106091
    },
    {
      "frame_id": 535,
      "sensor_timestamp": 667851139338081,
      "time_usec": 667851139338
    },
    {
      "frame_id": 536,
      "sensor_timestamp": 667851172584419,
      "time_usec": 667851172584
    },
    {
      "frame_id": 537,
      "sensor_timestamp": 667851205830757,
      "time_usec": 667851205830
    },
    {
      "frame_id": 538,
      "sensor_timestamp": 667851239077094,
      "time_usec": 667851239077
    },
    {
      "frame_id": 539,
      "sensor_timestamp": 667851272323676,
      "time_usec": 667851272323
    },
    {
      "frame_id": 540,
      "sensor_timestamp": 667851305570014,
      "time_usec": 667851305570
    },
    {
      "frame_id": 541,
