{
  "frames": [
    {
      "frame_id": 0,
      "sensor_timestamp": 132664562508815,
      "time_usec": 132664562508
    },
    {
      "frame_id": 1,
      "sensor_timestamp": 132664629001491,
      "time_usec": 132664629001
    },
    {
      "frame_id": 2,
      "sensor_timestamp": 132664662248073,
      "time_usec": 132664662248
    },
    {
      "frame_id": 3,
      "sensor_timestamp": 132664695494411,
      "time_usec": 132664695494
    },
    {
      "frame_id": 4,
      "sensor_timestamp": 132664728740749,
      "time_usec": 132664728740
    },
    {
      "frame_id": 5,
      "sensor_timestamp": 132664761987087,
      "time_usec": 132664761987
    },
    {
      "frame_id": 6,
      "sensor_timestamp": 132664795233669,
      "time_usec": 132664795233
    },
    {
      "frame_id": 7,
      "sensor_timestamp": 132664828480007,
      "time_usec": 132664828480
    },
    {
      "frame_id": 8,
      "sensor_timestamp": 132664861726345,
      "time_usec": 132664861726
    },
    {
      "frame_id": 9,
      "sensor_timestamp": 132664894972683,
      "time_usec": 132664894972
    },
    {
      "frame_id": 10,
      "sensor_timestamp": 132664928219265,
      "time_usec": 132664928219
    },
    {
      "frame_id": 11,
      "sensor_timestamp": 132664961465603,
      "time_usec": 132664961465
    },
    {
      "frame_id": 12,
      "sensor_timestamp": 132664994711940,
      "time_usec": 132664994711
    },
    {
      "frame_id": 13,
      "sensor_timestamp": 132665027958278,
      "time_usec": 132665027958
    },
    {
      "frame_id": 14,
      "sensor_timestamp": 132665061204860,
      "time_usec": 132665061204
    },
    {
      "frame_id": 15,
      "sensor_timestamp": 132665094451198,
      "time_usec": 132665094451
    },
    {
      "frame_id": 16,
      "sensor_timestamp": 132665127697536,
      "time_usec": 132665127697
    },
    {
      "frame_id": 17,
      "sensor_timestamp": 132665160943874,
      "time_usec": 132665160943
    },
    {
      "frame_id": 18,
      "sensor_timestamp": 132665194190456,
      "time_usec": 132665194190
    },
    {
      "frame_id": 19,
      "sensor_timestamp": 132665227436794,
      "time_usec": 132665227436
    },
    {
      "frame_id": 20,
      "sensor_timestamp": 132665260683132,
      "time_usec": 132665260683
    },
    {
      "frame_id": 21,
      "sensor_timestamp": 132665293929470,
      "time_usec": 132665293929
    },
    {
      "frame_id": 22,
      "sensor_timestamp": 132665327176052,
      "time_usec": 132665327176
    },
    {
      "frame_id": 23,
      "sensor_timestamp": 132665360422390,
      "time_usec": 132665360422
    },
    {
      "frame_id": 24,
      "sensor_timestamp": 132665393668728,
      "time_usec": 132665393668
    },
    {
      "frame_id": 25,
      "sensor_timestamp": 132665426915065,
      "time_usec": 132665426915
    },
    {
      "frame_id": 26,
      "sensor_timestamp": 132665460161647,
      "time_usec": 132665460161
    },
    {
      "frame_id": 27,
      "sensor_timestamp": 132665493407985,
      "time_usec": 132665493407
    },
    {
      "frame_id": 28,
      "sensor_timestamp": 132665526654323,
      "time_usec": 132665526654
    },
    {
      "frame_id": 29,
      "sensor_timestamp": 132665559900661,
      "time_usec": 132665559900
    },
    {
      "frame_id": 30,
      "sensor_timestamp": 132665593147243,
      "time_usec": 132665593147
    },
    {
      "frame_id": 31,
      "sensor_timestamp": 132665626393581,
      "time_usec": 132665626393
    },
    {
      "frame_id": 32,
      "sensor_timestamp": 132665659639919,
      "time_usec": 132665659639
    },
    {
      "frame_id": 33,
      "sensor_timestamp": 132665692886257,
      "time_usec": 132665692886
    },
    {
      "frame_id": 34,
      "sensor_timestamp": 132665726132839,
      "time_usec": 132665726132
    },
    {
      "frame_id": 35,
      "sensor_timestamp": 132665759379177,
      "time_usec": 132665759379
    },
    {
      "frame_id": 36,
      "sensor_timestamp": 132665792625515,
      "time_usec": 132665792625
    },
    {
      "frame_id": 37,
      "sensor_timestamp": 132665825871853,
      "time_usec": 132665825871
    },
    {
      "frame_id": 38,
      "sensor_timestamp": 132665859118190,
      "time_usec": 132665859118
    },
    {
      "frame_id": 39,
      "sensor_timestamp": 132665892364772,
      "time_usec": 132665892364
    },
    {
      "frame_id": 40,
      "sensor_timestamp": 132665925611110,
      "time_usec": 132665925611
    },
    {
      "frame_id": 41,
      "sensor_timestamp": 132665958857448,
      "time_usec": 132665958857
    },
    {
      "frame_id": 42,
      "sensor_timestamp": 132665992103786,
      "time_usec": 132665992103
    },
    {
      "frame_id": 43,
      "sensor_timestamp": 132666025350368,
      "time_usec": 132666025350
    },
    {
      "frame_id": 44,
      "sensor_timestamp": 132666058596706,
      "time_usec": 132666058596
    },
    {
      "frame_id": 45,
      "sensor_timestamp": 132666091843044,
      "time_usec": 132666091843
    },
    {
      "frame_id": 46,
      "sensor_timestamp": 132666125089382,
      "time_usec": 132666125089
    },
    {
      "frame_id": 47,
      "sensor_timestamp": 132666158335964,
      "time_usec": 132666158335
    },
    {
      "frame_id": 48,
      "sensor_timestamp": 132666191582302,
      "time_usec": 132666191582
    },
    {
      "frame_id": 49,
      "sensor_timestamp": 132666224828640,
      "time_usec": 132666224828
    },
    {
      "frame_id": 50,
      "sensor_timestamp": 132666258074978,
      "time_usec": 132666258074
    },
    {
      "frame_id": 51,
      "sensor_timestamp": 132666291321560,
      "time_usec": 132666291321
    },
    {
      "frame_id": 52,
      "sensor_timestamp": 132666324567897,
      "time_usec": 132666324567
    },
    {
      "frame_id": 53,
      "sensor_timestamp": 132666357814235,
      "time_usec": 132666357814
    },
    {
      "frame_id": 54,
      "sensor_timestamp": 132666391060573,
      "time_usec": 132666391060
    },
    {
      "frame_id": 55,
      "sensor_timestamp": 132666424307155,
      "time_usec": 132666424307
    },
    {
      "frame_id": 56,
      "sensor_timestamp": 132666457553493,
      "time_usec": 132666457553
    },
    {
      "frame_id": 57,
      "sensor_timestamp": 132666490799831,
      "time_usec": 132666490799
    },
    {
      "frame_id": 58,
      "sensor_timestamp": 132666524046169,
      "time_usec": 132666524046
    },
    {
      "frame_id": 59,
      "sensor_timestamp": 132666557292751,
      "time_usec": 132666557292
    },
    {
      "frame_id": 60,
      "sensor_timestamp": 132666590539089,
      "time_usec": 132666590539
    },
    {
      "frame_id": 61,
      "sensor_timestamp": 132666623785427,
      "time_usec": 132666623785
    },
    {
      "frame_id": 62,
      "sensor_timestamp": 132666657031765,
      "time_usec": 132666657031
    },
    {
      "frame_id": 63,
      "sensor_timestamp": 132666690278347,
      "time_usec": 132666690278
    },
    {
      "frame_id": 64,
      "sensor_timestamp": 132666723524685,
      "time_usec": 132666723524
    },
    {
      "frame_id": 65,
      "sensor_timestamp": 132666756771022,
      "time_usec": 132666756771
    },
    {
      "frame_id": 66,
      "sensor_timestamp": 132666790017360,
      "time_usec": 132666790017
    },
    {
      "frame_id": 67,
      "sensor_timestamp": 132666823263942,
      "time_usec": 132666823263
    },
    {
      "frame_id": 68,
      "sensor_timestamp": 132666856510280,
      "time_usec": 132666856510
    },
    {
      "frame_id": 69,
      "sensor_timestamp": 132666889756618,
      "time_usec": 132666889756
    },
    {
      "frame_id": 70,
      "sensor_timestamp": 132666923002956,
      "time_usec": 132666923002
    },
    {
      "frame_id": 71,
      "sensor_timestamp": 132666956249538,
      "time_usec": 132666956249
    },
    {
      "frame_id": 72,
      "sensor_timestamp": 132666989495876,
      "time_usec": 132666989495
    },
    {
      "frame_id": 73,
      "sensor_timestamp": 132667022742214,
      "time_usec": 132667022742
    },
    {
      "frame_id": 74,
      "sensor_timestamp": 132667055988552,
      "time_usec": 132667055988
    },
    {
      "frame_id": 75,
      "sensor_timestamp": 132667089234890,
      "time_usec": 132667089234
    },
    {
      "frame_id": 76,
      "sensor_timestamp": 132667122481472,
      "time_usec": 132667122481
    },
    {
      "frame_id": 77,
      "sensor_timestamp": 132667155727810,
      "time_usec": 132667155727
    },
    {
      "frame_id": 78,
      "sensor_timestamp": 132667188974147,
      "time_usec": 132667188974
    },
    {
      "frame_id": 79,
      "sensor_timestamp": 132667222220485,
      "time_usec": 132667222220
    },
    {
      "frame_id": 80,
      "sensor_timestamp": 132667255467067,
      "time_usec": 132667255467
    },
    {
      "frame_id": 81,
      "sensor_timestamp": 132667288713405,
      "time_usec": 132667288713
    },
    {
      "frame_id": 82,
      "sensor_timestamp": 132667321959743,
      "time_usec": 132667321959
    },
    {
      "frame_id": 83,
      "sensor_timestamp": 132667355206081,
      "time_usec": 132667355206
    },
    {
      "frame_id": 84,
      "sensor_timestamp": 132667388452663,
      "time_usec": 132667388452
    },
    {
      "frame_id": 85,
      "sensor_timestamp": 132667421699001,
      "time_usec": 132667421699
    },
    {
      "frame_id": 86,
      "sensor_timestamp": 132667454945339,
      "time_usec": 132667454945
    },
    {
      "frame_id": 87,
      "sensor_timestamp": 132667488191677,
      "time_usec": 132667488191
    },
    {
      "frame_id": 88,
      "sensor_timestamp": 132667521438259,
      "time_usec": 132667521438
    },
    {
      "frame_id": 89,
      "sensor_timestamp": 132667554684597,
      "time_usec": 132667554684
    },
    {
      "frame_id": 90,
      "sensor_timestamp": 132667587930935,
      "time_usec": 132667587930
    },
    {
      "frame_id": 91,
      "sensor_timestamp": 132667621177272,
      "time_usec": 132667621177
    },
    {
      "frame_id": 92,
      "sensor_timestamp": 132667654423854,
      "time_usec": 132667654423
    },
    {
      "frame_id": 93,
      "sensor_timestamp": 132667687670192,
      "time_usec": 132667687670
    },
    {
      "frame_id": 94,
      "sensor_timestamp": 132667720916530,
      "time_usec": 132667720916
    },
    {
      "frame_id": 95,
      "sensor_timestamp": 132667754162868,
      "time_usec": 132667754162
    },
    {
      "frame_id": 96,
      "sensor_timestamp": 132667787409450,
      "time_usec": 132667787409
    },
    {
      "frame_id": 97,
      "sensor_timestamp": 132667820655788,
      "time_usec": 132667820655
    },
    {
      "frame_id": 98,
      "sensor_timestamp": 132667853902126,
      "time_usec": 132667853902
    },
    {
      "frame_id": 99,
      "sensor_timestamp": 132667887148464,
      "time_usec": 132667887148
    },
    {
      "frame_id": 100,
      "sensor_timestamp": 132667920395046,
      "time_usec": 132667920395
    },
    {
      "frame_id": 101,
      "sensor_timestamp": 132667953641384,
      "time_usec": 132667953641
    },
    {
      "frame_id": 102,
      "sensor_timestamp": 132667986887722,
      "time_usec": 132667986887
    },
    {
      "frame_id": 103,
      "sensor_timestamp": 132668020134060,
      "time_usec": 132668020134
    },
    {
      "frame_id": 104,
      "sensor_timestamp": 132668053380642,
      "time_usec": 132668053380
    },
    {
      "frame_id": 105,
      "sensor_timestamp": 132668086626979,
      "time_usec": 132668086626
    },
    {
      "frame_id": 106,
      "sensor_timestamp": 132668119873317,
      "time_usec": 132668119873
    },
    {
      "frame_id": 107,
      "sensor_timestamp": 132668153119655,
      "time_usec": 132668153119
    },
    {
      "frame_id": 108,
      "sensor_timestamp": 132668186366237,
      "time_usec": 132668186366
    },
    {
      "frame_id": 109,
      "sensor_timestamp": 132668219612575,
      "time_usec": 132668219612
    },
    {
      "frame_id": 110,
      "sensor_timestamp": 132668252858913,
      "time_usec": 132668252858
    },
    {
      "frame_id": 111,
      "sensor_timestamp": 132668286105251,
      "time_usec": 132668286105
    },
    {
      "frame_id": 112,
      "sensor_timestamp": 132668319351589,
      "time_usec": 132668319351
    },
    {
      "frame_id": 113,
      "sensor_timestamp": 132668352598171,
      "time_usec": 132668352598
    },
    {
      "frame_id": 114,
      "sensor_timestamp": 132668385844509,
      "time_usec": 132668385844
    },
    {
      "frame_id": 115,
      "sensor_timestamp": 132668419090847,
      "time_usec": 132668419090
    },
    {
      "frame_id": 116,
      "sensor_timestamp": 132668452337185,
      "time_usec": 132668452337
    },
    {
      "frame_id": 117,
      "sensor_timestamp": 132668485583767,
      "time_usec": 132668485583
    },
    {
      "frame_id": 118,
      "sensor_timestamp": 132668518830104,
      "time_usec": 132668518830
    },
    {
      "frame_id": 119,
      "sensor_timestamp": 132668552076442,
      "time_usec": 132668552076
    },
    {
      "frame_id": 120,
      "sensor_timestamp": 132668585322780,
      "time_usec": 132668585322
    },
    {
      "frame_id": 121,
      "sensor_timestamp": 132668618569362,
      "time_usec": 132668618569
    },
    {
      "frame_id": 122,
      "sensor_timestamp": 132668651815700,
      "time_usec": 132668651815
    },
    {
      "frame_id": 123,
      "sensor_timestamp": 132668685062038,
      "time_usec": 132668685062
    },
    {
      "frame_id": 124,
      "sensor_timestamp": 132668718308376,
      "time_usec": 132668718308
    },
    {
      "frame_id": 125,
      "sensor_timestamp": 132668751554958,
      "time_usec": 132668751554
    },
    {
      "frame_id": 126,
      "sensor_timestamp": 132668784801296,
      "time_usec": 132668784801
    },
    {
      "frame_id": 127,
      "sensor_timestamp": 132668818047634,
      "time_usec": 132668818047
    },
    {
      "frame_id": 128,
      "sensor_timestamp": 132668851293972,
      "time_usec": 132668851293
    },
    {
      "frame_id": 129,
      "sensor_timestamp": 132668884540554,
      "time_usec": 132668884540
    },
    {
      "frame_id": 130,
      "sensor_timestamp": 132668917786892,
      "time_usec": 132668917786
    },
    {
      "frame_id": 131,
      "sensor_timestamp": 132668951033229,
      "time_usec": 132668951033
    },
    {
      "frame_id": 132,
      "sensor_timestamp": 132668984279567,
      "time_usec": 132668984279
    },
    {
      "frame_id": 133,
      "sensor_timestamp": 132669017526149,
      "time_usec": 132669017526
    },
    {
      "frame_id": 134,
      "sensor_timestamp": 132669050772487,
      "time_usec": 132669050772
    },
    {
      "frame_id": 135,
      "sensor_timestamp": 132669084018825,
      "time_usec": 132669084018
    },
    {
      "frame_id": 136,
      "sensor_timestamp": 132669117265163,
      "time_usec": 132669117265
    },
    {
      "frame_id": 137,
      "sensor_timestamp": 132669150511745,
      "time_usec": 132669150511
    },
    {
      "frame_id": 138,
      "sensor_timestamp": 132669183758083,
      "time_usec": 132669183758
    },
    {
      "frame_id": 139,
      "sensor_timestamp": 132669217004421,
      "time_usec": 132669217004
    },
    {
      "frame_id": 140,
      "sensor_timestamp": 132669250250759,
      "time_usec": 132669250250
    },
    {
      "frame_id": 141,
      "sensor_timestamp": 132669283497341,
      "time_usec": 132669283497
    },
    {
      "frame_id": 142,
      "sensor_timestamp": 132669316743679,
      "time_usec": 132669316743
    },
    {
      "frame_id": 143,
      "sensor_timestamp": 132669349990017,
      "time_usec": 132669349990
    },
    {
      "frame_id": 144,
      "sensor_timestamp": 132669383236354,
      "time_usec": 132669383236
    },
    {
      "frame_id": 145,
      "sensor_timestamp": 132669416482937,
      "time_usec": 132669416482
    },
    {
      "frame_id": 146,
      "sensor_timestamp": 132669449729274,
      "time_usec": 132669449729
    },
    {
      "frame_id": 147,
      "sensor_timestamp": 132669482975612,
      "time_usec": 132669482975
    },
    {
      "frame_id": 148,
      "sensor_timestamp": 132669516221950,
      "time_usec": 132669516221
    },
    {
      "frame_id": 149,
      "sensor_timestamp": 132669549468288,
      "time_usec": 132669549468
    },
    {
      "frame_id": 150,
      "sensor_timestamp": 132669582714870,
      "time_usec": 132669582714
    },
    {
      "frame_id": 151,
      "sensor_timestamp": 132669615961208,
      "time_usec": 132669615961
    },
    {
      "frame_id": 152,
      "sensor_timestamp": 132669649207546,
      "time_usec": 132669649207
    },
    {
      "frame_id": 153,
      "sensor_timestamp": 132669682453884,
      "time_usec": 132669682453
    },
    {
      "frame_id": 154,
      "sensor_timestamp": 132669715700466,
      "time_usec": 132669715700
    },
    {
      "frame_id": 155,
      "sensor_timestamp": 132669748946804,
      "time_usec": 132669748946
    },
    {
      "frame_id": 156,
      "sensor_timestamp": 132669782193142,
      "time_usec": 132669782193
    },
    {
      "frame_id": 157,
      "sensor_timestamp": 132669815439479,
      "time_usec": 132669815439
    },
    {
      "frame_id": 158,
      "sensor_timestamp": 132669848686062,
      "time_usec": 132669848686
    },
    {
      "frame_id": 159,
      "sensor_timestamp": 132669881932399,
      "time_usec": 132669881932
    },
    {
      "frame_id": 160,
      "sensor_timestamp": 132669915178737,
      "time_usec": 132669915178
    },
    {
      "frame_id": 161,
      "sensor_timestamp": 132669948425075,
      "time_usec": 132669948425
    },
    {
      "frame_id": 162,
      "sensor_timestamp": 132669981671657,
      "time_usec": 132669981671
    },
    {
      "frame_id": 163,
      "sensor_timestamp": 132670014917995,
      "time_usec": 132670014917
    },
    {
      "frame_id": 164,
      "sensor_timestamp": 132670048164333,
      "time_usec": 132670048164
    },
    {
      "frame_id": 165,
      "sensor_timestamp": 132670081410671,
      "time_usec": 132670081410
    },
    {
      "frame_id": 166,
      "sensor_timestamp": 132670114657253,
      "time_usec": 132670114657
    },
    {
      "frame_id": 167,
      "sensor_timestamp": 132670147903591,
      "time_usec": 132670147903
    },
    {
      "frame_id": 168,
      "sensor_timestamp": 132670181149929,
      "time_usec": 132670181149
    },
    {
      "frame_id": 169,
      "sensor_timestamp": 132670214396267,
      "time_usec": 132670214396
    },
    {
      "frame_id": 170,
      "sensor_timestamp": 132670247642849,
      "time_usec": 132670247642
    },
    {
      "frame_id": 171,
      "sensor_timestamp": 132670280889187,
      "time_usec": 132670280889
    },
    {
      "frame_id": 172,
      "sensor_timestamp": 132670314135524,
      "time_usec": 132670314135
    },
    {
      "frame_id": 173,
      "sensor_timestamp": 132670347381862,
      "time_usec": 132670347381
    },
    {
      "frame_id": 174,
      "sensor_timestamp": 132670380628444,
      "time_usec": 132670380628
    },
    {
      "frame_id": 175,
      "sensor_timestamp": 132670413874782,
      "time_usec": 132670413874
    },
    {
      "frame_id": 176,
      "sensor_timestamp": 132670447121120,
      "time_usec": 132670447121
    },
    {
      "frame_id": 177,
      "sensor_timestamp": 132670480367458,
      "time_usec": 132670480367
    },
    {
      "frame_id": 178,
      "sensor_timestamp": 132670513614040,
      "time_usec": 132670513614
    },
    {
      "frame_id": 179,
      "sensor_timestamp": 132670546860378,
      "time_usec": 132670546860
    },
    {
      "frame_id": 180,
      "sensor_timestamp": 132670580106716,
      "time_usec": 132670580106
    },
    {
      "frame_id": 181,
      "sensor_timestamp": 132670613353054,
      "time_usec": 132670613353
    },
    {
      "frame_id": 182,
      "sensor_timestamp": 132670646599392,
      "time_usec": 132670646599
    },
    {
      "frame_id": 183,
      "sensor_timestamp": 132670679845974,
      "time_usec": 132670679845
    },
    {
      "frame_id": 184,
      "sensor_timestamp": 132670713092312,
      "time_usec": 132670713092
    },
    {
      "frame_id": 185,
      "sensor_timestamp": 132670746338649,
      "time_usec": 132670746338
    },
    {
      "frame_id": 186,
      "sensor_timestamp": 132670779584987,
      "time_usec": 132670779584
    },
    {
      "frame_id": 187,
      "sensor_timestamp": 132670812831569,
      "time_usec": 132670812831
    },
    {
      "frame_id": 188,
      "sensor_timestamp": 132670846077907,
      "time_usec": 132670846077
    },
    {
      "frame_id": 189,
      "sensor_timestamp": 132670879324245,
      "time_usec": 132670879324
    },
    {
      "frame_id": 190,
      "sensor_timestamp": 132670912570583,
      "time_usec": 132670912570
    },
    {
      "frame_id": 191,
      "sensor_timestamp": 132670945817165,
      "time_usec": 132670945817
    },
    {
      "frame_id": 192,
      "sensor_timestamp": 132670979063503,
      "time_usec": 132670979063
    },
    {
      "frame_id": 193,
      "sensor_timestamp": 132671012309841,
      "time_usec": 132671012309
    },
    {
      "frame_id": 194,
      "sensor_timestamp": 132671045556179,
      "time_usec": 132671045556
    },
    {
      "frame_id": 195,
      "sensor_timestamp": 132671078802761,
      "time_usec": 132671078802
    },
    {
      "frame_id": 196,
      "sensor_timestamp": 132671112049099,
      "time_usec": 132671112049
    },
    {
      "frame_id": 197,
      "sensor_timestamp": 132671145295437,
      "time_usec": 132671145295
    },
    {
      "frame_id": 198,
      "sensor_timestamp": 132671178541774,
      "time_usec": 132671178541
    },
    {
      "frame_id": 199,
      "sensor_timestamp": 132671211788356,
      "time_usec": 132671211788
    },
    {
      "frame_id": 200,
      "sensor_timestamp": 132671245034694,
      "time_usec": 132671245034
    },
    {
      "frame_id": 201,
      "sensor_timestamp": 132671278281032,
      "time_usec": 132671278281
    },
    {
      "frame_id": 202,
      "sensor_timestamp": 132671311527370,
      "time_usec": 132671311527
    },
    {
      "frame_id": 203,
      "sensor_timestamp": 132671344773952,
      "time_usec": 132671344773
    },
    {
      "frame_id": 204,
      "sensor_timestamp": 132671378020290,
      "time_usec": 132671378020
    },
    {
      "frame_id": 205,
      "sensor_timestamp": 132671411266628,
      "time_usec": 132671411266
    },
    {
      "frame_id": 206,
      "sensor_timestamp": 132671444512966,
      "time_usec": 132671444512
    },
    {
      "frame_id": 207,
      "sensor_timestamp": 132671477759548,
      "time_usec": 132671477759
    },
    {
      "frame_id": 208,
      "sensor_timestamp": 132671511005886,
      "time_usec": 132671511005
    },
    {
      "frame_id": 209,
      "sensor_timestamp": 132671544252224,
      "time_usec": 132671544252
    },
    {
      "frame_id": 210,
      "sensor_timestamp": 132671577498562,
      "time_usec": 132671577498
    },
    {
      "frame_id": 211,
      "sensor_timestamp": 132671610745144,
      "time_usec": 132671610745
    },
    {
      "frame_id": 212,
      "sensor_timestamp": 132671643991481,
      "time_usec": 132671643991
    },
    {
      "frame_id": 213,
      "sensor_timestamp": 132671677237819,
      "time_usec": 132671677237
    },
    {
      "frame_id": 214,
      "sensor_timestamp": 132671710484157,
      "time_usec": 132671710484
    },
    {
      "frame_id": 215,
      "sensor_timestamp": 132671743730739,
      "time_usec": 132671743730
    },
    {
      "frame_id": 216,
      "sensor_timestamp": 132671776977077,
      "time_usec": 132671776977
    },
    {
      "frame_id": 217,
      "sensor_timestamp": 132671810223415,
      "time_usec": 132671810223
    },
    {
      "frame_id": 218,
      "sensor_timestamp": 132671843469753,
      "time_usec": 132671843469
    },
    {
      "frame_id": 219,
      "sensor_timestamp": 132671876716091,
      "time_usec": 132671876716
    },
    {
      "frame_id": 220,
      "sensor_timestamp": 132671909962673,
      "time_usec": 132671909962
    },
    {
      "frame_id": 221,
      "sensor_timestamp": 132671943209011,
      "time_usec": 132671943209
    },
    {
      "frame_id": 222,
      "sensor_timestamp": 132671976455349,
      "time_usec": 132671976455
    },
    {
      "frame_id": 223,
      "sensor_timestamp": 132672009701687,
      "time_usec": 132672009701
    },
    {
      "frame_id": 224,
      "sensor_timestamp": 132672042948269,
      "time_usec": 132672042948
    },
    {
      "frame_id": 225,
      "sensor_timestamp": 132672076194606,
      "time_usec": 132672076194
    },
    {
      "frame_id": 226,
      "sensor_timestamp": 132672109440944,
      "time_usec": 132672109440
    },
    {
      "frame_id": 227,
      "sensor_timestamp": 132672142687282,
      "time_usec": 132672142687
    },
    {
      "frame_id": 228,
      "sensor_timestamp": 132672175933864,
      "time_usec": 132672175933
    },
    {
      "frame_id": 229,
      "sensor_timestamp": 132672209180202,
      "time_usec": 132672209180
    },
    {
      "frame_id": 230,
      "sensor_timestamp": 132672242426540,
      "time_usec": 132672242426
    },
    {
      "frame_id": 231,
      "sensor_timestamp": 132672275672878,
      "time_usec": 132672275672
    },
    {
      "frame_id": 232,
      "sensor_timestamp": 132672308919460,
      "time_usec": 132672308919
    },
    {
      "frame_id": 233,
      "sensor_timestamp": 132672342165798,
      "time_usec": 132672342165
    },
    {
      "frame_id": 234,
      "sensor_timestamp": 132672375412136,
      "time_usec": 132672375412
    },
    {
      "frame_id": 235,
      "sensor_timestamp": 132672408658474,
      "time_usec": 132672408658
    },
    {
      "frame_id": 236,
      "sensor_timestamp": 132672441905056,
      "time_usec": 132672441905
    },
    {
      "frame_id": 237,
      "sensor_timestamp": 132672475151394,
      "time_usec": 132672475151
    },
    {
      "frame_id": 238,
      "sensor_timestamp": 132672508397731,
      "time_usec": 132672508397
    },
    {
      "frame_id": 239,
      "sensor_timestamp": 132672541644069,
      "time_usec": 132672541644
    },
    {
      "frame_id": 240,
      "sensor_timestamp": 132672574890651,
      "time_usec": 132672574890
    },
    {
      "frame_id": 241,
      "sensor_timestamp": 132672608136989,
      "time_usec": 132672608136
    },
    {
      "frame_id": 242,
      "sensor_timestamp": 132672641383327,
      "time_usec": 132672641383
    },
    {
      "frame_id": 243,
      "sensor_timestamp": 132672674629665,
      "time_usec": 132672674629
    },
    {
      "frame_id": 244,
      "sensor_timestamp": 132672707876247,
      "time_usec": 132672707876
    },
    {
      "frame_id": 245,
      "sensor_timestamp": 132672741122585,
      "time_usec": 132672741122
    },
    {
      "frame_id": 246,
      "sensor_timestamp": 132672774336853,
      "time_usec": 132672774336
    },
    {
      "frame_id": 247,
      "sensor_timestamp": 132672807615261,
      "time_usec": 132672807615
    },
    {
      "frame_id": 248,
      "sensor_timestamp": 132672840861843,
      "time_usec": 132672840861
    },
    {
      "frame_id": 249,
      "sensor_timestamp": 132672874108181,
      "time_usec": 132672874108
    },
    {
      "frame_id": 250,
      "sensor_timestamp": 132672907354519,
      "time_usec": 132672907354
    },
    {
      "frame_id": 251,
      "sensor_timestamp": 132672940600856,
      "time_usec": 132672940600
    },
    {
      "frame_id": 252,
      "sensor_timestamp": 132672973847438,
      "time_usec": 132672973847
    },
    {
      "frame_id": 253,
      "sensor_timestamp": 132673007093776,
      "time_usec": 132673007093
    },
    {
      "frame_id": 254,
      "sensor_timestamp": 132673040340114,
      "time_usec": 132673040340
    },
    {
      "frame_id": 255,
      "sensor_timestamp": 132673073586452,
      "time_usec": 132673073586
    },
    {
      "frame_id": 256,
      "sensor_timestamp": 132673106832790,
      "time_usec": 132673106832
    },
    {
      "frame_id": 257,
      "sensor_timestamp": 132673140079372,
      "time_usec": 132673140079
    },
    {
      "frame_id": 258,
      "sensor_timestamp": 132673173325710,
      "time_usec": 132673173325
    },
    {
      "frame_id": 259,
      "sensor_timestamp": 132673206572048,
      "time_usec": 132673206572
    },
    {
      "frame_id": 260,
      "sensor_timestamp": 132673239818386,
      "time_usec": 132673239818
    },
    {
      "frame_id": 261,
      "sensor_timestamp": 132673273064968,
      "time_usec": 132673273064
    },
    {
      "frame_id": 262,
      "sensor_timestamp": 132673306311306,
      "time_usec": 132673306311
    },
    {
      "frame_id": 263,
      "sensor_timestamp": 132673339557644,
      "time_usec": 132673339557
    },
    {
      "frame_id": 264,
      "sensor_timestamp": 132673372803981,
      "time_usec": 132673372803
    },
    {
      "frame_id": 265,
      "sensor_timestamp": 132673406050563,
      "time_usec": 132673406050
    },
    {
      "frame_id": 266,
      "sensor_timestamp": 132673439296901,
      "time_usec": 132673439296
    },
    {
      "frame_id": 267,
      "sensor_timestamp": 132673472543239,
      "time_usec": 132673472543
    },
    {
      "frame_id": 268,
      "sensor_timestamp": 132673505789577,
      "time_usec": 132673505789
    },
    {
      "frame_id": 269,
      "sensor_timestamp": 132673539036159,
      "time_usec": 132673539036
    },
    {
      "frame_id": 270,
      "sensor_timestamp": 132673572282497,
      "time_usec": 132673572282
    },
    {
      "frame_id": 271,
      "sensor_timestamp": 132673605714010,
      "time_usec": 132673605714
    },
    {
      "frame_id": 272,
      "sensor_timestamp": 132673638775173,
      "time_usec": 132673638775
    },
    {
      "frame_id": 273,
      "sensor_timestamp": 132673672021755,
      "time_usec": 132673672021
    },
    {
      "frame_id": 274,
      "sensor_timestamp": 132673705268093,
      "time_usec": 132673705268
    },
    {
      "frame_id": 275,
      "sensor_timestamp": 132673738514431,
      "time_usec": 132673738514
    },
    {
      "frame_id": 276,
      "sensor_timestamp": 132673771760769,
      "time_usec": 132673771760
    },
    {
      "frame_id": 277,
      "sensor_timestamp": 132673805007351,
      "time_usec": 132673805007
    },
    {
      "frame_id": 278,
      "sensor_timestamp": 132673838253688,
      "time_usec": 132673838253
    },
    {
      "frame_id": 279,
      "sensor_timestamp": 132673871500026,
      "time_usec": 132673871500
    },
    {
      "frame_id": 280,
      "sensor_timestamp": 132673904746364,
      "time_usec": 132673904746
    },
    {
      "frame_id": 281,
      "sensor_timestamp": 132673937992946,
      "time_usec": 132673937992
    },
    {
      "frame_id": 282,
      "sensor_timestamp": 132673971239284,
      "time_usec": 132673971239
    },
    {
      "frame_id": 283,
      "sensor_timestamp": 132674004485622,
      "time_usec": 132674004485
    },
    {
      "frame_id": 284,
      "sensor_timestamp": 132674037731960,
      "time_usec": 132674037731
    },
    {
      "frame_id": 285,
      "sensor_timestamp": 132674070978542,
      "time_usec": 132674070978
    },
    {
      "frame_id": 286,
      "sensor_timestamp": 132674104224880,
      "time_usec": 132674104224
    },
    {
      "frame_id": 287,
      "sensor_timestamp": 132674137471218,
      "time_usec": 132674137471
    },
    {
      "frame_id": 288,
      "sensor_timestamp": 132674170717556,
      "time_usec": 132674170717
    },
    {
      "frame_id": 289,
      "sensor_timestamp": 132674203964138,
      "time_usec": 132674203964
    },
    {
      "frame_id": 290,
      "sensor_timestamp": 132674237210476,
      "time_usec": 132674237210
    },
    {
      "frame_id": 291,
      "sensor_timestamp": 132674270456813,
      "time_usec": 132674270456
    },
    {
      "frame_id": 292,
      "sensor_timestamp": 132674303703151,
      "time_usec": 132674303703
    },
    {
      "frame_id": 293,
      "sensor_timestamp": 132674336949489,
      "time_usec": 132674336949
    },
    {
      "frame_id": 294,
      "sensor_timestamp": 132674370196071,
      "time_usec": 132674370196
    },
    {
      "frame_id": 295,
      "sensor_timestamp": 132674403442409,
      "time_usec": 132674403442
    },
    {
      "frame_id": 296,
      "sensor_timestamp": 132674436688747,
      "time_usec": 132674436688
    },
    {
      "frame_id": 297,
      "sensor_timestamp": 132674469935085,
      "time_usec": 132674469935
    },
    {
      "frame_id": 298,
      "sensor_timestamp": 132674503181667,
      "time_usec": 132674503181
    },
    {
      "frame_id": 299,
      "sensor_timestamp": 132674536428005,
      "time_usec": 132674536428
    },
    {
      "frame_id": 300,
      "sensor_timestamp": 132674569638571,
      "time_usec": 132674569638
    },
    {
      "frame_id": 301,
      "sensor_timestamp": 132674602920681,
      "time_usec": 132674602920
    },
    {
      "frame_id": 302,
      "sensor_timestamp": 132674636167263,
      "time_usec": 132674636167
    },
    {
      "frame_id": 303,
      "sensor_timestamp": 132674669413601,
      "time_usec": 132674669413
    },
    {
      "frame_id": 304,
      "sensor_timestamp": 132674702659938,
      "time_usec": 132674702659
    },
    {
      "frame_id": 305,
      "sensor_timestamp": 132674735906276,
      "time_usec": 132674735906
    },
    {
      "frame_id": 306,
      "sensor_timestamp": 132674769152858,
      "time_usec": 132674769152
    },
    {
      "frame_id": 307,
      "sensor_timestamp": 132674802399196,
      "time_usec": 132674802399
    },
    {
      "frame_id": 308,
      "sensor_timestamp": 132674835645534,
      "time_usec": 132674835645
    },
    {
      "frame_id": 309,
      "sensor_timestamp": 132674868891872,
      "time_usec": 132674868891
    },
    {
      "frame_id": 310,
      "sensor_timestamp": 132674902138454,
      "time_usec": 132674902138
    },
    {
      "frame_id": 311,
      "sensor_timestamp": 132674935384792,
      "time_usec": 132674935384
    },
    {
      "frame_id": 312,
      "sensor_timestamp": 132674968631130,
      "time_usec": 132674968631
    },
    {
      "frame_id": 313,
      "sensor_timestamp": 132675001877468,
      "time_usec": 132675001877
    },
    {
      "frame_id": 314,
      "sensor_timestamp": 132675035124050,
      "time_usec": 132675035124
    },
    {
      "frame_id": 315,
      "sensor_timestamp": 132675068370388,
      "time_usec": 132675068370
    },
    {
      "frame_id": 316,
      "sensor_timestamp": 132675101616726,
      "time_usec": 132675101616
    },
    {
      "frame_id": 317,
      "sensor_timestamp": 132675134863063,
      "time_usec": 132675134863
    },
    {
      "frame_id": 318,
      "sensor_timestamp": 132675168109646,
      "time_usec": 132675168109
    },
    {
      "frame_id": 319,
      "sensor_timestamp": 132675201355983,
      "time_usec": 132675201355
    },
    {
      "frame_id": 320,
      "sensor_timestamp": 132675234602321,
      "time_usec": 132675234602
    },
    {
      "frame_id": 321,
      "sensor_timestamp": 132675267848659,
      "time_usec": 132675267848
    },
    {
      "frame_id": 322,
      "sensor_timestamp": 132675301095241,
      "time_usec": 132675301095
    },
    {
      "frame_id": 323,
      "sensor_timestamp": 132675334341579,
      "time_usec": 132675334341
    },
    {
      "frame_id": 324,
      "sensor_timestamp": 132675367587917,
      "time_usec": 132675367587
    },
    {
      "frame_id": 325,
      "sensor_timestamp": 132675400834255,
      "time_usec": 132675400834
    },
    {
      "frame_id": 326,
      "sensor_timestamp": 132675434080837,
      "time_usec": 132675434080
    },
    {
      "frame_id": 327,
      "sensor_timestamp": 132675467327175,
      "time_usec": 132675467327
    },
    {
      "frame_id": 328,
      "sensor_timestamp": 132675500573513,
      "time_usec": 132675500573
    },
    {
      "frame_id": 329,
      "sensor_timestamp": 132675533819851,
      "time_usec": 132675533819
    },
    {
      "frame_id": 330,
      "sensor_timestamp": 132675567066188,
      "time_usec": 132675567066
    },
    {
      "frame_id": 331,
      "sensor_timestamp": 132675600312771,
      "time_usec": 132675600312
    },
    {
      "frame_id": 332,
      "sensor_timestamp": 132675633559108,
      "time_usec": 132675633559
    },
    {
      "frame_id": 333,
      "sensor_timestamp": 132675666805446,
      "time_usec": 132675666805
    },
    {
      "frame_id": 334,
      "sensor_timestamp": 132675700051784,
      "time_usec": 132675700051
    },
    {
      "frame_id": 335,
      "sensor_timestamp": 132675733298366,
      "time_usec": 132675733298
    },
    {
      "frame_id": 336,
      "sensor_timestamp": 132675766544704,
      "time_usec": 132675766544
    },
    {
      "frame_id": 337,
      "sensor_timestamp": 132675799791042,
      "time_usec": 132675799791
    },
    {
      "frame_id": 338,
      "sensor_timestamp": 132675833037380,
      "time_usec": 132675833037
    },
    {
      "frame_id": 339,
      "sensor_timestamp": 132675866283962,
      "time_usec": 132675866283
    },
    {
      "frame_id": 340,
      "sensor_timestamp": 132675899530300,
      "time_usec": 132675899530
    },
    {
      "frame_id": 341,
      "sensor_timestamp": 132675932776638,
      "time_usec": 132675932776
    },
    {
      "frame_id": 342,
      "sensor_timestamp": 132675966022976,
      "time_usec": 132675966022
    },
    {
      "frame_id": 343,
      "sensor_timestamp": 132675999269558,
      "time_usec": 132675999269
    },
    {
      "frame_id": 344,
      "sensor_timestamp": 132676032515896,
      "time_usec": 132676032515
    },
    {
      "frame_id": 345,
      "sensor_timestamp": 132676065762233,
      "time_usec": 132676065762
    },
    {
      "frame_id": 346,
      "sensor_timestamp": 132676098973899,
      "time_usec": 132676098973
    },
    {
      "frame_id": 347,
      "sensor_timestamp": 132676132255153,
      "time_usec": 132676132255
    },
    {
      "frame_id": 348,
      "sensor_timestamp": 132676165501491,
      "time_usec": 132676165501
    },
    {
      "frame_id": 349,
      "sensor_timestamp": 132676198747829,
      "time_usec": 132676198747
    },
    {
      "frame_id": 350,
      "sensor_timestamp": 132676231994167,
      "time_usec": 132676231994
    },
    {
      "frame_id": 351,
      "sensor_timestamp": 132676265240749,
      "time_usec": 132676265240
    },
    {
      "frame_id": 352,
      "sensor_timestamp": 132676298487087,
      "time_usec": 132676298487
    },
    {
      "frame_id": 353,
      "sensor_timestamp": 132676331733425,
      "time_usec": 132676331733
    },
    {
      "frame_id": 354,
      "sensor_timestamp": 132676364979763,
      "time_usec": 132676364979
    },
    {
      "frame_id": 355,
      "sensor_timestamp": 132676398226345,
      "time_usec": 132676398226
    },
    {
      "frame_id": 356,
      "sensor_timestamp": 132676431472683,
      "time_usec": 132676431472
    },
    {
      "frame_id": 357,
      "sensor_timestamp": 132676464719021,
      "time_usec": 132676464719
    },
    {
      "frame_id": 358,
      "sensor_timestamp": 132676497965358,
      "time_usec": 132676497965
    },
    {
      "frame_id": 359,
      "sensor_timestamp": 132676531211940,
      "time_usec": 132676531211
    },
    {
      "frame_id": 360,
      "sensor_timestamp": 132676564458278,
      "time_usec": 132676564458
    },
    {
      "frame_id": 361,
      "sensor_timestamp": 132676597704616,
      "time_usec": 132676597704
    },
    {
      "frame_id": 362,
      "sensor_timestamp": 132676630950954,
      "time_usec": 132676630950
    },
    {
      "frame_id": 363,
      "sensor_timestamp": 132676664197292,
      "time_usec": 132676664197
    },
    {
      "frame_id": 364,
      "sensor_timestamp": 132676697443874,
      "time_usec": 132676697443
    },
    {
      "frame_id": 365,
      "sensor_timestamp": 132676730690212,
      "time_usec": 132676730690
    },
    {
      "frame_id": 366,
      "sensor_timestamp": 132676763936550,
      "time_usec": 132676763936
    },
    {
      "frame_id": 367,
      "sensor_timestamp": 132676797182888,
      "time_usec": 132676797182
    },
    {
      "frame_id": 368,
      "sensor_timestamp": 132676830429470,
      "time_usec": 132676830429
    },
    {
      "frame_id": 369,
      "sensor_timestamp": 132676863675808,
      "time_usec": 132676863675
    },
    {
      "frame_id": 370,
      "sensor_timestamp": 132676896922146,
      "time_usec": 132676896922
    },
    {
      "frame_id": 371,
      "sensor_timestamp": 132676930168483,
      "time_usec": 132676930168
    },
    {
      "frame_id": 372,
      "sensor_timestamp": 132676963415065,
      "time_usec": 132676963415
    },
    {
      "frame_id": 373,
      "sensor_timestamp": 132676996661403,
      "time_usec": 132676996661
    },
    {
      "frame_id": 374,
      "sensor_timestamp": 132677029907741,
      "time_usec": 132677029907
    },
    {
      "frame_id": 375,
      "sensor_timestamp": 132677063154079,
      "time_usec": 132677063154
    },
    {
      "frame_id": 376,
      "sensor_timestamp": 132677096400661,
      "time_usec": 132677096400
    },
    {
      "frame_id": 377,
      "sensor_timestamp": 132677129646999,
      "time_usec": 132677129646
    },
    {
      "frame_id": 378,
      "sensor_timestamp": 132677162893337,
      "time_usec": 132677162893
    },
    {
      "frame_id": 379,
      "sensor_timestamp": 132677196139675,
      "time_usec": 132677196139
    },
    {
      "frame_id": 380,
      "sensor_timestamp": 132677229386257,
      "time_usec": 132677229386
    },
    {
      "frame_id": 381,
      "sensor_timestamp": 132677262632595,
      "time_usec": 132677262632
    },
    {
      "frame_id": 382,
      "sensor_timestamp": 132677295878933,
      "time_usec": 132677295878
    },
    {
      "frame_id": 383,
      "sensor_timestamp": 132677329125271,
      "time_usec": 132677329125
    },
    {
      "frame_id": 384,
      "sensor_timestamp": 132677362371853,
      "time_usec": 132677362371
    },
    {
      "frame_id": 385,
      "sensor_timestamp": 132677395618190,
      "time_usec": 132677395618
    },
    {
      "frame_id": 386,
      "sensor_timestamp": 132677428864528,
      "time_usec": 132677428864
    },
    {
      "frame_id": 387,
      "sensor_timestamp": 132677462110866,
      "time_usec": 132677462110
    },
    {
      "frame_id": 388,
      "sensor_timestamp": 132677495357448,
      "time_usec": 132677495357
    },
    {
      "frame_id": 389,
      "sensor_timestamp": 132677528603786,
      "time_usec": 132677528603
    },
    {
      "frame_id": 390,
      "sensor_timestamp": 132677561850124,
      "time_usec": 132677561850
    },
    {
      "frame_id": 391,
      "sensor_timestamp": 132677595096462,
      "time_usec": 132677595096
    },
    {
      "frame_id": 392,
      "sensor_timestamp": 132677628343044,
      "time_usec": 132677628343
    },
    {
      "frame_id": 393,
      "sensor_timestamp": 132677661589382,
      "time_usec": 132677661589
    },
    {
      "frame_id": 394,
      "sensor_timestamp": 132677694835720,
      "time_usec": 132677694835
    },
    {
      "frame_id": 395,
      "sensor_timestamp": 132677728082058,
      "time_usec": 132677728082
    },
    {
      "frame_id": 396,
      "sensor_timestamp": 132677761328640,
      "time_usec": 132677761328
    },
    {
      "frame_id": 397,
      "sensor_timestamp": 132677794574978,
      "time_usec": 132677794574
    },
    {
      "frame_id": 398,
      "sensor_timestamp": 132677827821315,
      "time_usec": 132677827821
    },
    {
      "frame_id": 399,
      "sensor_timestamp": 132677861067653,
      "time_usec": 132677861067
    },
    {
      "frame_id": 400,
      "sensor_timestamp": 132677894313991,
      "time_usec": 132677894313
    },
    {
      "frame_id": 401,
      "sensor_timestamp": 132677927560573,
      "time_usec": 132677927560
    },
    {
      "frame_id": 402,
      "sensor_timestamp": 132677960806911,
      "time_usec": 132677960806
    },
    {
      "frame_id": 403,
      "sensor_timestamp": 132677994053249,
      "time_usec": 132677994053
    },
    {
      "frame_id": 404,
      "sensor_timestamp": 132678027299587,
      "time_usec": 132678027299
    },
    {
      "frame_id": 405,
      "sensor_timestamp": 132678060546169,
      "time_usec": 132678060546
    },
    {
      "frame_id": 406,
      "sensor_timestamp": 132678093792507,
      "time_usec": 132678093792
    },
    {
      "frame_id": 407,
      "sensor_timestamp": 132678127038845,
      "time_usec": 132678127038
    },
    {
      "frame_id": 408,
      "sensor_timestamp": 132678160285183,
      "time_usec": 132678160285
    },
    {
      "frame_id": 409,
      "sensor_timestamp": 132678193531765,
      "time_usec": 132678193531
    },
    {
      "frame_id": 410,
      "sensor_timestamp": 132678226778103,
      "time_usec": 132678226778
    },
    {
      "frame_id": 411,
      "sensor_timestamp": 132678260024440,
      "time_usec": 132678260024
    },
    {
      "frame_id": 412,
      "sensor_timestamp": 132678293270778,
      "time_usec": 132678293270
    },
    {
      "frame_id": 413,
      "sensor_timestamp": 132678326517360,
      "time_usec": 132678326517
    },
    {
      "frame_id": 414,
      "sensor_timestamp": 132678359763698,
      "time_usec": 132678359763
    },
    {
      "frame_id": 415,
      "sensor_timestamp": 132678393010036,
      "time_usec": 132678393010
    },
    {
      "frame_id": 416,
      "sensor_timestamp": 132678426256374,
      "time_usec": 132678426256
    },
    {
      "frame_id": 417,
      "sensor_timestamp": 132678459502956,
      "time_usec": 132678459502
    },
    {
      "frame_id": 418,
      "sensor_timestamp": 132678492749294,
      "time_usec": 132678492749
    },
    {
      "frame_id": 419,
      "sensor_timestamp": 132678525962832,
      "time_usec": 132678525962
    },
    {
      "frame_id": 420,
      "sensor_timestamp": 132678559241970,
      "time_usec": 132678559241
    },
    {
      "frame_id": 421,
      "sensor_timestamp": 132678592488552,
      "time_usec": 132678592488
    },
    {
      "frame_id": 422,
      "sensor_timestamp": 132678625734890,
      "time_usec": 132678625734
    },
    {
      "frame_id": 423,
      "sensor_timestamp": 132678658981228,
      "time_usec": 132678658981
    },
    {
      "frame_id": 424,
      "sensor_timestamp": 132678692227565,
      "time_usec": 132678692227
    },
    {
      "frame_id": 425,
      "sensor_timestamp": 132678725474147,
      "time_usec": 132678725474
    },
    {
      "frame_id": 426,
      "sensor_timestamp": 132678758720485,
      "time_usec": 132678758720
    },
    {
      "frame_id": 427,
      "sensor_timestamp": 132678791966823,
      "time_usec": 132678791966
    },
    {
      "frame_id": 428,
      "sensor_timestamp": 132678825213161,
      "time_usec": 132678825213
    },
    {
      "frame_id": 429,
      "sensor_timestamp": 132678858459743,
      "time_usec": 132678858459
    },
    {
      "frame_id": 430,
      "sensor_timestamp": 132678891706081,
      "time_usec": 132678891706
    },
    {
      "frame_id": 431,
      "sensor_timestamp": 132678924952419,
      "time_usec": 132678924952
    },
    {
      "frame_id": 432,
      "sensor_timestamp": 132678958198757,
      "time_usec": 132678958198
    },
    {
      "frame_id": 433,
      "sensor_timestamp": 132678991445339,
      "time_usec": 132678991445
    },
    {
      "frame_id": 434,
      "sensor_timestamp": 132679024691677,
      "time_usec": 132679024691
    },
    {
      "frame_id": 435,
      "sensor_timestamp": 132679057938015,
      "time_usec": 132679057938
    },
    {
      "frame_id": 436,
      "sensor_timestamp": 132679091184353,
      "time_usec": 132679091184
    },
    {
      "frame_id": 437,
      "sensor_timestamp": 132679124430690,
      "time_usec": 132679124430
    },
    {
      "frame_id": 438,
      "sensor_timestamp": 132679157677272,
      "time_usec": 132679157677
    },
    {
      "frame_id": 439,
      "sensor_timestamp": 132679190923610,
      "time_usec": 132679190923
    },
    {
      "frame_id": 440,
      "sensor_timestamp": 132679224169948,
      "time_usec": 132679224169
    },
    {
      "frame_id": 441,
      "sensor_timestamp": 132679257416286,
      "time_usec": 132679257416
    },
    {
      "frame_id": 442,
      "sensor_timestamp": 132679290662868,
      "time_usec": 132679290662
    },
    {
      "frame_id": 443,
      "sensor_timestamp": 132679323909206,
      "time_usec": 132679323909
    },
    {
      "frame_id": 444,
      "sensor_timestamp": 132679357155544,
      "time_usec": 132679357155
    },
    {
      "frame_id": 445,
      "sensor_timestamp": 132679390401882,
      "time_usec": 132679390401
    },
    {
      "frame_id": 446,
      "sensor_timestamp": 132679423648464,
      "time_usec": 132679423648
    },
    {
      "frame_id": 447,
      "sensor_timestamp": 132679456894802,
      "time_usec": 132679456894
    },
    {
      "frame_id": 448,
      "sensor_timestamp": 132679490141140,
      "time_usec": 132679490141
    },
    {
      "frame_id": 449,
      "sensor_timestamp": 132679523387478,
      "time_usec": 132679523387
    },
    {
      "frame_id": 450,
      "sensor_timestamp": 132679556634060,
      "time_usec": 132679556634
    },
    {
      "frame_id": 451,
      "sensor_timestamp": 132679589880397,
      "time_usec": 132679589880
    },
    {
      "frame_id": 452,
      "sensor_timestamp": 132679623126735,
      "time_usec": 132679623126
    },
    {
      "frame_id": 453,
      "sensor_timestamp": 132679656373073,
      "time_usec": 132679656373
    },
    {
      "frame_id": 454,
      "sensor_timestamp": 132679689619655,
      "time_usec": 132679689619
    },
    {
      "frame_id": 455,
      "sensor_timestamp": 132679722865993,
      "time_usec": 132679722865
    },
    {
      "frame_id": 456,
      "sensor_timestamp": 132679756112331,
      "time_usec": 132679756112
    },
    {
      "frame_id": 457,
      "sensor_timestamp": 132679789358669,
      "time_usec": 132679789358
    },
    {
      "frame_id": 458,
      "sensor_timestamp": 132679822605251,
      "time_usec": 132679822605
    },
    {
      "frame_id": 459,
      "sensor_timestamp": 132679855851589,
      "time_usec": 132679855851
    },
    {
      "frame_id": 460,
      "sensor_timestamp": 132679889097927,
      "time_usec": 132679889097
    },
    {
      "frame_id": 461,
      "sensor_timestamp": 132679922406274,
      "time_usec": 132679922406
    },
    {
      "frame_id": 462,
      "sensor_timestamp": 132679955590847,
      "time_usec": 132679955590
    },
    {
      "frame_id": 463,
      "sensor_timestamp": 132679988837185,
      "time_usec": 132679988837
    },
    {
      "frame_id": 464,
      "sensor_timestamp": 132680022083522,
      "time_usec": 132680022083
    },
    {
      "frame_id": 465,
      "sensor_timestamp": 132680055329860,
      "time_usec": 132680055329
    },
    {
      "frame_id": 466,
      "sensor_timestamp": 132680088576442,
      "time_usec": 132680088576
    },
    {
      "frame_id": 467,
      "sensor_timestamp": 132680121822780,
      "time_usec": 132680121822
    },
    {
      "frame_id": 468,
      "sensor_timestamp": 132680155069118,
      "time_usec": 132680155069
    },
    {
      "frame_id": 469,
      "sensor_timestamp": 132680188315456,
      "time_usec": 132680188315
    },
    {
      "frame_id": 470,
      "sensor_timestamp": 132680221562038,
      "time_usec": 132680221562
    },
    {
      "frame_id": 471,
      "sensor_timestamp": 132680254808376,
      "time_usec": 132680254808
    },
    {
      "frame_id": 472,
      "sensor_timestamp": 132680288054714,
      "time_usec": 132680288054
    },
    {
      "frame_id": 473,
      "sensor_timestamp": 132680321301052,
      "time_usec": 132680321301
    },
    {
      "frame_id": 474,
      "sensor_timestamp": 132680354547390,
      "time_usec": 132680354547
    },
    {
      "frame_id": 475,
      "sensor_timestamp": 132680387793972,
      "time_usec": 132680387793
    },
    {
      "frame_id": 476,
      "sensor_timestamp": 132680421040310,
      "time_usec": 132680421040
    },
    {
      "frame_id": 477,
      "sensor_timestamp": 132680454286647,
      "time_usec": 132680454286
    },
    {
      "frame_id": 478,
      "sensor_timestamp": 132680487532985,
      "time_usec": 132680487532
    },
    {
      "frame_id": 479,
      "sensor_timestamp": 132680520779567,
      "time_usec": 132680520779
    },
    {
      "frame_id": 480,
      "sensor_timestamp": 132680554025905,
      "time_usec": 132680554025
    },
    {
      "frame_id": 481,
      "sensor_timestamp": 132680587272243,
      "time_usec": 132680587272
    },
    {
      "frame_id": 482,
      "sensor_timestamp": 132680620518581,
      "time_usec": 132680620518
    },
    {
      "frame_id": 483,
      "sensor_timestamp": 132680653765163,
      "time_usec": 132680653765
    },
    {
      "frame_id": 484,
      "sensor_timestamp": 132680687011501,
      "time_usec": 132680687011
    },
    {
      "frame_id": 485,
      "sensor_timestamp": 132680720257839,
      "time_usec": 132680720257
    },
    {
      "frame_id": 486,
      "sensor_timestamp": 132680753504177,
      "time_usec": 132680753504
    },
    {
      "frame_id": 487,
      "sensor_timestamp": 132680786750759,
      "time_usec": 132680786750
    },
    {
      "frame_id": 488,
      "sensor_timestamp": 132680819997097,
      "time_usec": 132680819997
    },
    {
      "frame_id": 489,
      "sensor_timestamp": 132680853243435,
      "time_usec": 132680853243
    },
    {
      "frame_id": 490,
      "sensor_timestamp": 132680886489772,
      "time_usec": 132680886489
    },
    {
      "frame_id": 491,
      "sensor_timestamp": 132680919736354,
      "time_usec": 132680919736
    },
    {
      "frame_id": 492,
      "sensor_timestamp": 132680952982692,
      "time_usec": 132680952982
    },
    {
      "frame_id": 493,
      "sensor_timestamp": 132680986229030,
      "time_usec": 132680986229
    },
    {
      "frame_id": 494,
      "sensor_timestamp": 132681019475368,
      "time_usec": 132681019475
    },
    {
      "frame_id": 495,
      "sensor_timestamp": 132681052721950,
      "time_usec": 132681052721
    },
    {
      "frame_id": 496,
      "sensor_timestamp": 132681085968288,
      "time_usec": 132681085968
    },
    {
      "frame_id": 497,
      "sensor_timestamp": 132681119214626,
      "time_usec": 132681119214
    },
    {
      "frame_id": 498,
      "sensor_timestamp": 132681152460964,
      "time_usec": 132681152460
    },
    {
      "frame_id": 499,
      "sensor_timestamp": 132681185707546,
      "time_usec": 132681185707
    },
    {
      "frame_id": 500,
      "sensor_timestamp": 132681218923364,
      "time_usec": 132681218923
    },
    {
      "frame_id": 501,
      "sensor_timestamp": 132681252200222,
      "time_usec": 132681252200
    },
    {
      "frame_id": 502,
      "sensor_timestamp": 132681285446560,
      "time_usec": 132681285446
    },
    {
      "frame_id": 503,
      "sensor_timestamp": 132681318693142,
      "time_usec": 132681318693
    },
    {
      "frame_id": 504,
      "sensor_timestamp": 132681351939479,
      "time_usec": 132681351939
    },
    {
      "frame_id": 505,
      "sensor_timestamp": 132681385185817,
      "time_usec": 132681385185
    },
    {
      "frame_id": 506,
      "sensor_timestamp": 132681418432155,
      "time_usec": 132681418432
    },
    {
      "frame_id": 507,
      "sensor_timestamp": 132681451678737,
      "time_usec": 132681451678
    },
    {
      "frame_id": 508,
      "sensor_timestamp": 132681484925075,
      "time_usec": 132681484925
    },
    {
      "frame_id": 509,
      "sensor_timestamp": 132681518171413,
      "time_usec": 132681518171
    },
    {
      "frame_id": 510,
      "sensor_timestamp": 132681551417751,
      "time_usec": 132681551417
    },
    {
      "frame_id": 511,
      "sensor_timestamp": 132681584664089,
      "time_usec": 132681584664
    },
    {
      "frame_id": 512,
      "sensor_timestamp": 132681617910671,
      "time_usec": 132681617910
    },
    {
      "frame_id": 513,
      "sensor_timestamp": 132681651157009,
      "time_usec": 132681651157
    },
    {
      "frame_id": 514,
      "sensor_timestamp": 132681684403347,
      "time_usec": 132681684403
    },
    {
      "frame_id": 515,
      "sensor_timestamp": 132681717649685,
      "time_usec": 132681717649
    },
    {
      "frame_id": 516,
      "sensor_timestamp": 132681750896267,
      "time_usec": 132681750896
    },
    {
      "frame_id": 517,
      "sensor_timestamp": 132681784142604,
      "time_usec": 132681784142
    },
    {
      "frame_id": 518,
      "sensor_timestamp": 132681817388942,
      "time_usec": 132681817388
    },
    {
      "frame_id": 519,
      "sensor_timestamp": 132681850635280,
      "time_usec": 132681850635
    },
    {
      "frame_id": 520,
      "sensor_timestamp": 132681883881862,
      "time_usec": 132681883881
    },
    {
      "frame_id": 521,
      "sensor_timestamp": 132681917128200,
      "time_usec": 132681917128
    },
    {
      "frame_id": 522,
      "sensor_timestamp": 132681950374538,
      "time_usec": 132681950374
    },
    {
      "frame_id": 523,
      "sensor_timestamp": 132681983620876,
      "time_usec": 132681983620
    },
    {
      "frame_id": 524,
      "sensor_timestamp": 132682016867458,
      "time_usec": 132682016867
    },
    {
      "frame_id": 525,
      "sensor_timestamp": 132682050113796,
      "time_usec": 132682050113
    },
    {
      "frame_id": 526,
      "sensor_timestamp": 132682083360134,
      "time_usec": 132682083360
    },
    {
      "frame_id": 527,
      "sensor_timestamp": 132682116606472,
      "time_usec": 132682116606
    },
    {
      "frame_id": 528,
      "sensor_timestamp": 132682149853054,
      "time_usec": 132682149853
    },
    {
      "frame_id": 529,
      "sensor_timestamp": 132682183099392,
      "time_usec": 132682183099
    },
    {
      "frame_id": 530,
      "sensor_timestamp": 132682216345729,
      "time_usec": 132682216345
    },
    {
      "frame_id": 531,
      "sensor_timestamp": 132682249592067,
      "time_usec": 132682249592
    },
    {
      "frame_id": 532,
      "sensor_timestamp": 132682282838649,
      "time_usec": 132682282838
    },
    {
      "frame_id": 533,
      "sensor_timestamp": 132682316084987,
      "time_usec": 132682316084
    },
    {
      "frame_id": 534,
      "sensor_timestamp": 132682349331325,
      "time_usec": 132682349331
    },
    {
      "frame_id": 535,
      "sensor_timestamp": 132682382577663,
      "time_usec": 132682382577
    },
    {
      "frame_id": 536,
      "sensor_timestamp": 132682415824245,
      "time_usec": 132682415824
    },
    {
      "frame_id": 537,
      "sensor_timestamp": 132682449070583,
      "time_usec": 132682449070
    },
    {
      "frame_id": 538,
      "sensor_timestamp": 132682482316921,
      "time_usec": 132682482316
    },
    {
      "frame_id": 539,
      "sensor_timestamp": 132682515563259,
      "time_usec": 132682515563
    },
    {
      "frame_id": 540,
      "sensor_timestamp": 132682548809841,
      "time_usec": 132682548809
    },
    {
      "frame_id": 541,
