{
  "frames": [
    {
      "frame_id": 0,
      "sensor_timestamp": 99769671938098,
      "time_usec": 99769671938
    },
    {
      "frame_id": 1,
      "sensor_timestamp": 99769738430773,
      "time_usec": 99769738430
    },
    {
      "frame_id": 2,
      "sensor_timestamp": 99769771677356,
      "time_usec": 99769771677
    },
    {
      "frame_id": 3,
      "sensor_timestamp": 99769804923693,
      "time_usec": 99769804923
    },
    {
      "frame_id": 4,
      "sensor_timestamp": 99769838170031,
      "time_usec": 99769838170
    },
    {
      "frame_id": 5,
      "sensor_timestamp": 99769871416369,
      "time_usec": 99769871416
    },
    {
      "frame_id": 6,
      "sensor_timestamp": 99769904662951,
      "time_usec": 99769904662
    },
    {
      "frame_id": 7,
      "sensor_timestamp": 99769937909289,
      "time_usec": 99769937909
    },
    {
      "frame_id": 8,
      "sensor_timestamp": 99769971155627,
      "time_usec": 99769971155
    },
    {
      "frame_id": 9,
      "sensor_timestamp": 99770004401965,
      "time_usec": 99770004401
    },
    {
      "frame_id": 10,
      "sensor_timestamp": 99770037648547,
      "time_usec": 99770037648
    },
    {
      "frame_id": 11,
      "sensor_timestamp": 99770070894885,
      "time_usec": 99770070894
    },
    {
      "frame_id": 12,
      "sensor_timestamp": 99770104141223,
      "time_usec": 99770104141
    },
    {
      "frame_id": 13,
      "sensor_timestamp": 99770137387561,
      "time_usec": 99770137387
    },
    {
      "frame_id": 14,
      "sensor_timestamp": 99770170634143,
      "time_usec": 99770170634
    },
    {
      "frame_id": 15,
      "sensor_timestamp": 99770203880481,
      "time_usec": 99770203880
    },
    {
      "frame_id": 16,
      "sensor_timestamp": 99770237126818,
      "time_usec": 99770237126
    },
    {
      "frame_id": 17,
      "sensor_timestamp": 99770270373156,
      "time_usec": 99770270373
    },
    {
      "frame_id": 18,
      "sensor_timestamp": 99770303619738,
      "time_usec": 99770303619
    },
    {
      "frame_id": 19,
      "sensor_timestamp": 99770336866076,
      "time_usec": 99770336866
    },
    {
      "frame_id": 20,
      "sensor_timestamp": 99770370112414,
      "time_usec": 99770370112
    },
    {
      "frame_id": 21,
      "sensor_timestamp": 99770403358752,
      "time_usec": 99770403358
    },
    {
      "frame_id": 22,
      "sensor_timestamp": 99770436605090,
      "time_usec": 99770436605
    },
    {
      "frame_id": 23,
      "sensor_timestamp": 99770469851672,
      "time_usec": 99770469851
    },
    {
      "frame_id": 24,
      "sensor_timestamp": 99770503098010,
      "time_usec": 99770503098
    },
    {
      "frame_id": 25,
      "sensor_timestamp": 99770536344348,
      "time_usec": 99770536344
    },
    {
      "frame_id": 26,
      "sensor_timestamp": 99770569590686,
      "time_usec": 99770569590
    },
    {
      "frame_id": 27,
      "sensor_timestamp": 99770602837268,
      "time_usec": 99770602837
    },
    {
      "frame_id": 28,
      "sensor_timestamp": 99770636083606,
      "time_usec": 99770636083
    },
    {
      "frame_id": 29,
      "sensor_timestamp": 99770669329943,
      "time_usec": 99770669329
    },
    {
      "frame_id": 30,
      "sensor_timestamp": 99770702576281,
      "time_usec": 99770702576
    },
    {
      "frame_id": 31,
      "sensor_timestamp": 99770735822863,
      "time_usec": 99770735822
    },
    {
      "frame_id": 32,
      "sensor_timestamp": 99770769069201,
      "time_usec": 99770769069
    },
    {
      "frame_id": 33,
      "sensor_timestamp": 99770802315539,
      "time_usec": 99770802315
    },
    {
      "frame_id": 34,
      "sensor_timestamp": 99770835561877,
      "time_usec": 99770835561
    },
    {
      "frame_id": 35,
      "sensor_timestamp": 99770868808459,
      "time_usec": 99770868808
    },
    {
      "frame_id": 36,
      "sensor_timestamp": 99770902054797,
      "time_usec": 99770902054
    },
    {
      "frame_id": 37,
      "sensor_timestamp": 99770935301135,
      "time_usec": 99770935301
    },
    {
      "frame_id": 38,
      "sensor_timestamp": 99770968547473,
      "time_usec": 99770968547
    },
    {
      "frame_id": 39,
      "sensor_timestamp": 99771001794055,
      "time_usec": 99771001794
    },
    {
      "frame_id": 40,
      "sensor_timestamp": 99771035040393,
      "time_usec": 99771035040
    },
    {
      "frame_id": 41,
      "sensor_timestamp": 99771068286731,
      "time_usec": 99771068286
    },
    {
      "frame_id": 42,
      "sensor_timestamp": 99771101533068,
      "time_usec": 99771101533
    },
    {
      "frame_id": 43,
      "sensor_timestamp": 99771134779650,
      "time_usec": 99771134779
    },
    {
      "frame_id": 44,
      "sensor_timestamp": 99771168025988,
      "time_usec": 99771168025
    },
    {
      "frame_id": 45,
      "sensor_timestamp": 99771201272326,
      "time_usec": 99771201272
    },
    {
      "frame_id": 46,
      "sensor_timestamp": 99771234518664,
      "time_usec": 99771234518
    },
    {
      "frame_id": 47,
      "sensor_timestamp": 99771267765246,
      "time_usec": 99771267765
    },
    {
      "frame_id": 48,
      "sensor_timestamp": 99771301011584,
      "time_usec": 99771301011
    },
    {
      "frame_id": 49,
      "sensor_timestamp": 99771334257922,
      "time_usec": 99771334257
    },
    {
      "frame_id": 50,
      "sensor_timestamp": 99771367504260,
      "time_usec": 99771367504
    },
    {
      "frame_id": 51,
      "sensor_timestamp": 99771400750842,
      "time_usec": 99771400750
    },
    {
      "frame_id": 52,
      "sensor_timestamp": 99771433997180,
      "time_usec": 99771433997
    },
    {
      "frame_id": 53,
      "sensor_timestamp": 99771467243518,
      "time_usec": 99771467243
    },
    {
      "frame_id": 54,
      "sensor_timestamp": 99771500489856,
      "time_usec": 99771500489
    },
    {
      "frame_id": 55,
      "sensor_timestamp": 99771533736438,
      "time_usec": 99771533736
    },
    {
      "frame_id": 56,
      "sensor_timestamp": 99771566982775,
      "time_usec": 99771566982
    },
    {
      "frame_id": 57,
      "sensor_timestamp": 99771600229113,
      "time_usec": 99771600229
    },
    {
      "frame_id": 58,
      "sensor_timestamp": 99771633475451,
      "time_usec": 99771633475
    },
    {
      "frame_id": 59,
      "sensor_timestamp": 99771666721789,
      "time_usec": 99771666721
    },
    {
      "frame_id": 60,
      "sensor_timestamp": 99771699968371,
      "time_usec": 99771699968
    },
    {
      "frame_id": 61,
      "sensor_timestamp": 99771733214709,
      "time_usec": 99771733214
    },
    {
      "frame_id": 62,
      "sensor_timestamp": 99771766461047,
      "time_usec": 99771766461
    },
    {
      "frame_id": 63,
      "sensor_timestamp": 99771799707385,
      "time_usec": 99771799707
    },
    {
      "frame_id": 64,
      "sensor_timestamp": 99771832953967,
      "time_usec": 99771832953
    },
    {
      "frame_id": 65,
      "sensor_timestamp": 99771866200305,
      "time_usec": 99771866200
    },
    {
      "frame_id": 66,
      "sensor_timestamp": 99771899446643,
      "time_usec": 99771899446
    },
    {
      "frame_id": 67,
      "sensor_timestamp": 99771932692981,
      "time_usec": 99771932692
    },
    {
      "frame_id": 68,
      "sensor_timestamp": 99771965939563,
      "time_usec": 99771965939
    },
    {
      "frame_id": 69,
      "sensor_timestamp": 99771999185900,
      "time_usec": 99771999185
    },
    {
      "frame_id": 70,
      "sensor_timestamp": 99772032432238,
      "time_usec": 99772032432
    },
    {
      "frame_id": 71,
      "sensor_timestamp": 99772065678576,
      "time_usec": 99772065678
    },
    {
      "frame_id": 72,
      "sensor_timestamp": 99772098925158,
      "time_usec": 99772098925
    },
    {
      "frame_id": 73,
      "sensor_timestamp": 99772132171496,
      "time_usec": 99772132171
    },
    {
      "frame_id": 74,
      "sensor_timestamp": 99772165417834,
      "time_usec": 99772165417
    },
    {
      "frame_id": 75,
      "sensor_timestamp": 99772198664172,
      "time_usec": 99772198664
    },
    {
      "frame_id": 76,
      "sensor_timestamp": 99772231910754,
      "time_usec": 99772231910
    },
    {
      "frame_id": 77,
      "sensor_timestamp": 99772265157092,
      "time_usec": 99772265157
    },
    {
      "frame_id": 78,
      "sensor_timestamp": 99772298403430,
      "time_usec": 99772298403
    },
    {
      "frame_id": 79,
      "sensor_timestamp": 99772331649768,
      "time_usec": 99772331649
    },
    {
      "frame_id": 80,
      "sensor_timestamp": 99772364896350,
      "time_usec": 99772364896
    },
    {
      "frame_id": 81,
      "sensor_timestamp": 99772398142688,
      "time_usec": 99772398142
    },
    {
      "frame_id": 82,
      "sensor_timestamp": 99772431389025,
      "time_usec": 99772431389
    },
    {
      "frame_id": 83,
      "sensor_timestamp": 99772464635363,
      "time_usec": 99772464635
    },
    {
      "frame_id": 84,
      "sensor_timestamp": 99772497881945,
      "time_usec": 99772497881
    },
    {
      "frame_id": 85,
      "sensor_timestamp": 99772531128283,
      "time_usec": 99772531128
    },
    {
      "frame_id": 86,
      "sensor_timestamp": 99772564374621,
      "time_usec": 99772564374
    },
    {
      "frame_id": 87,
      "sensor_timestamp": 99772597620959,
      "time_usec": 99772597620
    },
    {
      "frame_id": 88,
      "sensor_timestamp": 99772630867541,
      "time_usec": 99772630867
    },
    {
      "frame_id": 89,
      "sensor_timestamp": 99772664113879,
      "time_usec": 99772664113
    },
    {
      "frame_id": 90,
      "sensor_timestamp": 99772697360217,
      "time_usec": 99772697360
    },
    {
      "frame_id": 91,
      "sensor_timestamp": 99772730606555,
      "time_usec": 99772730606
    },
    {
      "frame_id": 92,
      "sensor_timestamp": 99772763853137,
      "time_usec": 99772763853
    },
    {
      "frame_id": 93,
      "sensor_timestamp": 99772797099475,
      "time_usec": 99772797099
    },
    {
      "frame_id": 94,
      "sensor_timestamp": 99772830345813,
      "time_usec": 99772830345
    },
    {
      "frame_id": 95,
      "sensor_timestamp": 99772863592150,
      "time_usec": 99772863592
    },
    {
      "frame_id": 96,
      "sensor_timestamp": 99772896838488,
      "time_usec": 99772896838
    },
    {
      "frame_id": 97,
      "sensor_timestamp": 99772930085070,
      "time_usec": 99772930085
    },
    {
      "frame_id": 98,
      "sensor_timestamp": 99772963331408,
      "time_usec": 99772963331
    },
    {
      "frame_id": 99,
      "sensor_timestamp": 99772996577746,
      "time_usec": 99772996577
    },
    {
      "frame_id": 100,
      "sensor_timestamp": 99773029824084,
      "time_usec": 99773029824
    },
    {
      "frame_id": 101,
      "sensor_timestamp": 99773063070666,
      "time_usec": 99773063070
    },
    {
      "frame_id": 102,
      "sensor_timestamp": 99773096317004,
      "time_usec": 99773096317
    },
    {
      "frame_id": 103,
      "sensor_timestamp": 99773129563342,
      "time_usec": 99773129563
    },
    {
      "frame_id": 104,
      "sensor_timestamp": 99773162809680,
      "time_usec": 99773162809
    },
    {
      "frame_id": 105,
      "sensor_timestamp": 99773196056262,
      "time_usec": 99773196056
    },
    {
      "frame_id": 106,
      "sensor_timestamp": 99773229302600,
      "time_usec": 99773229302
    },
    {
      "frame_id": 107,
      "sensor_timestamp": 99773262548938,
      "time_usec": 99773262548
    },
    {
      "frame_id": 108,
      "sensor_timestamp": 99773295795275,
      "time_usec": 99773295795
    },
    {
      "frame_id": 109,
      "sensor_timestamp": 99773329041857,
      "time_usec": 99773329041
    },
    {
      "frame_id": 110,
      "sensor_timestamp": 99773362288195,
      "time_usec": 99773362288
    },
    {
      "frame_id": 111,
      "sensor_timestamp": 99773395534533,
      "time_usec": 99773395534
    },
    {
      "frame_id": 112,
      "sensor_timestamp": 99773428780871,
      "time_usec": 99773428780
    },
    {
      "frame_id": 113,
      "sensor_timestamp": 99773462027453,
      "time_usec": 99773462027
    },
    {
      "frame_id": 114,
      "sensor_timestamp": 99773495273791,
      "time_usec": 99773495273
    },
    {
      "frame_id": 115,
      "sensor_timestamp": 99773528520129,
      "time_usec": 99773528520
    },
    {
      "frame_id": 116,
      "sensor_timestamp": 99773561766467,
      "time_usec": 99773561766
    },
    {
      "frame_id": 117,
      "sensor_timestamp": 99773595013049,
      "time_usec": 99773595013
    },
    {
      "frame_id": 118,
      "sensor_timestamp": 99773628259387,
      "time_usec": 99773628259
    },
    {
      "frame_id": 119,
      "sensor_timestamp": 99773661505725,
      "time_usec": 99773661505
    },
    {
      "frame_id": 120,
      "sensor_timestamp": 99773694752063,
      "time_usec": 99773694752
    },
    {
      "frame_id": 121,
      "sensor_timestamp": 99773727998645,
      "time_usec": 99773727998
    },
    {
      "frame_id": 122,
      "sensor_timestamp": 99773761244982,
      "time_usec": 99773761244
    },
    {
      "frame_id": 123,
      "sensor_timestamp": 99773794491320,
      "time_usec": 99773794491
    },
    {
      "frame_id": 124,
      "sensor_timestamp": 99773827737658,
      "time_usec": 99773827737
    },
    {
      "frame_id": 125,
      "sensor_timestamp": 99773860984240,
      "time_usec": 99773860984
    },
    {
      "frame_id": 126,
      "sensor_timestamp": 99773894230578,
      "time_usec": 99773894230
    },
    {
      "frame_id": 127,
      "sensor_timestamp": 99773927476916,
      "time_usec": 99773927476
    },
    {
      "frame_id": 128,
      "sensor_timestamp": 99773960723254,
      "time_usec": 99773960723
    },
    {
      "frame_id": 129,
      "sensor_timestamp": 99773993969836,
      "time_usec": 99773993969
    },
    {
      "frame_id": 130,
      "sensor_timestamp": 99774027216174,
      "time_usec": 99774027216
    },
    {
      "frame_id": 131,
      "sensor_timestamp": 99774060462512,
      "time_usec": 99774060462
    },
    {
      "frame_id": 132,
      "sensor_timestamp": 99774093708850,
      "time_usec": 99774093708
    },
    {
      "frame_id": 133,
      "sensor_timestamp": 99774126955188,
      "time_usec": 99774126955
    },
    {
      "frame_id": 134,
      "sensor_timestamp": 99774160201770,
      "time_usec": 99774160201
    },
    {
      "frame_id": 135,
      "sensor_timestamp": 99774193448107,
      "time_usec": 99774193448
    },
    {
      "frame_id": 136,
      "sensor_timestamp": 99774226694445,
      "time_usec": 99774226694
    },
    {
      "frame_id": 137,
      "sensor_timestamp": 99774259940783,
      "time_usec": 99774259940
    },
    {
      "frame_id": 138,
      "sensor_timestamp": 99774293187365,
      "time_usec": 99774293187
    },
    {
      "frame_id": 139,
      "sensor_timestamp": 99774326433703,
      "time_usec": 99774326433
    },
    {
      "frame_id": 140,
      "sensor_timestamp": 99774359680041,
      "time_usec": 99774359680
    },
    {
      "frame_id": 141,
      "sensor_timestamp": 99774392926379,
      "time_usec": 99774392926
    },
    {
      "frame_id": 142,
      "sensor_timestamp": 99774426172961,
      "time_usec": 99774426172
    },
    {
      "frame_id": 143,
      "sensor_timestamp": 99774459419299,
      "time_usec": 99774459419
    },
    {
      "frame_id": 144,
      "sensor_timestamp": 99774492665637,
      "time_usec": 99774492665
    },
    {
      "frame_id": 145,
      "sensor_timestamp": 99774525911975,
      "time_usec": 99774525911
    },
    {
      "frame_id": 146,
      "sensor_timestamp": 99774559158557,
      "time_usec": 99774559158
    },
    {
      "frame_id": 147,
      "sensor_timestamp": 99774592404895,
      "time_usec": 99774592404
    },
    {
      "frame_id": 148,
      "sensor_timestamp": 99774625651232,
      "time_usec": 99774625651
    },
    {
      "frame_id": 149,
      "sensor_timestamp": 99774658897570,
      "time_usec": 99774658897
    },
    {
      "frame_id": 150,
      "sensor_timestamp": 99774692144152,
      "time_usec": 99774692144
    },
    {
      "frame_id": 151,
      "sensor_timestamp": 99774725390490,
      "time_usec": 99774725390
    },
    {
      "frame_id": 152,
      "sensor_timestamp": 99774758636828,
      "time_usec": 99774758636
    },
    {
      "frame_id": 153,
      "sensor_timestamp": 99774791883166,
      "time_usec": 99774791883
    },
    {
      "frame_id": 154,
      "sensor_timestamp": 99774825129748,
      "time_usec": 99774825129
    },
    {
      "frame_id": 155,
      "sensor_timestamp": 99774858376086,
      "time_usec": 99774858376
    },
    {
      "frame_id": 156,
      "sensor_timestamp": 99774891622424,
      "time_usec": 99774891622
    },
    {
      "frame_id": 157,
      "sensor_timestamp": 99774924868762,
      "time_usec": 99774924868
    },
    {
      "frame_id": 158,
      "sensor_timestamp": 99774958115344,
      "time_usec": 99774958115
    },
    {
      "frame_id": 159,
      "sensor_timestamp": 99774991361682,
      "time_usec": 99774991361
    },
    {
      "frame_id": 160,
      "sensor_timestamp": 99775024608020,
      "time_usec": 99775024608
    },
    {
      "frame_id": 161,
      "sensor_timestamp": 99775057854357,
      "time_usec": 99775057854
    },
    {
      "frame_id": 162,
      "sensor_timestamp": 99775091100939,
      "time_usec": 99775091100
    },
    {
      "frame_id": 163,
      "sensor_timestamp": 99775124347277,
      "time_usec": 99775124347
    },
    {
      "frame_id": 164,
      "sensor_timestamp": 99775157593615,
      "time_usec": 99775157593
    },
    {
      "frame_id": 165,
      "sensor_timestamp": 99775190839953,
      "time_usec": 99775190839
    },
    {
      "frame_id": 166,
      "sensor_timestamp": 99775224086535,
      "time_usec": 99775224086
    },
    {
      "frame_id": 167,
      "sensor_timestamp": 99775257332873,
      "time_usec": 99775257332
    },
    {
      "frame_id": 168,
      "sensor_timestamp": 99775290579211,
      "time_usec": 99775290579
    },
    {
      "frame_id": 169,
      "sensor_timestamp": 99775323825549,
      "time_usec": 99775323825
    },
    {
      "frame_id": 170,
      "sensor_timestamp": 99775357071887,
      "time_usec": 99775357071
    },
    {
      "frame_id": 171,
      "sensor_timestamp": 99775390318469,
      "time_usec": 99775390318
    },
    {
      "frame_id": 172,
      "sensor_timestamp": 99775423564807,
      "time_usec": 99775423564
    },
    {
      "frame_id": 173,
      "sensor_timestamp": 99775456811145,
      "time_usec": 99775456811
    },
    {
      "frame_id": 174,
      "sensor_timestamp": 99775490057482,
      "time_usec": 99775490057
    },
    {
      "frame_id": 175,
      "sensor_timestamp": 99775523304064,
      "time_usec": 99775523304
    },
    {
      "frame_id": 176,
      "sensor_timestamp": 99775556550402,
      "time_usec": 99775556550
    },
    {
      "frame_id": 177,
      "sensor_timestamp": 99775589796740,
      "time_usec": 99775589796
    },
    {
      "frame_id": 178,
      "sensor_timestamp": 99775623043078,
      "time_usec": 99775623043
    },
    {
      "frame_id": 179,
      "sensor_timestamp": 99775656289660,
      "time_usec": 99775656289
    },
    {
      "frame_id": 180,
      "sensor_timestamp": 99775689535998,
      "time_usec": 99775689535
    },
    {
      "frame_id": 181,
      "sensor_timestamp": 99775722782336,
      "time_usec": 99775722782
    },
    {
      "frame_id": 182,
      "sensor_timestamp": 99775756028674,
      "time_usec": 99775756028
    },
    {
      "frame_id": 183,
      "sensor_timestamp": 99775789275256,
      "time_usec": 99775789275
    },
    {
      "frame_id": 184,
      "sensor_timestamp": 99775822521594,
      "time_usec": 99775822521
    },
    {
      "frame_id": 185,
      "sensor_timestamp": 99775855767932,
      "time_usec": 99775855767
    },
    {
      "frame_id": 186,
      "sensor_timestamp": 99775889014270,
      "time_usec": 99775889014
    },
    {
      "frame_id": 187,
      "sensor_timestamp": 99775922260852,
      "time_usec": 99775922260
    },
    {
      "frame_id": 188,
      "sensor_timestamp": 99775955507189,
      "time_usec": 99775955507
    },
    {
      "frame_id": 189,
      "sensor_timestamp": 99775988753527,
      "time_usec": 99775988753
    },
    {
      "frame_id": 190,
      "sensor_timestamp": 99776021999865,
      "time_usec": 99776021999
    },
    {
      "frame_id": 191,
      "sensor_timestamp": 99776055246447,
      "time_usec": 99776055246
    },
    {
      "frame_id": 192,
      "sensor_timestamp": 99776088492785,
      "time_usec": 99776088492
    },
    {
      "frame_id": 193,
      "sensor_timestamp": 99776121739123,
      "time_usec": 99776121739
    },
    {
      "frame_id": 194,
      "sensor_timestamp": 99776154985461,
      "time_usec": 99776154985
    },
    {
      "frame_id": 195,
      "sensor_timestamp": 99776188232043,
      "time_usec": 99776188232
    },
    {
      "frame_id": 196,
      "sensor_timestamp": 99776221478381,
      "time_usec": 99776221478
    },
    {
      "frame_id": 197,
      "sensor_timestamp": 99776254724719,
      "time_usec": 99776254724
    },
    {
      "frame_id": 198,
      "sensor_timestamp": 99776287971057,
      "time_usec": 99776287971
    },
    {
      "frame_id": 199,
      "sensor_timestamp": 99776321217639,
      "time_usec": 99776321217
    },
    {
      "frame_id": 200,
      "sensor_timestamp": 99776354463977,
      "time_usec": 99776354463
    },
    {
      "frame_id": 201,
      "sensor_timestamp": 99776387710314,
      "time_usec": 99776387710
    },
    {
      "frame_id": 202,
      "sensor_timestamp": 99776420956652,
      "time_usec": 99776420956
    },
    {
      "frame_id": 203,
      "sensor_timestamp": 99776454202990,
      "time_usec": 99776454202
    },
    {
      "frame_id": 204,
      "sensor_timestamp": 99776487449572,
      "time_usec": 99776487449
    },
    {
      "frame_id": 205,
      "sensor_timestamp": 99776520695910,
      "time_usec": 99776520695
    },
    {
      "frame_id": 206,
      "sensor_timestamp": 99776553942248,
      "time_usec": 99776553942
    },
    {
      "frame_id": 207,
      "sensor_timestamp": 99776587188586,
      "time_usec": 99776587188
    },
    {
      "frame_id": 208,
      "sensor_timestamp": 99776620435168,
      "time_usec": 99776620435
    }
  ]
}