{
  "frames": [
    {
      "frame_id": 0,
      "sensor_timestamp": 102333195528918,
      "time_usec": 102333195528
    },
    {
      "frame_id": 1,
      "sensor_timestamp": 102333262021838,
      "time_usec": 102333262021
    },
    {
      "frame_id": 2,
      "sensor_timestamp": 102333295268176,
      "time_usec": 102333295268
    },
    {
      "frame_id": 3,
      "sensor_timestamp": 102333328514514,
      "time_usec": 102333328514
    },
    {
      "frame_id": 4,
      "sensor_timestamp": 102333361760852,
      "time_usec": 102333361760
    },
    {
      "frame_id": 5,
      "sensor_timestamp": 102333395007434,
      "time_usec": 102333395007
    },
    {
      "frame_id": 6,
      "sensor_timestamp": 102333428253772,
      "time_usec": 102333428253
    },
    {
      "frame_id": 7,
      "sensor_timestamp": 102333461500109,
      "time_usec": 102333461500
    },
    {
      "frame_id": 8,
      "sensor_timestamp": 102333494746447,
      "time_usec": 102333494746
    },
    {
      "frame_id": 9,
      "sensor_timestamp": 102333527993029,
      "time_usec": 102333527993
    },
    {
      "frame_id": 10,
      "sensor_timestamp": 102333561239367,
      "time_usec": 102333561239
    },
    {
      "frame_id": 11,
      "sensor_timestamp": 102333594485705,
      "time_usec": 102333594485
    },
    {
      "frame_id": 12,
      "sensor_timestamp": 102333627732043,
      "time_usec": 102333627732
    },
    {
      "frame_id": 13,
      "sensor_timestamp": 102333660978625,
      "time_usec": 102333660978
    },
    {
      "frame_id": 14,
      "sensor_timestamp": 102333694224963,
      "time_usec": 102333694224
    },
    {
      "frame_id": 15,
      "sensor_timestamp": 102333727471301,
      "time_usec": 102333727471
    },
    {
      "frame_id": 16,
      "sensor_timestamp": 102333760717639,
      "time_usec": 102333760717
    },
    {
      "frame_id": 17,
      "sensor_timestamp": 102333793964221,
      "time_usec": 102333793964
    },
    {
      "frame_id": 18,
      "sensor_timestamp": 102333827210559,
      "time_usec": 102333827210
    },
    {
      "frame_id": 19,
      "sensor_timestamp": 102333860456897,
      "time_usec": 102333860456
    },
    {
      "frame_id": 20,
      "sensor_timestamp": 102333893703234,
      "time_usec": 102333893703
    },
    {
      "frame_id": 21,
      "sensor_timestamp": 102333926949816,
      "time_usec": 102333926949
    },
    {
      "frame_id": 22,
      "sensor_timestamp": 102333960196154,
      "time_usec": 102333960196
    },
    {
      "frame_id": 23,
      "sensor_timestamp": 102333993442492,
      "time_usec": 102333993442
    },
    {
      "frame_id": 24,
      "sensor_timestamp": 102334026688830,
      "time_usec": 102334026688
    },
    {
      "frame_id": 25,
      "sensor_timestamp": 102334059935168,
      "time_usec": 102334059935
    },
    {
      "frame_id": 26,
      "sensor_timestamp": 102334093181750,
      "time_usec": 102334093181
    },
    {
      "frame_id": 27,
      "sensor_timestamp": 102334126428088,
      "time_usec": 102334126428
    },
    {
      "frame_id": 28,
      "sensor_timestamp": 102334159674426,
      "time_usec": 102334159674
    },
    {
      "frame_id": 29,
      "sensor_timestamp": 102334192920764,
      "time_usec": 102334192920
    },
    {
      "frame_id": 30,
      "sensor_timestamp": 102334226167346,
      "time_usec": 102334226167
    },
    {
      "frame_id": 31,
      "sensor_timestamp": 102334259413684,
      "time_usec": 102334259413
    },
    {
      "frame_id": 32,
      "sensor_timestamp": 102334292660022,
      "time_usec": 102334292660
    },
    {
      "frame_id": 33,
      "sensor_timestamp": 102334325906359,
      "time_usec": 102334325906
    },
    {
      "frame_id": 34,
      "sensor_timestamp": 102334359152941,
      "time_usec": 102334359152
    },
    {
      "frame_id": 35,
      "sensor_timestamp": 102334392399279,
      "time_usec": 102334392399
    },
    {
      "frame_id": 36,
      "sensor_timestamp": 102334425645617,
      "time_usec": 102334425645
    },
    {
      "frame_id": 37,
      "sensor_timestamp": 102334458891955,
      "time_usec": 102334458891
    },
    {
      "frame_id": 38,
      "sensor_timestamp": 102334492138537,
      "time_usec": 102334492138
    },
    {
      "frame_id": 39,
      "sensor_timestamp": 102334525384875,
      "time_usec": 102334525384
    },
    {
      "frame_id": 40,
      "sensor_timestamp": 102334558631213,
      "time_usec": 102334558631
    },
    {
      "frame_id": 41,
      "sensor_timestamp": 102334591877551,
      "time_usec": 102334591877
    },
    {
      "frame_id": 42,
      "sensor_timestamp": 102334625124133,
      "time_usec": 102334625124
    },
    {
      "frame_id": 43,
      "sensor_timestamp": 102334658370471,
      "time_usec": 102334658370
    },
    {
      "frame_id": 44,
      "sensor_timestamp": 102334691616809,
      "time_usec": 102334691616
    },
    {
      "frame_id": 45,
      "sensor_timestamp": 102334724863147,
      "time_usec": 102334724863
    },
    {
      "frame_id": 46,
      "sensor_timestamp": 102334758109729,
      "time_usec": 102334758109
    },
    {
      "frame_id": 47,
      "sensor_timestamp": 102334791356066,
      "time_usec": 102334791356
    },
    {
      "frame_id": 48,
      "sensor_timestamp": 102334824602404,
      "time_usec": 102334824602
    },
    {
      "frame_id": 49,
      "sensor_timestamp": 102334857848742,
      "time_usec": 102334857848
    },
    {
      "frame_id": 50,
      "sensor_timestamp": 102334891095324,
      "time_usec": 102334891095
    },
    {
      "frame_id": 51,
      "sensor_timestamp": 102334924341662,
      "time_usec": 102334924341
    },
    {
      "frame_id": 52,
      "sensor_timestamp": 102334957588000,
      "time_usec": 102334957588
    },
    {
      "frame_id": 53,
      "sensor_timestamp": 102334990834338,
      "time_usec": 102334990834
    },
    {
      "frame_id": 54,
      "sensor_timestamp": 102335024080920,
      "time_usec": 102335024080
    },
    {
      "frame_id": 55,
      "sensor_timestamp": 102335057327258,
      "time_usec": 102335057327
    },
    {
      "frame_id": 56,
      "sensor_timestamp": 102335090573596,
      "time_usec": 102335090573
    },
    {
      "frame_id": 57,
      "sensor_timestamp": 102335123819934,
      "time_usec": 102335123819
    },
    {
      "frame_id": 58,
      "sensor_timestamp": 102335157066516,
      "time_usec": 102335157066
    },
    {
      "frame_id": 59,
      "sensor_timestamp": 102335190312854,
      "time_usec": 102335190312
    },
    {
      "frame_id": 60,
      "sensor_timestamp": 102335223559191,
      "time_usec": 102335223559
    },
    {
      "frame_id": 61,
      "sensor_timestamp": 102335256805529,
      "time_usec": 102335256805
    },
    {
      "frame_id": 62,
      "sensor_timestamp": 102335290051867,
      "time_usec": 102335290051
    },
    {
      "frame_id": 63,
      "sensor_timestamp": 102335323298449,
      "time_usec": 102335323298
    },
    {
      "frame_id": 64,
      "sensor_timestamp": 102335356544787,
      "time_usec": 102335356544
    },
    {
      "frame_id": 65,
      "sensor_timestamp": 102335389791125,
      "time_usec": 102335389791
    },
    {
      "frame_id": 66,
      "sensor_timestamp": 102335423037463,
      "time_usec": 102335423037
    },
    {
      "frame_id": 67,
      "sensor_timestamp": 102335456284045,
      "time_usec": 102335456284
    },
    {
      "frame_id": 68,
      "sensor_timestamp": 102335489530383,
      "time_usec": 102335489530
    },
    {
      "frame_id": 69,
      "sensor_timestamp": 102335522776721,
      "time_usec": 102335522776
    },
    {
      "frame_id": 70,
      "sensor_timestamp": 102335556023059,
      "time_usec": 102335556023
    },
    {
      "frame_id": 71,
      "sensor_timestamp": 102335589269641,
      "time_usec": 102335589269
    },
    {
      "frame_id": 72,
      "sensor_timestamp": 102335622515979,
      "time_usec": 102335622515
    },
    {
      "frame_id": 73,
      "sensor_timestamp": 102335655762316,
      "time_usec": 102335655762
    },
    {
      "frame_id": 74,
      "sensor_timestamp": 102335689008654,
      "time_usec": 102335689008
    },
    {
      "frame_id": 75,
      "sensor_timestamp": 102335722255236,
      "time_usec": 102335722255
    },
    {
      "frame_id": 76,
      "sensor_timestamp": 102335755501574,
      "time_usec": 102335755501
    },
    {
      "frame_id": 77,
      "sensor_timestamp": 102335788747912,
      "time_usec": 102335788747
    },
    {
      "frame_id": 78,
      "sensor_timestamp": 102335821994250,
      "time_usec": 102335821994
    },
    {
      "frame_id": 79,
      "sensor_timestamp": 102335855240832,
      "time_usec": 102335855240
    },
    {
      "frame_id": 80,
      "sensor_timestamp": 102335888487170,
      "time_usec": 102335888487
    },
    {
      "frame_id": 81,
      "sensor_timestamp": 102335921733508,
      "time_usec": 102335921733
    },
    {
      "frame_id": 82,
      "sensor_timestamp": 102335954979846,
      "time_usec": 102335954979
    },
    {
      "frame_id": 83,
      "sensor_timestamp": 102335988226428,
      "time_usec": 102335988226
    },
    {
      "frame_id": 84,
      "sensor_timestamp": 102336021472766,
      "time_usec": 102336021472
    },
    {
      "frame_id": 85,
      "sensor_timestamp": 102336054719104,
      "time_usec": 102336054719
    },
    {
      "frame_id": 86,
      "sensor_timestamp": 102336087965441,
      "time_usec": 102336087965
    },
    {
      "frame_id": 87,
      "sensor_timestamp": 102336121212023,
      "time_usec": 102336121212
    },
    {
      "frame_id": 88,
      "sensor_timestamp": 102336154458361,
      "time_usec": 102336154458
    },
    {
      "frame_id": 89,
      "sensor_timestamp": 102336187704699,
      "time_usec": 102336187704
    },
    {
      "frame_id": 90,
      "sensor_timestamp": 102336220951037,
      "time_usec": 102336220951
    },
    {
      "frame_id": 91,
      "sensor_timestamp": 102336254197619,
      "time_usec": 102336254197
    },
    {
      "frame_id": 92,
      "sensor_timestamp": 102336287443957,
      "time_usec": 102336287443
    },
    {
      "frame_id": 93,
      "sensor_timestamp": 102336320690295,
      "time_usec": 102336320690
    },
    {
      "frame_id": 94,
      "sensor_timestamp": 102336353936633,
      "time_usec": 102336353936
    },
    {
      "frame_id": 95,
      "sensor_timestamp": 102336387183215,
      "time_usec": 102336387183
    },
    {
      "frame_id": 96,
      "sensor_timestamp": 102336420429553,
      "time_usec": 102336420429
    },
    {
      "frame_id": 97,
      "sensor_timestamp": 102336453675891,
      "time_usec": 102336453675
    },
    {
      "frame_id": 98,
      "sensor_timestamp": 102336486922229,
      "time_usec": 102336486922
    },
    {
      "frame_id": 99,
      "sensor_timestamp": 102336520168566,
      "time_usec": 102336520168
    },
    {
      "frame_id": 100,
      "sensor_timestamp": 102336553415148,
      "time_usec": 102336553415
    },
    {
      "frame_id": 101,
      "sensor_timestamp": 102336586661486,
      "time_usec": 102336586661
    },
    {
      "frame_id": 102,
      "sensor_timestamp": 102336619907824,
      "time_usec": 102336619907
    },
    {
      "frame_id": 103,
      "sensor_timestamp": 102336653154162,
      "time_usec": 102336653154
    },
    {
      "frame_id": 104,
      "sensor_timestamp": 102336686400744,
      "time_usec": 102336686400
    },
    {
      "frame_id": 105,
      "sensor_timestamp": 102336719647082,
      "time_usec": 102336719647
    },
    {
      "frame_id": 106,
      "sensor_timestamp": 102336752893420,
      "time_usec": 102336752893
    },
    {
      "frame_id": 107,
      "sensor_timestamp": 102336786139758,
      "time_usec": 102336786139
    },
    {
      "frame_id": 108,
      "sensor_timestamp": 102336819386340,
      "time_usec": 102336819386
    },
    {
      "frame_id": 109,
      "sensor_timestamp": 102336852632678,
      "time_usec": 102336852632
    },
    {
      "frame_id": 110,
      "sensor_timestamp": 102336885879016,
      "time_usec": 102336885879
    },
    {
      "frame_id": 111,
      "sensor_timestamp": 102336919125354,
      "time_usec": 102336919125
    },
    {
      "frame_id": 112,
      "sensor_timestamp": 102336952371936,
      "time_usec": 102336952371
    },
    {
      "frame_id": 113,
      "sensor_timestamp": 102336985755195,
      "time_usec": 102336985755
    },
    {
      "frame_id": 114,
      "sensor_timestamp": 102337018864611,
      "time_usec": 102337018864
    },
    {
      "frame_id": 115,
      "sensor_timestamp": 102337052110949,
      "time_usec": 102337052110
    },
    {
      "frame_id": 116,
      "sensor_timestamp": 102337085357531,
      "time_usec": 102337085357
    },
    {
      "frame_id": 117,
      "sensor_timestamp": 102337118603869,
      "time_usec": 102337118603
    },
    {
      "frame_id": 118,
      "sensor_timestamp": 102337151850207,
      "time_usec": 102337151850
    },
    {
      "frame_id": 119,
      "sensor_timestamp": 102337185096545,
      "time_usec": 102337185096
    },
    {
      "frame_id": 120,
      "sensor_timestamp": 102337218343127,
      "time_usec": 102337218343
    },
    {
      "frame_id": 121,
      "sensor_timestamp": 102337251589465,
      "time_usec": 102337251589
    },
    {
      "frame_id": 122,
      "sensor_timestamp": 102337284835803,
      "time_usec": 102337284835
    },
    {
      "frame_id": 123,
      "sensor_timestamp": 102337318082141,
      "time_usec": 102337318082
    },
    {
      "frame_id": 124,
      "sensor_timestamp": 102337351328723,
      "time_usec": 102337351328
    },
    {
      "frame_id": 125,
      "sensor_timestamp": 102337384575061,
      "time_usec": 102337384575
    },
    {
      "frame_id": 126,
      "sensor_timestamp": 102337417821398,
      "time_usec": 102337417821
    },
    {
      "frame_id": 127,
      "sensor_timestamp": 102337451067736,
      "time_usec": 102337451067
    },
    {
      "frame_id": 128,
      "sensor_timestamp": 102337484314318,
      "time_usec": 102337484314
    },
    {
      "frame_id": 129,
      "sensor_timestamp": 102337517560656,
      "time_usec": 102337517560
    },
    {
      "frame_id": 130,
      "sensor_timestamp": 102337550806994,
      "time_usec": 102337550806
    },
    {
      "frame_id": 131,
      "sensor_timestamp": 102337584053332,
      "time_usec": 102337584053
    },
    {
      "frame_id": 132,
      "sensor_timestamp": 102337617299914,
      "time_usec": 102337617299
    },
    {
      "frame_id": 133,
      "sensor_timestamp": 102337650546252,
      "time_usec": 102337650546
    },
    {
      "frame_id": 134,
      "sensor_timestamp": 102337683792590,
      "time_usec": 102337683792
    },
    {
      "frame_id": 135,
      "sensor_timestamp": 102337717038928,
      "time_usec": 102337717038
    },
    {
      "frame_id": 136,
      "sensor_timestamp": 102337750285266,
      "time_usec": 102337750285
    },
    {
      "frame_id": 137,
      "sensor_timestamp": 102337783531848,
      "time_usec": 102337783531
    },
    {
      "frame_id": 138,
      "sensor_timestamp": 102337816778186,
      "time_usec": 102337816778
    },
    {
      "frame_id": 139,
      "sensor_timestamp": 102337850024523,
      "time_usec": 102337850024
    },
    {
      "frame_id": 140,
      "sensor_timestamp": 102337883270861,
      "time_usec": 102337883270
    },
    {
      "frame_id": 141,
      "sensor_timestamp": 102337916517443,
      "time_usec": 102337916517
    },
    {
      "frame_id": 142,
      "sensor_timestamp": 102337949763781,
      "time_usec": 102337949763
    },
    {
      "frame_id": 143,
      "sensor_timestamp": 102337983010119,
      "time_usec": 102337983010
    },
    {
      "frame_id": 144,
      "sensor_timestamp": 102338016256457,
      "time_usec": 102338016256
    },
    {
      "frame_id": 145,
      "sensor_timestamp": 102338049503039,
      "time_usec": 102338049503
    },
    {
      "frame_id": 146,
      "sensor_timestamp": 102338082749377,
      "time_usec": 102338082749
    },
    {
      "frame_id": 147,
      "sensor_timestamp": 102338115995715,
      "time_usec": 102338115995
    },
    {
      "frame_id": 148,
      "sensor_timestamp": 102338149242053,
      "time_usec": 102338149242
    },
    {
      "frame_id": 149,
      "sensor_timestamp": 102338182488635,
      "time_usec": 102338182488
    },
    {
      "frame_id": 150,
      "sensor_timestamp": 102338215734973,
      "time_usec": 102338215734
    },
    {
      "frame_id": 151,
      "sensor_timestamp": 102338248981311,
      "time_usec": 102338248981
    },
    {
      "frame_id": 152,
      "sensor_timestamp": 102338282227648,
      "time_usec": 102338282227
    },
    {
      "frame_id": 153,
      "sensor_timestamp": 102338315581774,
      "time_usec": 102338315581
    },
    {
      "frame_id": 154,
      "sensor_timestamp": 102338348720568,
      "time_usec": 102338348720
    },
    {
      "frame_id": 155,
      "sensor_timestamp": 102338381966906,
      "time_usec": 102338381966
    },
    {
      "frame_id": 156,
      "sensor_timestamp": 102338415213244,
      "time_usec": 102338415213
    },
    {
      "frame_id": 157,
      "sensor_timestamp": 102338448459826,
      "time_usec": 102338448459
    },
    {
      "frame_id": 158,
      "sensor_timestamp": 102338481706164,
      "time_usec": 102338481706
    },
    {
      "frame_id": 159,
      "sensor_timestamp": 102338514952502,
      "time_usec": 102338514952
    },
    {
      "frame_id": 160,
      "sensor_timestamp": 102338548198840,
      "time_usec": 102338548198
    },
    {
      "frame_id": 161,
      "sensor_timestamp": 102338581445422,
      "time_usec": 102338581445
    },
    {
      "frame_id": 162,
      "sensor_timestamp": 102338614691760,
      "time_usec": 102338614691
    },
    {
      "frame_id": 163,
      "sensor_timestamp": 102338647938098,
      "time_usec": 102338647938
    },
    {
      "frame_id": 164,
      "sensor_timestamp": 102338681184436,
      "time_usec": 102338681184
    },
    {
      "frame_id": 165,
      "sensor_timestamp": 102338714431018,
      "time_usec": 102338714431
    },
    {
      "frame_id": 166,
      "sensor_timestamp": 102338747677356,
      "time_usec": 102338747677
    },
    {
      "frame_id": 167,
      "sensor_timestamp": 102338780923693,
      "time_usec": 102338780923
    },
    {
      "frame_id": 168,
      "sensor_timestamp": 102338814170031,
      "time_usec": 102338814170
    },
    {
      "frame_id": 169,
      "sensor_timestamp": 102338847416369,
      "time_usec": 102338847416
    },
    {
      "frame_id": 170,
      "sensor_timestamp": 102338880662951,
      "time_usec": 102338880662
    },
    {
      "frame_id": 171,
      "sensor_timestamp": 102338913909289,
      "time_usec": 102338913909
    },
    {
      "frame_id": 172,
      "sensor_timestamp": 102338947155627,
      "time_usec": 102338947155
    },
    {
      "frame_id": 173,
      "sensor_timestamp": 102338980401965,
      "time_usec": 102338980401
    },
    {
      "frame_id": 174,
      "sensor_timestamp": 102339013648547,
      "time_usec": 102339013648
    },
    {
      "frame_id": 175,
      "sensor_timestamp": 102339046894885,
      "time_usec": 102339046894
    },
    {
      "frame_id": 176,
      "sensor_timestamp": 102339080141223,
      "time_usec": 102339080141
    },
    {
      "frame_id": 177,
      "sensor_timestamp": 102339113387561,
      "time_usec": 102339113387
    },
    {
      "frame_id": 178,
      "sensor_timestamp": 102339146634143,
      "time_usec": 102339146634
    },
    {
      "frame_id": 179,
      "sensor_timestamp": 102339179880481,
      "time_usec": 102339179880
    },
    {
      "frame_id": 180,
      "sensor_timestamp": 102339213126818,
      "time_usec": 102339213126
    },
    {
      "frame_id": 181,
      "sensor_timestamp": 102339246373156,
      "time_usec": 102339246373
    },
    {
      "frame_id": 182,
      "sensor_timestamp": 102339279619738,
      "time_usec": 102339279619
    },
    {
      "frame_id": 183,
      "sensor_timestamp": 102339312866076,
      "time_usec": 102339312866
    },
    {
      "frame_id": 184,
      "sensor_timestamp": 102339346112414,
      "time_usec": 102339346112
    },
    {
      "frame_id": 185,
      "sensor_timestamp": 102339379358752,
      "time_usec": 102339379358
    },
    {
      "frame_id": 186,
      "sensor_timestamp": 102339412605334,
      "time_usec": 102339412605
    },
    {
      "frame_id": 187,
      "sensor_timestamp": 102339445813627,
      "time_usec": 102339445813
    },
    {
      "frame_id": 188,
      "sensor_timestamp": 102339479098010,
      "time_usec": 102339479098
    },
    {
      "frame_id": 189,
      "sensor_timestamp": 102339512344348,
      "time_usec": 102339512344
    },
    {
      "frame_id": 190,
      "sensor_timestamp": 102339545558988,
      "time_usec": 102339545558
    },
    {
      "frame_id": 191,
      "sensor_timestamp": 102339578837268,
      "time_usec": 102339578837
    },
    {
      "frame_id": 192,
      "sensor_timestamp": 102339612083606,
      "time_usec": 102339612083
    },
    {
      "frame_id": 193,
      "sensor_timestamp": 102339645329943,
      "time_usec": 102339645329
    },
    {
      "frame_id": 194,
      "sensor_timestamp": 102339678576525,
      "time_usec": 102339678576
    },
    {
      "frame_id": 195,
      "sensor_timestamp": 102339711822863,
      "time_usec": 102339711822
    },
    {
      "frame_id": 196,
      "sensor_timestamp": 102339745069201,
      "time_usec": 102339745069
    },
    {
      "frame_id": 197,
      "sensor_timestamp": 102339778315539,
      "time_usec": 102339778315
    },
    {
      "frame_id": 198,
      "sensor_timestamp": 102339811515694,
      "time_usec": 102339811515
    },
    {
      "frame_id": 199,
      "sensor_timestamp": 102339844808459,
      "time_usec": 102339844808
    },
    {
      "frame_id": 200,
      "sensor_timestamp": 102339878054797,
      "time_usec": 102339878054
    },
    {
      "frame_id": 201,
      "sensor_timestamp": 102339911301135,
      "time_usec": 102339911301
    },
    {
      "frame_id": 202,
      "sensor_timestamp": 102339944547717,
      "time_usec": 102339944547
    },
    {
      "frame_id": 203,
      "sensor_timestamp": 102339977794055,
      "time_usec": 102339977794
    },
    {
      "frame_id": 204,
      "sensor_timestamp": 102340011040393,
      "time_usec": 102340011040
    },
    {
      "frame_id": 205,
      "sensor_timestamp": 102340044286731,
      "time_usec": 102340044286
    },
    {
      "frame_id": 206,
      "sensor_timestamp": 102340077533068,
      "time_usec": 102340077533
    },
    {
      "frame_id": 207,
      "sensor_timestamp": 102340110779650,
      "time_usec": 102340110779
    },
    {
      "frame_id": 208,
      "sensor_timestamp": 102340144025988,
      "time_usec": 102340144025
    },
    {
      "frame_id": 209,
      "sensor_timestamp": 102340177272326,
      "time_usec": 102340177272
    },
    {
      "frame_id": 210,
      "sensor_timestamp": 102340210518664,
      "time_usec": 102340210518
    },
    {
      "frame_id": 211,
      "sensor_timestamp": 102340243765246,
      "time_usec": 102340243765
    },
    {
      "frame_id": 212,
      "sensor_timestamp": 102340277011584,
      "time_usec": 102340277011
    },
    {
      "frame_id": 213,
      "sensor_timestamp": 102340310257922,
      "time_usec": 102340310257
    },
    {
      "frame_id": 214,
      "sensor_timestamp": 102340343504260,
      "time_usec": 102340343504
    },
    {
      "frame_id": 215,
      "sensor_timestamp": 102340376750842,
      "time_usec": 102340376750
    },
    {
      "frame_id": 216,
      "sensor_timestamp": 102340409997180,
      "time_usec": 102340409997
    },
    {
      "frame_id": 217,
      "sensor_timestamp": 102340443243518,
      "time_usec": 102340443243
    },
    {
      "frame_id": 218,
      "sensor_timestamp": 102340476489856,
      "time_usec": 102340476489
    },
    {
      "frame_id": 219,
      "sensor_timestamp": 102340509736438,
      "time_usec": 102340509736
    },
    {
      "frame_id": 220,
      "sensor_timestamp": 102340542982775,
      "time_usec": 102340542982
    },
    {
      "frame_id": 221,
      "sensor_timestamp": 102340576229113,
      "time_usec": 102340576229
    },
    {
      "frame_id": 222,
      "sensor_timestamp": 102340609475451,
      "time_usec": 102340609475
    },
    {
      "frame_id": 223,
      "sensor_timestamp": 102340642722033,
      "time_usec": 102340642722
    },
    {
      "frame_id": 224,
      "sensor_timestamp": 102340675968371,
      "time_usec": 102340675968
    },
    {
      "frame_id": 225,
      "sensor_timestamp": 102340709214709,
      "time_usec": 102340709214
    },
    {
      "frame_id": 226,
      "sensor_timestamp": 102340742461047,
      "time_usec": 102340742461
    },
    {
      "frame_id": 227,
      "sensor_timestamp": 102340775707629,
      "time_usec": 102340775707
    },
    {
      "frame_id": 228,
      "sensor_timestamp": 102340808953967,
      "time_usec": 102340808953
    },
    {
      "frame_id": 229,
      "sensor_timestamp": 102340842200305,
      "time_usec": 102340842200
    },
    {
      "frame_id": 230,
      "sensor_timestamp": 102340875446643,
      "time_usec": 102340875446
    },
    {
      "frame_id": 231,
      "sensor_timestamp": 102340908693225,
      "time_usec": 102340908693
    },
    {
      "frame_id": 232,
      "sensor_timestamp": 102340941939563,
      "time_usec": 102340941939
    },
    {
      "frame_id": 233,
      "sensor_timestamp": 102340975185900,
      "time_usec": 102340975185
    },
    {
      "frame_id": 234,
      "sensor_timestamp": 102341008432238,
      "time_usec": 102341008432
    },
    {
      "frame_id": 235,
      "sensor_timestamp": 102341041678820,
      "time_usec": 102341041678
    },
    {
      "frame_id": 236,
      "sensor_timestamp": 102341074925158,
      "time_usec": 102341074925
    },
    {
      "frame_id": 237,
      "sensor_timestamp": 102341108171496,
      "time_usec": 102341108171
    },
    {
      "frame_id": 238,
      "sensor_timestamp": 102341141417834,
      "time_usec": 102341141417
    },
    {
      "frame_id": 239,
      "sensor_timestamp": 102341174664416,
      "time_usec": 102341174664
    },
    {
      "frame_id": 240,
      "sensor_timestamp": 102341207910754,
      "time_usec": 102341207910
    },
    {
      "frame_id": 241,
      "sensor_timestamp": 102341241157092,
      "time_usec": 102341241157
    },
    {
      "frame_id": 242,
      "sensor_timestamp": 102341274403430,
      "time_usec": 102341274403
    },
    {
      "frame_id": 243,
      "sensor_timestamp": 102341307649768,
      "time_usec": 102341307649
    },
    {
      "frame_id": 244,
      "sensor_timestamp": 102341340896350,
      "time_usec": 102341340896
    },
    {
      "frame_id": 245,
      "sensor_timestamp": 102341374142688,
      "time_usec": 102341374142
    },
    {
      "frame_id": 246,
      "sensor_timestamp": 102341407389025,
      "time_usec": 102341407389
    },
    {
      "frame_id": 247,
      "sensor_timestamp": 102341440635363,
      "time_usec": 102341440635
    },
    {
      "frame_id": 248,
      "sensor_timestamp": 102341473881945,
      "time_usec": 102341473881
    },
    {
      "frame_id": 249,
      "sensor_timestamp": 102341507128283,
      "time_usec": 102341507128
    },
    {
      "frame_id": 250,
      "sensor_timestamp": 102341540374621,
      "time_usec": 102341540374
    },
    {
      "frame_id": 251,
      "sensor_timestamp": 102341573620959,
      "time_usec": 102341573620
    },
    {
      "frame_id": 252,
      "sensor_timestamp": 102341606867541,
      "time_usec": 102341606867
    },
    {
      "frame_id": 253,
      "sensor_timestamp": 102341640113879,
      "time_usec": 102341640113
    },
    {
      "frame_id": 254,
      "sensor_timestamp": 102341673360217,
      "time_usec": 102341673360
    },
    {
      "frame_id": 255,
      "sensor_timestamp": 102341706606555,
      "time_usec": 102341706606
    },
    {
      "frame_id": 256,
      "sensor_timestamp": 102341739853137,
      "time_usec": 102341739853
    },
    {
      "frame_id": 257,
      "sensor_timestamp": 102341773099475,
      "time_usec": 102341773099
    },
    {
      "frame_id": 258,
      "sensor_timestamp": 102341806345813,
      "time_usec": 102341806345
    },
    {
      "frame_id": 259,
      "sensor_timestamp": 102341839592150,
      "time_usec": 102341839592
    },
    {
      "frame_id": 260,
      "sensor_timestamp": 102341872838732,
      "time_usec": 102341872838
    },
    {
      "frame_id": 261,
      "sensor_timestamp": 102341906085070,
      "time_usec": 102341906085
    },
    {
      "frame_id": 262,
      "sensor_timestamp": 102341939331408,
      "time_usec": 102341939331
    },
    {
      "frame_id": 263,
      "sensor_timestamp": 102341972577746,
      "time_usec": 102341972577
    },
    {
      "frame_id": 264,
      "sensor_timestamp": 102342005824328,
      "time_usec": 102342005824
    },
    {
      "frame_id": 265,
      "sensor_timestamp": 102342039070666,
      "time_usec": 102342039070
    },
    {
      "frame_id": 266,
      "sensor_timestamp": 102342072317004,
      "time_usec": 102342072317
    },
    {
      "frame_id": 267,
      "sensor_timestamp": 102342105563342,
      "time_usec": 102342105563
    },
    {
      "frame_id": 268,
      "sensor_timestamp": 102342138809924,
      "time_usec": 102342138809
    },
    {
      "frame_id": 269,
      "sensor_timestamp": 102342172056262,
      "time_usec": 102342172056
    },
    {
      "frame_id": 270,
      "sensor_timestamp": 102342205302600,
      "time_usec": 102342205302
    },
    {
      "frame_id": 271,
      "sensor_timestamp": 102342238548938,
      "time_usec": 102342238548
    },
    {
      "frame_id": 272,
      "sensor_timestamp": 102342271795520,
      "time_usec": 102342271795
    },
    {
      "frame_id": 273,
      "sensor_timestamp": 102342305041857,
      "time_usec": 102342305041
    },
    {
      "frame_id": 274,
      "sensor_timestamp": 102342338288195,
      "time_usec": 102342338288
    },
    {
      "frame_id": 275,
      "sensor_timestamp": 102342371534533,
      "time_usec": 102342371534
    },
    {
      "frame_id": 276,
      "sensor_timestamp": 102342404781115,
      "time_usec": 102342404781
    },
    {
      "frame_id": 277,
      "sensor_timestamp": 102342438027453,
      "time_usec": 102342438027
    },
    {
      "frame_id": 278,
      "sensor_timestamp": 102342471273791,
      "time_usec": 102342471273
    },
    {
      "frame_id": 279,
      "sensor_timestamp": 102342504520129,
      "time_usec": 102342504520
    },
    {
      "frame_id": 280,
      "sensor_timestamp": 102342537766467,
      "time_usec": 102342537766
    },
    {
      "frame_id": 281,
      "sensor_timestamp": 102342571013049,
      "time_usec": 102342571013
    },
    {
      "frame_id": 282,
      "sensor_timestamp": 102342604259387,
      "time_usec": 102342604259
    },
    {
      "frame_id": 283,
      "sensor_timestamp": 102342637505725,
      "time_usec": 102342637505
    },
    {
      "frame_id": 284,
      "sensor_timestamp": 102342670752063,
      "time_usec": 102342670752
    },
    {
      "frame_id": 285,
      "sensor_timestamp": 102342703998645,
      "time_usec": 102342703998
    },
    {
      "frame_id": 286,
      "sensor_timestamp": 102342737244982,
      "time_usec": 102342737244
    },
    {
      "frame_id": 287,
      "sensor_timestamp": 102342770491320,
      "time_usec": 102342770491
    },
    {
      "frame_id": 288,
      "sensor_timestamp": 102342803737658,
      "time_usec": 102342803737
    },
    {
      "frame_id": 289,
      "sensor_timestamp": 102342836984240,
      "time_usec": 102342836984
    },
    {
      "frame_id": 290,
      "sensor_timestamp": 102342870230578,
      "time_usec": 102342870230
    },
    {
      "frame_id": 291,
      "sensor_timestamp": 102342903476916,
      "time_usec": 102342903476
    },
    {
      "frame_id": 292,
      "sensor_timestamp": 102342936723254,
      "time_usec": 102342936723
    },
    {
      "frame_id": 293,
      "sensor_timestamp": 102342969969836,
      "time_usec": 102342969969
    },
    {
      "frame_id": 294,
      "sensor_timestamp": 102343003216174,
      "time_usec": 102343003216
    },
    {
      "frame_id": 295,
      "sensor_timestamp": 102343036462512,
      "time_usec": 102343036462
    },
    {
      "frame_id": 296,
      "sensor_timestamp": 102343069708850,
      "time_usec": 102343069708
    },
    {
      "frame_id": 297,
      "sensor_timestamp": 102343102955432,
      "time_usec": 102343102955
    },
    {
      "frame_id": 298,
      "sensor_timestamp": 102343136201770,
      "time_usec": 102343136201
    },
    {
      "frame_id": 299,
      "sensor_timestamp": 102343169448107,
      "time_usec": 102343169448
    },
    {
      "frame_id": 300,
      "sensor_timestamp": 102343202694445,
      "time_usec": 102343202694
    },
    {
      "frame_id": 301,
      "sensor_timestamp": 102343235941027,
      "time_usec": 102343235941
    },
    {
      "frame_id": 302,
      "sensor_timestamp": 102343269187365,
      "time_usec": 102343269187
    },
    {
      "frame_id": 303,
      "sensor_timestamp": 102343302433703,
      "time_usec": 102343302433
    },
    {
      "frame_id": 304,
      "sensor_timestamp": 102343335680041,
      "time_usec": 102343335680
    },
    {
      "frame_id": 305,
      "sensor_timestamp": 102343368926623,
      "time_usec": 102343368926
    },
    {
      "frame_id": 306,
      "sensor_timestamp": 102343402172961,
      "time_usec": 102343402172
    },
    {
      "frame_id": 307,
      "sensor_timestamp": 102343435419299,
      "time_usec": 102343435419
    },
    {
      "frame_id": 308,
      "sensor_timestamp": 102343468665637,
      "time_usec": 102343468665
    },
    {
      "frame_id": 309,
      "sensor_timestamp": 102343501912219,
      "time_usec": 102343501912
    },
    {
      "frame_id": 310,
      "sensor_timestamp": 102343535158557,
      "time_usec": 102343535158
    },
    {
      "frame_id": 311,
      "sensor_timestamp": 102343568404895,
      "time_usec": 102343568404
    },
    {
      "frame_id": 312,
      "sensor_timestamp": 102343601651232,
      "time_usec": 102343601651
    },
    {
      "frame_id": 313,
      "sensor_timestamp": 102343634897814,
      "time_usec": 102343634897
    },
    {
      "frame_id": 314,
      "sensor_timestamp": 102343668144152,
      "time_usec": 102343668144
    },
    {
      "frame_id": 315,
      "sensor_timestamp": 102343701390490,
      "time_usec": 102343701390
    },
    {
      "frame_id": 316,
      "sensor_timestamp": 102343734636828,
      "time_usec": 102343734636
    },
    {
      "frame_id": 317,
      "sensor_timestamp": 102343767883166,
      "time_usec": 102343767883
    },
    {
      "frame_id": 318,
      "sensor_timestamp": 102343801129748,
      "time_usec": 102343801129
    },
    {
      "frame_id": 319,
      "sensor_timestamp": 102343834376086,
      "time_usec": 102343834376
    },
    {
      "frame_id": 320,
      "sensor_timestamp": 102343867622424,
      "time_usec": 102343867622
    },
    {
      "frame_id": 321,
      "sensor_timestamp": 102343900868762,
      "time_usec": 102343900868
    },
    {
      "frame_id": 322,
      "sensor_timestamp": 102343934115344,
      "time_usec": 102343934115
    },
    {
      "frame_id": 323,
      "sensor_timestamp": 102343967361682,
      "time_usec": 102343967361
    },
    {
      "frame_id": 324,
      "sensor_timestamp": 102344000582957,
      "time_usec": 102344000582
    },
    {
      "frame_id": 325,
      "sensor_timestamp": 102344033854357,
      "time_usec": 102344033854
    },
    {
      "frame_id": 326,
      "sensor_timestamp": 102344067100939,
      "time_usec": 102344067100
    },
    {
      "frame_id": 327,
      "sensor_timestamp": 102344100347277,
      "time_usec": 102344100347
    },
    {
      "frame_id": 328,
      "sensor_timestamp": 102344133593615,
      "time_usec": 102344133593
    },
    {
      "frame_id": 329,
      "sensor_timestamp": 102344166839953,
      "time_usec": 102344166839
    },
    {
      "frame_id": 330,
      "sensor_timestamp": 102344200086535,
      "time_usec": 102344200086
    },
    {
      "frame_id": 331,
      "sensor_timestamp": 102344233332873,
      "time_usec": 102344233332
    },
    {
      "frame_id": 332,
      "sensor_timestamp": 102344266579211,
      "time_usec": 102344266579
    },
    {
      "frame_id": 333,
      "sensor_timestamp": 102344299825549,
      "time_usec": 102344299825
    },
    {
      "frame_id": 334,
      "sensor_timestamp": 102344333072131,
      "time_usec": 102344333072
    },
    {
      "frame_id": 335,
      "sensor_timestamp": 102344366318469,
      "time_usec": 102344366318
    },
    {
      "frame_id": 336,
      "sensor_timestamp": 102344399564807,
      "time_usec": 102344399564
    },
    {
      "frame_id": 337,
      "sensor_timestamp": 102344432811145,
      "time_usec": 102344432811
    },
    {
      "frame_id": 338,
      "sensor_timestamp": 102344466057727,
      "time_usec": 102344466057
    },
    {
      "frame_id": 339,
      "sensor_timestamp": 102344499304064,
      "time_usec": 102344499304
    },
    {
      "frame_id": 340,
      "sensor_timestamp": 102344532550402,
      "time_usec": 102344532550
    },
    {
      "frame_id": 341,
      "sensor_timestamp": 102344565796740,
      "time_usec": 102344565796
    },
    {
      "frame_id": 342,
      "sensor_timestamp": 102344599043322,
      "time_usec": 102344599043
    },
    {
      "frame_id": 343,
      "sensor_timestamp": 102344632289660,
      "time_usec": 102344632289
    },
    {
      "frame_id": 344,
      "sensor_timestamp": 102344665535998,
      "time_usec": 102344665535
    },
    {
      "frame_id": 345,
      "sensor_timestamp": 102344698782336,
      "time_usec": 102344698782
    },
    {
      "frame_id": 346,
      "sensor_timestamp": 102344732028918,
      "time_usec": 102344732028
    },
    {
      "frame_id": 347,
      "sensor_timestamp": 102344765275256,
      "time_usec": 102344765275
    },
    {
      "frame_id": 348,
      "sensor_timestamp": 102344798521594,
      "time_usec": 102344798521
    },
    {
      "frame_id": 349,
      "sensor_timestamp": 102344831767932,
      "time_usec": 102344831767
    },
    {
      "frame_id": 350,
      "sensor_timestamp": 102344865014514,
      "time_usec": 102344865014
    },
    {
      "frame_id": 351,
      "sensor_timestamp": 102344898260852,
      "time_usec": 102344898260
    },
    {
      "frame_id": 352,
      "sensor_timestamp": 102344931507189,
      "time_usec": 102344931507
    },
    {
      "frame_id": 353,
      "sensor_timestamp": 102344964753527,
      "time_usec": 102344964753
    },
    {
      "frame_id": 354,
      "sensor_timestamp": 102344997999865,
      "time_usec": 102344997999
    },
    {
      "frame_id": 355,
      "sensor_timestamp": 102345031246447,
      "time_usec": 102345031246
    },
    {
      "frame_id": 356,
      "sensor_timestamp": 102345064492785,
      "time_usec": 102345064492
    },
    {
      "frame_id": 357,
      "sensor_timestamp": 102345097739123,
      "time_usec": 102345097739
    },
    {
      "frame_id": 358,
      "sensor_timestamp": 102345130985461,
      "time_usec": 102345130985
    },
    {
      "frame_id": 359,
      "sensor_timestamp": 102345164232043,
      "time_usec": 102345164232
    },
    {
      "frame_id": 360,
      "sensor_timestamp": 102345197478381,
      "time_usec": 102345197478
    },
    {
      "frame_id": 361,
      "sensor_timestamp": 102345230724719,
      "time_usec": 102345230724
    },
    {
      "frame_id": 362,
      "sensor_timestamp": 102345263971057,
      "time_usec": 102345263971
    },
    {
      "frame_id": 363,
      "sensor_timestamp": 102345297217639,
      "time_usec": 102345297217
    },
    {
      "frame_id": 364,
      "sensor_timestamp": 102345330463977,
      "time_usec": 102345330463
    },
    {
      "frame_id": 365,
      "sensor_timestamp": 102345363710314,
      "time_usec": 102345363710
    },
    {
      "frame_id": 366,
      "sensor_timestamp": 102345396956652,
      "time_usec": 102345396956
    },
    {
      "frame_id": 367,
      "sensor_timestamp": 102345430203234,
      "time_usec": 102345430203
    },
    {
      "frame_id": 368,
      "sensor_timestamp": 102345463449572,
      "time_usec": 102345463449
    },
    {
      "frame_id": 369,
      "sensor_timestamp": 102345496695910,
      "time_usec": 102345496695
    },
    {
      "frame_id": 370,
      "sensor_timestamp": 102345529942248,
      "time_usec": 102345529942
    },
    {
      "frame_id": 371,
      "sensor_timestamp": 102345563188830,
      "time_usec": 102345563188
    },
    {
      "frame_id": 372,
      "sensor_timestamp": 102345596435168,
      "time_usec": 102345596435
    },
    {
      "frame_id": 373,
      "sensor_timestamp": 102345629681506,
      "time_usec": 102345629681
    },
    {
      "frame_id": 374,
      "sensor_timestamp": 102345662927844,
      "time_usec": 102345662927
    },
    {
      "frame_id": 375,
      "sensor_timestamp": 102345696174426,
      "time_usec": 102345696174
    },
    {
      "frame_id": 376,
      "sensor_timestamp": 102345729420764,
      "time_usec": 102345729420
    },
    {
      "frame_id": 377,
      "sensor_timestamp": 102345762667102,
      "time_usec": 102345762667
    },
    {
      "frame_id": 378,
      "sensor_timestamp": 102345795913439,
      "time_usec": 102345795913
    },
    {
      "frame_id": 379,
      "sensor_timestamp": 102345829160022,
      "time_usec": 102345829160
    },
    {
      "frame_id": 380,
      "sensor_timestamp": 102345862406359,
      "time_usec": 102345862406
    },
    {
      "frame_id": 381,
      "sensor_timestamp": 102345895652697,
      "time_usec": 102345895652
    },
    {
      "frame_id": 382,
      "sensor_timestamp": 102345928899035,
      "time_usec": 102345928899
    },
    {
      "frame_id": 383,
      "sensor_timestamp": 102345962145617,
      "time_usec": 102345962145
    },
    {
      "frame_id": 384,
      "sensor_timestamp": 102345995391955,
      "time_usec": 102345995391
    },
    {
      "frame_id": 385,
      "sensor_timestamp": 102346028638293,
      "time_usec": 102346028638
    },
    {
      "frame_id": 386,
      "sensor_timestamp": 102346061884631,
      "time_usec": 102346061884
    },
    {
      "frame_id": 387,
      "sensor_timestamp": 102346095130969,
      "time_usec": 102346095130
    },
    {
      "frame_id": 388,
      "sensor_timestamp": 102346128377551,
      "time_usec": 102346128377
    },
    {
      "frame_id": 389,
      "sensor_timestamp": 102346161623889,
      "time_usec": 102346161623
    },
    {
      "frame_id": 390,
      "sensor_timestamp": 102346194870227,
      "time_usec": 102346194870
    },
    {
      "frame_id": 391,
      "sensor_timestamp": 102346228116564,
      "time_usec": 102346228116
    },
    {
      "frame_id": 392,
      "sensor_timestamp": 102346261363147,
      "time_usec": 102346261363
    },
    {
      "frame_id": 393,
      "sensor_timestamp": 102346294609484,
      "time_usec": 102346294609
    },
    {
      "frame_id": 394,
      "sensor_timestamp": 102346327855822,
      "time_usec": 102346327855
    },
    {
      "frame_id": 395,
      "sensor_timestamp": 102346361102160,
      "time_usec": 102346361102
    },
    {
      "frame_id": 396,
      "sensor_timestamp": 102346394348742,
      "time_usec": 102346394348
    },
    {
      "frame_id": 397,
      "sensor_timestamp": 102346427595080,
      "time_usec": 102346427595
    },
    {
      "frame_id": 398,
      "sensor_timestamp": 102346460841418,
      "time_usec": 102346460841
    },
    {
      "frame_id": 399,
      "sensor_timestamp": 102346494087756,
      "time_usec": 102346494087
    },
    {
      "frame_id": 400,
      "sensor_timestamp": 102346527334338,
      "time_usec": 102346527334
    },
    {
      "frame_id": 401,
      "sensor_timestamp": 102346560580676,
      "time_usec": 102346560580
    },
    {
      "frame_id": 402,
      "sensor_timestamp": 102346593827014,
      "time_usec": 102346593827
    },
    {
      "frame_id": 403,
      "sensor_timestamp": 102346627073352,
      "time_usec": 102346627073
    },
    {
      "frame_id": 404,
      "sensor_timestamp": 102346660319934,
      "time_usec": 102346660319
    },
    {
      "frame_id": 405,
      "sensor_timestamp": 102346693566272,
      "time_usec": 102346693566
    },
    {
      "frame_id": 406,
      "sensor_timestamp": 102346726812609,
      "time_usec": 102346726812
    },
    {
      "frame_id": 407,
      "sensor_timestamp": 102346760058947,
      "time_usec": 102346760058
    },
    {
      "frame_id": 408,
      "sensor_timestamp": 102346793305529,
      "time_usec": 102346793305
    },
    {
      "frame_id": 409,
      "sensor_timestamp": 102346826551867,
      "time_usec": 102346826551
    },
    {
      "frame_id": 410,
      "sensor_timestamp": 102346859798205,
      "time_usec": 102346859798
    },
    {
      "frame_id": 411,
      "sensor_timestamp": 102346893044543,
      "time_usec": 102346893044
    },
    {
      "frame_id": 412,
      "sensor_timestamp": 102346926291125,
      "time_usec": 102346926291
    },
    {
      "frame_id": 413,
      "sensor_timestamp": 102346959537463,
      "time_usec": 102346959537
    },
    {
      "frame_id": 414,
      "sensor_timestamp": 102346992783801,
      "time_usec": 102346992783
    },
    {
      "frame_id": 415,
      "sensor_timestamp": 102347026030139,
      "time_usec": 102347026030
    },
    {
      "frame_id": 416,
      "sensor_timestamp": 102347059276721,
      "time_usec": 102347059276
    },
    {
      "frame_id": 417,
      "sensor_timestamp": 102347092523059,
      "time_usec": 102347092523
    },
    {
      "frame_id": 418,
      "sensor_timestamp": 102347125769397,
      "time_usec": 102347125769
    },
    {
      "frame_id": 419,
      "sensor_timestamp": 102347159015734,
      "time_usec": 102347159015
    },
    {
      "frame_id": 420,
      "sensor_timestamp": 102347192262316,
      "time_usec": 102347192262
    },
    {
      "frame_id": 421,
      "sensor_timestamp": 102347225508654,
      "time_usec": 102347225508
    },
    {
      "frame_id": 422,
      "sensor_timestamp": 102347258754992,
      "time_usec": 102347258754
    },
    {
      "frame_id": 423,
      "sensor_timestamp": 102347292001330,
      "time_usec": 102347292001
    },
    {
      "frame_id": 424,
      "sensor_timestamp": 102347325247668,
      "time_usec": 102347325247
    },
    {
      "frame_id": 425,
      "sensor_timestamp": 102347358494250,
      "time_usec": 102347358494
    },
    {
      "frame_id": 426,
      "sensor_timestamp": 102347391740588,
      "time_usec": 102347391740
    },
    {
      "frame_id": 427,
      "sensor_timestamp": 102347424986926,
      "time_usec": 102347424986
    },
    {
      "frame_id": 428,
      "sensor_timestamp": 102347458233264,
      "time_usec": 102347458233
    },
    {
      "frame_id": 429,
      "sensor_timestamp": 102347491479846,
      "time_usec": 102347491479
    },
    {
      "frame_id": 430,
      "sensor_timestamp": 102347524726184,
      "time_usec": 102347524726
    },
    {
      "frame_id": 431,
      "sensor_timestamp": 102347557972522,
      "time_usec": 102347557972
    },
    {
      "frame_id": 432,
      "sensor_timestamp": 102347591218859,
      "time_usec": 102347591218
    },
    {
      "frame_id": 433,
      "sensor_timestamp": 102347624465441,
      "time_usec": 102347624465
    },
    {
      "frame_id": 434,
      "sensor_timestamp": 102347657711779,
      "time_usec": 102347657711
    },
    {
      "frame_id": 435,
      "sensor_timestamp": 102347690958117,
      "time_usec": 102347690958
    },
    {
      "frame_id": 436,
      "sensor_timestamp": 102347724204455,
      "time_usec": 102347724204
    },
    {
      "frame_id": 437,
      "sensor_timestamp": 102347757451037,
      "time_usec": 102347757451
    },
    {
      "frame_id": 438,
      "sensor_timestamp": 102347790697375,
      "time_usec": 102347790697
    },
    {
      "frame_id": 439,
      "sensor_timestamp": 102347823943713,
      "time_usec": 102347823943
    },
    {
      "frame_id": 440,
      "sensor_timestamp": 102347857190051,
      "time_usec": 102347857190
    },
    {
      "frame_id": 441,
      "sensor_timestamp": 102347890436633,
      "time_usec": 102347890436
    },
    {
      "frame_id": 442,
      "sensor_timestamp": 102347923682971,
      "time_usec": 102347923682
    },
    {
      "frame_id": 443,
      "sensor_timestamp": 102347956929309,
      "time_usec": 102347956929
    },
    {
      "frame_id": 444,
      "sensor_timestamp": 102347990175647,
      "time_usec": 102347990175
    },
    {
      "frame_id": 445,
      "sensor_timestamp": 102348023422229,
      "time_usec": 102348023422
    },
    {
      "frame_id": 446,
      "sensor_timestamp": 102348056668566,
      "time_usec": 102348056668
    },
    {
      "frame_id": 447,
      "sensor_timestamp": 102348089914904,
      "time_usec": 102348089914
    },
    {
      "frame_id": 448,
      "sensor_timestamp": 102348123161242,
      "time_usec": 102348123161
    },
    {
      "frame_id": 449,
      "sensor_timestamp": 102348156407824,
      "time_usec": 102348156407
    },
    {
      "frame_id": 450,
      "sensor_timestamp": 102348189654162,
      "time_usec": 102348189654
    },
    {
      "frame_id": 451,
      "sensor_timestamp": 102348222900500,
      "time_usec": 102348222900
    },
    {
      "frame_id": 452,
      "sensor_timestamp": 102348256146838,
      "time_usec": 102348256146
    },
    {
      "frame_id": 453,
      "sensor_timestamp": 102348289393420,
      "time_usec": 102348289393
    },
    {
      "frame_id": 454,
      "sensor_timestamp": 102348322639758,
      "time_usec": 102348322639
    },
    {
      "frame_id": 455,
      "sensor_timestamp": 102348355886096,
      "time_usec": 102348355886
    },
    {
      "frame_id": 456,
      "sensor_timestamp": 102348389132434,
      "time_usec": 102348389132
    },
    {
      "frame_id": 457,
      "sensor_timestamp": 102348422379016,
      "time_usec": 102348422379
    },
    {
      "frame_id": 458,
      "sensor_timestamp": 102348455625354,
      "time_usec": 102348455625
    },
    {
      "frame_id": 459,
      "sensor_timestamp": 102348488871691,
      "time_usec": 102348488871
    },
    {
      "frame_id": 460,
      "sensor_timestamp": 102348522118029,
      "time_usec": 102348522118
    },
    {
      "frame_id": 461,
      "sensor_timestamp": 102348555364367,
      "time_usec": 102348555364
    },
    {
      "frame_id": 462,
      "sensor_timestamp": 102348588610949,
      "time_usec": 102348588610
    },
    {
      "frame_id": 463,
      "sensor_timestamp": 102348621857287,
      "time_usec": 102348621857
    },
    {
      "frame_id": 464,
      "sensor_timestamp": 102348655103625,
      "time_usec": 102348655103
    },
    {
      "frame_id": 465,
      "sensor_timestamp": 102348688349963,
      "time_usec": 102348688349
    },
    {
      "frame_id": 466,
      "sensor_timestamp": 102348721596545,
      "time_usec": 102348721596
    },
    {
      "frame_id": 467,
      "sensor_timestamp": 102348754842883,
      "time_usec": 102348754842
    },
    {
      "frame_id": 468,
      "sensor_timestamp": 102348788089221,
      "time_usec": 102348788089
    },
    {
      "frame_id": 469,
      "sensor_timestamp": 102348821335559,
      "time_usec": 102348821335
    },
    {
      "frame_id": 470,
      "sensor_timestamp": 102348854582141,
      "time_usec": 102348854582
    },
    {
      "frame_id": 471,
      "sensor_timestamp": 102348887828479,
      "time_usec": 102348887828
    },
    {
      "frame_id": 472,
      "sensor_timestamp": 102348921074816,
      "time_usec": 102348921074
    },
    {
      "frame_id": 473,
      "sensor_timestamp": 102348954321154,
      "time_usec": 102348954321
    },
    {
      "frame_id": 474,
      "sensor_timestamp": 102348987567736,
      "time_usec": 102348987567
    },
    {
      "frame_id": 475,
      "sensor_timestamp": 102349020814074,
      "time_usec": 102349020814
    },
    {
      "frame_id": 476,
      "sensor_timestamp": 102349054060412,
      "time_usec": 102349054060
    },
    {
      "frame_id": 477,
      "sensor_timestamp": 102349087306750,
      "time_usec": 102349087306
    },
    {
      "frame_id": 478,
      "sensor_timestamp": 102349120553332,
      "time_usec": 102349120553
    },
    {
      "frame_id": 479,
      "sensor_timestamp": 102349153799670,
      "time_usec": 102349153799
    },
    {
      "frame_id": 480,
      "sensor_timestamp": 102349187046008,
      "time_usec": 102349187046
    },
    {
      "frame_id": 481,
      "sensor_timestamp": 102349220292346,
      "time_usec": 102349220292
    },
    {
      "frame_id": 482,
      "sensor_timestamp": 102349253538928,
      "time_usec": 102349253538
    },
    {
      "frame_id": 483,
      "sensor_timestamp": 102349286785266,
      "time_usec": 102349286785
    },
    {
      "frame_id": 484,
      "sensor_timestamp": 102349320031604,
      "time_usec": 102349320031
    },
    {
      "frame_id": 485,
      "sensor_timestamp": 102349353277941,
      "time_usec": 102349353277
    },
    {
      "frame_id": 486,
      "sensor_timestamp": 102349386524523,
      "time_usec": 102349386524
    },
    {
      "frame_id": 487,
      "sensor_timestamp": 102349419770861,
      "time_usec": 102349419770
    },
    {
      "frame_id": 488,
      "sensor_timestamp": 102349453017199,
      "time_usec": 102349453017
    },
    {
      "frame_id": 489,
      "sensor_timestamp": 102349486263537,
      "time_usec": 102349486263
    },
    {
      "frame_id": 490,
      "sensor_timestamp": 102349519510119,
      "time_usec": 102349519510
    },
    {
      "frame_id": 491,
      "sensor_timestamp": 102349552756457,
      "time_usec": 102349552756
    },
    {
      "frame_id": 492,
      "sensor_timestamp": 102349586002795,
      "time_usec": 102349586002
    },
    {
      "frame_id": 493,
      "sensor_timestamp": 102349619249133,
      "time_usec": 102349619249
    },
    {
      "frame_id": 494,
      "sensor_timestamp": 102349652495715,
      "time_usec": 102349652495
    },
    {
      "frame_id": 495,
      "sensor_timestamp": 102349685742053,
      "time_usec": 102349685742
    },
    {
      "frame_id": 496,
      "sensor_timestamp": 102349718988391,
      "time_usec": 102349718988
    },
    {
      "frame_id": 497,
      "sensor_timestamp": 102349752234729,
      "time_usec": 102349752234
    },
    {
      "frame_id": 498,
      "sensor_timestamp": 102349785481066,
      "time_usec": 102349785481
    },
    {
      "frame_id": 499,
      "sensor_timestamp": 102349818727648,
      "time_usec": 102349818727
    },
    {
      "frame_id": 500,
      "sensor_timestamp": 102349851973986,
      "time_usec": 102349851973
    },
    {
      "frame_id": 501,
      "sensor_timestamp": 102349885220324,
      "time_usec": 102349885220
    },
    {
      "frame_id": 502,
      "sensor_timestamp": 102349918466662,
      "time_usec": 102349918466
    },
    {
      "frame_id": 503,
      "sensor_timestamp": 102349951713244,
      "time_usec": 102349951713
    },
    {
      "frame_id": 504,
      "sensor_timestamp": 102349984959582,
      "time_usec": 102349984959
    },
    {
      "frame_id": 505,
      "sensor_timestamp": 102350018205920,
      "time_usec": 102350018205
    },
    {
      "frame_id": 506,
      "sensor_timestamp": 102350051452258,
      "time_usec": 102350051452
    },
    {
      "frame_id": 507,
      "sensor_timestamp": 102350084698840,
      "time_usec": 102350084698
    },
    {
      "frame_id": 508,
      "sensor_timestamp": 102350117945178,
      "time_usec": 102350117945
    },
    {
      "frame_id": 509,
      "sensor_timestamp": 102350151191516,
      "time_usec": 102350151191
    },
    {
      "frame_id": 510,
      "sensor_timestamp": 102350184437854,
      "time_usec": 102350184437
    },
    {
      "frame_id": 511,
      "sensor_timestamp": 102350217684436,
      "time_usec": 102350217684
    },
    {
      "frame_id": 512,
      "sensor_timestamp": 102350250930773,
      "time_usec": 102350250930
    },
    {
      "frame_id": 513,
      "sensor_timestamp": 102350284177111,
      "time_usec": 102350284177
    },
    {
      "frame_id": 514,
      "sensor_timestamp": 102350317423449,
      "time_usec": 102350317423
    },
    {
      "frame_id": 515,
      "sensor_timestamp": 102350350670031,
      "time_usec": 102350350670
    },
    {
      "frame_id": 516,
      "sensor_timestamp": 102350383916369,
      "time_usec": 102350383916
    },
    {
      "frame_id": 517,
      "sensor_timestamp": 102350417162707,
      "time_usec": 102350417162
    },
    {
      "frame_id": 518,
      "sensor_timestamp": 102350450409045,
      "time_usec": 102350450409
    },
    {
      "frame_id": 519,
      "sensor_timestamp": 102350483655627,
      "time_usec": 102350483655
    },
    {
      "frame_id": 520,
      "sensor_timestamp": 102350516901965,
      "time_usec": 102350516901
    },
    {
      "frame_id": 521,
      "sensor_timestamp": 102350550148303,
      "time_usec": 102350550148
    },
    {
      "frame_id": 522,
      "sensor_timestamp": 102350583394641,
      "time_usec": 102350583394
    },
    {
      "frame_id": 523,
      "sensor_timestamp": 102350616641223,
      "time_usec": 102350616641
    },
    {
      "frame_id": 524,
      "sensor_timestamp": 102350649887561,
      "time_usec": 102350649887
    },
    {
      "frame_id": 525,
      "sensor_timestamp": 102350683133898,
      "time_usec": 102350683133
    },
    {
      "frame_id": 526,
      "sensor_timestamp": 102350716380236,
      "time_usec": 102350716380
    },
    {
      "frame_id": 527,
      "sensor_timestamp": 102350749626818,
      "time_usec": 102350749626
    },
    {
      "frame_id": 528,
      "sensor_timestamp": 102350782873156,
      "time_usec": 102350782873
    },
    {
      "frame_id": 529,
      "sensor_timestamp": 102350816119494,
      "time_usec": 102350816119
    },
    {
      "frame_id": 530,
      "sensor_timestamp": 102350849365832,
      "time_usec": 102350849365
    },
    {
      "frame_id": 531,
      "sensor_timestamp": 102350882612414,
      "time_usec": 102350882612
    },
    {
      "frame_id": 532,
      "sensor_timestamp": 102350915858752,
      "time_usec": 102350915858
    },
    {
      "frame_id": 533,
      "sensor_timestamp": 102350949105090,
      "time_usec": 102350949105
    },
    {
      "frame_id": 534,
      "sensor_timestamp": 102350982351428,
      "time_usec": 102350982351
    },
    {
      "frame_id": 535,
      "sensor_timestamp": 102351015597766,
      "time_usec": 102351015597
    },
    {
      "frame_id": 536,
      "sensor_timestamp": 102351048844348,
      "time_usec": 102351048844
    },
    {
      "frame_id": 537,
      "sensor_timestamp": 102351082090686,
      "time_usec": 102351082090
    },
    {
      "frame_id": 538,
      "sensor_timestamp": 102351115337023,
      "time_usec": 102351115337
    },
    {
      "frame_id": 539,
      "sensor_timestamp": 102351148583361,
      "time_usec": 102351148583
    },
    {
      "frame_id": 540,
      "sensor_timestamp": 102351181829943,
      "time_usec": 102351181829
    },
    {
      "frame_id": 541,
