{
  "rotations": [
    {
      "x": -0.01725694350898266,
      "y": -0.05115996301174164,
      "z": -0.00809396430850029,
      "time_usec": 151612505069
    },
    {
      "x": -0.010995574295520782,
      "y": -0.048716504126787186,
      "z": -0.005650503560900688,
      "time_usec": 151612507326
    },
    {
      "x": -0.00733038317412138,
      "y": -0.04642575979232788,
      "z": -0.00931569468230009,
      "time_usec": 151612509584
    },
    {
      "x": -0.003512475173920393,
      "y": -0.039248090237379074,
      "z": -0.003054326167330146,
      "time_usec": 151612511841
    },
    {
      "x": -0.003512475173920393,
      "y": -0.03084869496524334,
      "z": -0.001832595793530345,
      "time_usec": 151612514099
    },
    {
      "x": -0.003359758760780096,
      "y": -0.022449297830462456,
      "z": 6.108652451075613E-4,
      "time_usec": 151612516356
    },
    {
      "x": -0.005955935921519995,
      "y": -0.017409659922122955,
      "z": 0.009162978269159794,
      "time_usec": 151612518613
    },
    {
      "x": -0.01191187184303999,
      "y": -0.005345070734620094,
      "z": 0.01160643994808197,
      "time_usec": 151612520870
    },
    {
      "x": -0.015577063895761967,
      "y": 0.0019853119738399982,
      "z": 0.016493361443281174,
      "time_usec": 151612523128
    },
    {
      "x": -0.01924225501716137,
      "y": 0.01038470957428217,
      "z": 0.018936822190880775,
      "time_usec": 151612525382
    },
    {
      "x": -0.02672535367310047,
      "y": 0.017867809161543846,
      "z": 0.02626720629632473,
      "time_usec": 151612527633
    },
    {
      "x": -0.03039054572582245,
      "y": 0.02626720629632473,
      "z": 0.03237585723400116,
      "time_usec": 151612529897
    },
    {
      "x": -0.03649919852614403,
      "y": 0.033597588539123535,
      "z": 0.03481931984424591,
      "time_usec": 151612532143
    },
    {
      "x": -0.0377209298312664,
      "y": 0.036041051149368286,
      "z": 0.04230241850018501,
      "time_usec": 151612534401
    },
    {
      "x": -0.04382958263158798,
      "y": 0.04459316283464432,
      "z": 0.04337143152952194,
      "time_usec": 151612536657
    },
    {
      "x": -0.04749477282166481,
      "y": 0.04948008432984352,
      "z": 0.04337143152952194,
      "time_usec": 151612538916
    },
    {
      "x": -0.05115996301174164,
      "y": 0.0507018156349659,
      "z": 0.04703662544488907,
      "time_usec": 151612541175
    },
    {
      "x": -0.05375614017248154,
      "y": 0.05192354694008827,
      "z": 0.048258353024721146,
      "time_usec": 151612543431
    },
    {
      "x": -0.05497787147760391,
      "y": 0.0507018156349659,
      "z": 0.04459316283464432,
      "time_usec": 151612545692
    },
    {
      "x": -0.05375614017248154,
      "y": 0.0507018156349659,
      "z": 0.048258353024721146,
      "time_usec": 151612547961
    },
    {
      "x": -0.054825156927108765,
      "y": 0.0555887371301651,
      "z": 0.048258353024721146,
      "time_usec": 151612550214
    },
    {
      "x": -0.05360342562198639,
      "y": 0.054367005825042725,
      "z": 0.04948008432984352,
      "time_usec": 151612552464
    },
    {
      "x": -0.05360342562198639,
      "y": 0.054367005825042725,
      "z": 0.04337143152952194,
      "time_usec": 151612554728
    },
    {
      "x": -0.048716504126787186,
      "y": 0.05421429127454758,
      "z": 0.04214970022439957,
      "time_usec": 151612556976
    },
    {
      "x": -0.04749477282166481,
      "y": 0.04948008432984352,
      "z": 0.04092797264456749,
      "time_usec": 151612559249
    },
    {
      "x": -0.04382958263158798,
      "y": 0.048105638474226,
      "z": 0.036041051149368286,
      "time_usec": 151612561503
    },
    {
      "x": -0.03878994286060333,
      "y": 0.04444044828414917,
      "z": 0.033597588539123535,
      "time_usec": 151612563763
    },
    {
      "x": -0.03756821155548096,
      "y": 0.04444044828414917,
      "z": 0.027488935738801956,
      "time_usec": 151612566005
    },
    {
      "x": -0.03756821155548096,
      "y": 0.04199698567390442,
      "z": 0.02626720629632473,
      "time_usec": 151612568273
    },
    {
      "x": -0.035124752670526505,
      "y": 0.04077525436878204,
      "z": 0.021380282938480377,
      "time_usec": 151612570519
    },
    {
      "x": -0.035124752670526505,
      "y": 0.037110064178705215,
      "z": 0.01771509274840355,
      "time_usec": 151612572792
    },
    {
      "x": -0.03390302136540413,
      "y": 0.037110064178705215,
      "z": 0.015271631069481373,
      "time_usec": 151612575042
    },
    {
      "x": -0.032681290060281754,
      "y": 0.040622539818286896,
      "z": 0.01160643994808197,
      "time_usec": 151612577308
    },
    {
      "x": -0.03145955875515938,
      "y": 0.038179077208042145,
      "z": 0.009162978269159794,
      "time_usec": 151612579562
    },
    {
      "x": -0.030085112899541855,
      "y": 0.038179077208042145,
      "z": 0.007941247895359993,
      "time_usec": 151612581820
    },
    {
      "x": -0.02886338345706463,
      "y": 0.038179077208042145,
      "z": 0.003054326167330146,
      "time_usec": 151612584077
    },
    {
      "x": -0.027641652151942253,
      "y": 0.032070424407720566,
      "z": -6.108652451075613E-4,
      "time_usec": 151612586335
    },
    {
      "x": -0.030085112899541855,
      "y": 0.032070424407720566,
      "z": -6.108652451075613E-4,
      "time_usec": 151612588591
    },
    {
      "x": -0.029016099870204926,
      "y": 0.029626963660120964,
      "z": -0.001832595793530345,
      "time_usec": 151612590849
    },
    {
      "x": -0.02519819140434265,
      "y": 0.023518312722444534,
      "z": -0.005497787147760391,
      "time_usec": 151612593106
    },
    {
      "x": -0.023976460099220276,
      "y": 0.019853120669722557,
      "z": -0.011759156361222267,
      "time_usec": 151612595363
    },
    {
      "x": -0.021532999351620674,
      "y": 0.015118914656341076,
      "z": -0.011759156361222267,
      "time_usec": 151612597621
    },
    {
      "x": -0.019089538604021072,
      "y": 0.011453723534941673,
      "z": -0.01664607785642147,
      "time_usec": 151612599877
    },
    {
      "x": -0.01664607785642147,
      "y": 0.004123340360820293,
      "z": -0.019089538604021072,
      "time_usec": 151612602131
    },
    {
      "x": -0.015577063895761967,
      "y": -0.00427605677396059,
      "z": -0.020311269909143448,
      "time_usec": 151612604394
    },
    {
      "x": -0.013133603148162365,
      "y": -0.009162978269159794,
      "z": -0.02275473065674305,
      "time_usec": 151612606651
    },
    {
      "x": -0.008246680721640587,
      "y": -0.015271631069481373,
      "z": -0.023976460099220276,
      "time_usec": 151612608908
    },
    {
      "x": -0.007024950347840786,
      "y": -0.024892758578062057,
      "z": -0.023976460099220276,
      "time_usec": 151612611156
    },
    {
      "x": -0.008246680721640587,
      "y": -0.02733621932566166,
      "z": -0.02519819140434265,
      "time_usec": 151612613423
    },
    {
      "x": -0.008246680721640587,
      "y": -0.02977968007326126,
      "z": -0.02519819140434265,
      "time_usec": 151612615680
    },
    {
      "x": -0.007177666760981083,
      "y": -0.03329215571284294,
      "z": -0.023976460099220276,
      "time_usec": 151612617938
    },
    {
      "x": -0.004734205547720194,
      "y": -0.03695734590291977,
      "z": -0.02275473065674305,
      "time_usec": 151612620190
    },
    {
      "x": -0.008399397134780884,
      "y": -0.03680463135242462,
      "z": -0.017867809161543846,
      "time_usec": 151612622449
    },
    {
      "x": -0.008399397134780884,
      "y": -0.0429132841527462,
      "z": -0.01664607785642147,
      "time_usec": 151612624707
    },
    {
      "x": -0.007177666760981083,
      "y": -0.044135015457868576,
      "z": -0.012980886735022068,
      "time_usec": 151612626957
    },
    {
      "x": -0.012217304669320583,
      "y": -0.045204028487205505,
      "z": -0.012980886735022068,
      "time_usec": 151612629223
    },
    {
      "x": -0.01466076634824276,
      "y": -0.04398229718208313,
      "z": -0.010537425056099892,
      "time_usec": 151612631475
    },
    {
      "x": -0.018325956538319588,
      "y": -0.04505131021142006,
      "z": -0.00809396430850029,
      "time_usec": 151612633738
    },
    {
      "x": -0.023365596309304237,
      "y": -0.04505131021142006,
      "z": -0.00931569468230009,
      "time_usec": 151612635996
    },
    {
      "x": -0.02580905705690384,
      "y": -0.04505131021142006,
      "z": -0.006872233934700489,
      "time_usec": 151612638255
    },
    {
      "x": -0.030695978552103043,
      "y": -0.04138612002134323,
      "z": -0.008246680721640587,
      "time_usec": 151612640511
    },
    {
      "x": -0.03695734590291977,
      "y": -0.03756821155548096,
      "z": -0.005803219974040985,
      "time_usec": 151612642763
    },
    {
      "x": -0.04306599870324135,
      "y": -0.03634648025035858,
      "z": -0.005803219974040985,
      "time_usec": 151612645025
    },
    {
      "x": -0.046731192618608475,
      "y": -0.030237829312682152,
      "z": -0.003359758760780096,
      "time_usec": 151612647282
    },
    {
      "x": -0.0529925599694252,
      "y": -0.030085112899541855,
      "z": 0.001527163083665073,
      "time_usec": 151612649540
    },
    {
      "x": -0.057879481464624405,
      "y": -0.027641652151942253,
      "z": 0.0027488935738801956,
      "time_usec": 151612651792
    },
    {
      "x": -0.060322944074869156,
      "y": -0.02275473065674305,
      "z": 0.007635815534740686,
      "time_usec": 151612654055
    },
    {
      "x": -0.06902777403593063,
      "y": -0.020311269909143448,
      "z": 0.010079276748001575,
      "time_usec": 151612656313
    },
    {
      "x": -0.07513642311096191,
      "y": -0.011759156361222267,
      "z": 0.011301007121801376,
      "time_usec": 151612658571
    },
    {
      "x": -0.07620543986558914,
      "y": -0.005650503560900688,
      "z": 0.011301007121801376,
      "time_usec": 151612660819
    },
    {
      "x": -0.08109235763549805,
      "y": 0.001527163083665073,
      "z": 0.01618792861700058,
      "time_usec": 151612663072
    },
    {
      "x": -0.08475755155086517,
      "y": 0.008857546374201775,
      "z": 0.013744467869400978,
      "time_usec": 151612665341
    },
    {
      "x": -0.08597928285598755,
      "y": 0.014813481830060482,
      "z": 0.013744467869400978,
      "time_usec": 151612667597
    },
    {
      "x": -0.09086620807647705,
      "y": 0.01618792861700058,
      "z": 0.017409659922122955,
      "time_usec": 151612669846
    },
    {
      "x": -0.09208793938159943,
      "y": 0.020922135561704636,
      "z": 0.017409659922122955,
      "time_usec": 151612672109
    },
    {
      "x": -0.08964447677135468,
      "y": 0.01970040425658226,
      "z": 0.017409659922122955,
      "time_usec": 151612674372
    },
    {
      "x": -0.08964447677135468,
      "y": 0.017409659922122955,
      "z": 0.01618792861700058,
      "time_usec": 151612676633
    },
    {
      "x": -0.09086620807647705,
      "y": 0.014966198243200779,
      "z": 0.013591751456260681,
      "time_usec": 151612678886
    },
    {
      "x": -0.08964447677135468,
      "y": 0.013744467869400978,
      "z": 0.01114829070866108,
      "time_usec": 151612681139
    },
    {
      "x": -0.0884227454662323,
      "y": 0.008857546374201775,
      "z": 0.0074830991216003895,
      "time_usec": 151612683401
    },
    {
      "x": -0.0861319974064827,
      "y": 3.054326225537807E-4,
      "z": 0.005039638374000788,
      "time_usec": 151612685658
    },
    {
      "x": -0.08368854224681854,
      "y": -0.005650503560900688,
      "z": 0.0025961773935705423,
      "time_usec": 151612687916
    },
    {
      "x": -0.08124507963657379,
      "y": -0.016493361443281174,
      "z": 1.5271631127689034E-4,
      "time_usec": 151612690168
    },
    {
      "x": -0.07635815441608429,
      "y": -0.02382374368607998,
      "z": -0.0022907445672899485,
      "time_usec": 151612692426
    },
    {
      "x": -0.08017606288194656,
      "y": -0.03222314268350601,
      "z": -0.0010690141934901476,
      "time_usec": 151612694689
    },
    {
      "x": -0.07895433157682419,
      "y": -0.037110064178705215,
      "z": -0.005955935921519995,
      "time_usec": 151612696943
    },
    {
      "x": -0.07895433157682419,
      "y": -0.046731192618608475,
      "z": -0.0022907445672899485,
      "time_usec": 151612699190
    },
    {
      "x": -0.07895433157682419,
      "y": -0.0503963828086853,
      "z": -0.00855211354792118,
      "time_usec": 151612701456
    },
    {
      "x": -0.08155050873756409,
      "y": -0.056352317333221436,
      "z": -0.00855211354792118,
      "time_usec": 151612703718
    },
    {
      "x": -0.08277224004268646,
      "y": -0.06108652427792549,
      "z": -0.00733038317412138,
      "time_usec": 151612705978
    },
    {
      "x": -0.08032877743244171,
      "y": -0.059864792972803116,
      "z": -0.004886921960860491,
      "time_usec": 151612708233
    },
    {
      "x": -0.08536841720342636,
      "y": -0.0682641938328743,
      "z": -0.00733038317412138,
      "time_usec": 151612710487
    },
    {
      "x": -0.08781187981367111,
      "y": -0.06459899991750717,
      "z": -0.004886921960860491,
      "time_usec": 151612712738
    },
    {
      "x": -0.09025534242391586,
      "y": -0.06704246252775192,
      "z": -0.00366519158706069,
      "time_usec": 151612715004
    },
    {
      "x": -0.09407325088977814,
      "y": -0.0705549344420433,
      "z": -0.0024434609804302454,
      "time_usec": 151612717261
    },
    {
      "x": -0.09407325088977814,
      "y": -0.0705549344420433,
      "z": 0.0,
      "time_usec": 151612719520
    },
    {
      "x": -0.09529497474431992,
      "y": -0.06811147183179855,
      "z": 0.0,
      "time_usec": 151612721771
    },
    {
      "x": -0.09773843735456467,
      "y": -0.06811147183179855,
      "z": 0.0,
      "time_usec": 151612724033
    },
    {
      "x": -0.09651670604944229,
      "y": -0.06811147183179855,
      "z": 0.0,
      "time_usec": 151612726290
    },
    {
      "x": -0.09896016865968704,
      "y": -0.06811147183179855,
      "z": 0.0,
      "time_usec": 151612728547
    },
    {
      "x": -0.10384709388017654,
      "y": -0.06551529467105865,
      "z": 0.0,
      "time_usec": 151612730794
    },
    {
      "x": -0.10506882518529892,
      "y": -0.06429356336593628,
      "z": 0.0012217304902151227,
      "time_usec": 151612733059
    },
    {
      "x": -0.10766500234603882,
      "y": -0.0679587572813034,
      "z": 0.0010690141934901476,
      "time_usec": 151612735320
    },
    {
      "x": -0.1088867336511612,
      "y": -0.0679587572813034,
      "z": -1.5271631127689034E-4,
      "time_usec": 151612737581
    },
    {
      "x": -0.11499538272619247,
      "y": -0.06780604273080826,
      "z": 0.0022907445672899485,
      "time_usec": 151612739835
    },
    {
      "x": -0.11621711403131485,
      "y": -0.06780604273080826,
      "z": 0.0022907445672899485,
      "time_usec": 151612742088
    },
    {
      "x": -0.11636982858181,
      "y": -0.06780604273080826,
      "z": 0.003512475173920393,
      "time_usec": 151612744350
    },
    {
      "x": -0.11759155988693237,
      "y": -0.06780604273080826,
      "z": 0.004734205547720194,
      "time_usec": 151612746608
    },
    {
      "x": -0.12247848510742188,
      "y": -0.06765332818031311,
      "z": 0.003512475173920393,
      "time_usec": 151612748866
    },
    {
      "x": -0.12247848510742188,
      "y": -0.06887505948543549,
      "z": 0.003512475173920393,
      "time_usec": 151612751117
    },
    {
      "x": -0.12492194026708603,
      "y": -0.07254024595022202,
      "z": 0.004734205547720194,
      "time_usec": 151612753380
    },
    {
      "x": -0.12858712673187256,
      "y": -0.06643159687519073,
      "z": 0.004734205547720194,
      "time_usec": 151612755637
    },
    {
      "x": -0.13118331134319305,
      "y": -0.06765332818031311,
      "z": 0.0022907445672899485,
      "time_usec": 151612757895
    },
    {
      "x": -0.12980885803699493,
      "y": -0.06520986557006836,
      "z": 0.005955935921519995,
      "time_usec": 151612760149
    },
    {
      "x": -0.13347405195236206,
      "y": -0.060322944074869156,
      "z": 0.003512475173920393,
      "time_usec": 151612762403
    },
    {
      "x": -0.13347405195236206,
      "y": -0.057879481464624405,
      "z": 0.003512475173920393,
      "time_usec": 151612764666
    },
    {
      "x": -0.13347405195236206,
      "y": -0.05192354694008827,
      "z": 0.005955935921519995,
      "time_usec": 151612766925
    },
    {
      "x": -0.13347405195236206,
      "y": -0.044745877385139465,
      "z": 0.007177666760981083,
      "time_usec": 151612769181
    },
    {
      "x": -0.12965615093708038,
      "y": -0.035124752670526505,
      "z": 0.007177666760981083,
      "time_usec": 151612771433
    },
    {
      "x": -0.128434419631958,
      "y": -0.03390302136540413,
      "z": 0.007177666760981083,
      "time_usec": 151612773692
    },
    {
      "x": -0.12828169763088226,
      "y": -0.02672535367310047,
      "z": 0.007177666760981083,
      "time_usec": 151612775940
    },
    {
      "x": -0.12339477986097336,
      "y": -0.018325956538319588,
      "z": 0.006108652334660292,
      "time_usec": 151612778211
    },
    {
      "x": -0.12202033400535583,
      "y": -0.013591751456260681,
      "z": 0.004886921960860491,
      "time_usec": 151612780463
    },
    {
      "x": -0.11957687139511108,
      "y": -0.008857546374201775,
      "z": 0.006108652334660292,
      "time_usec": 151612782725
    },
    {
      "x": -0.11698069423437119,
      "y": -4.5814894838258624E-4,
      "z": 0.00855211354792118,
      "time_usec": 151612784983
    },
    {
      "x": -0.10949759185314178,
      "y": 0.00427605677396059,
      "z": 0.006108652334660292,
      "time_usec": 151612787239
    },
    {
      "x": -0.11071932315826416,
      "y": 0.009162978269159794,
      "z": 0.004886921960860491,
      "time_usec": 151612789488
    },
    {
      "x": -0.10705413669347763,
      "y": 0.012675453908741474,
      "z": 0.005039638374000788,
      "time_usec": 151612791753
    },
    {
      "x": -0.09957103431224823,
      "y": 0.009010262787342072,
      "z": 0.005039638374000788,
      "time_usec": 151612794012
    },
    {
      "x": -0.09834930300712585,
      "y": 0.008857546374201775,
      "z": 0.0013744467869400978,
      "time_usec": 151612796272
    },
    {
      "x": -0.09224065393209457,
      "y": 0.0064140851609408855,
      "z": 0.0013744467869400978,
      "time_usec": 151612798527
    },
    {
      "x": -0.08857546001672745,
      "y": 0.001527163083665073,
      "z": 0.0013744467869400978,
      "time_usec": 151612800778
    },
    {
      "x": -0.0861319974064827,
      "y": -0.002138028386980295,
      "z": -0.0022907445672899485,
      "time_usec": 151612803036
    },
    {
      "x": -0.07987063378095627,
      "y": -9.162978967651725E-4,
      "z": -0.007177666760981083,
      "time_usec": 151612805285
    },
    {
      "x": -0.07987063378095627,
      "y": -0.007024950347840786,
      "z": -0.005955935921519995,
      "time_usec": 151612807557
    },
    {
      "x": -0.07376197725534439,
      "y": -0.007024950347840786,
      "z": -0.007177666760981083,
      "time_usec": 151612809812
    },
    {
      "x": -0.06627888232469559,
      "y": -0.009621127508580685,
      "z": -0.007024950347840786,
      "time_usec": 151612812069
    },
    {
      "x": -0.06505715101957321,
      "y": -0.004734205547720194,
      "z": -0.009468411095440388,
      "time_usec": 151612814328
    },
    {
      "x": -0.05757404863834381,
      "y": -0.004886921960860491,
      "z": -0.01191187184303999,
      "time_usec": 151612816582
    },
    {
      "x": -0.056352317333221436,
      "y": -0.00733038317412138,
      "z": -0.01191187184303999,
      "time_usec": 151612818830
    },
    {
      "x": -0.05146539583802223,
      "y": -0.005039638374000788,
      "z": -0.015577063895761967,
      "time_usec": 151612821096
    },
    {
      "x": -0.045204028487205505,
      "y": -0.0074830991216003895,
      "z": -0.015577063895761967,
      "time_usec": 151612823358
    },
    {
      "x": -0.04153883829712868,
      "y": -0.0039706239476799965,
      "z": -0.015577063895761967,
      "time_usec": 151612825619
    },
    {
      "x": -0.036651913076639175,
      "y": -0.008857546374201775,
      "z": -0.01924225501716137,
      "time_usec": 151612827874
    },
    {
      "x": -0.031612277030944824,
      "y": -0.009010262787342072,
      "z": -0.021532999351620674,
      "time_usec": 151612830128
    },
    {
      "x": -0.027947084978222847,
      "y": -0.004123340360820293,
      "z": -0.02275473065674305,
      "time_usec": 151612832382
    },
    {
      "x": -0.02168571576476097,
      "y": -0.006719517521560192,
      "z": -0.02519819140434265,
      "time_usec": 151612834644
    },
    {
      "x": -0.018020525574684143,
      "y": -0.006719517521560192,
      "z": -0.02886338345706463,
      "time_usec": 151612836902
    },
    {
      "x": -0.013133603148162365,
      "y": -0.01038470957428217,
      "z": -0.02886338345706463,
      "time_usec": 151612839161
    },
    {
      "x": -0.00809396430850029,
      "y": -0.010537425056099892,
      "z": -0.03497203439474106,
      "time_usec": 151612841413
    },
    {
      "x": -0.0032070425804704428,
      "y": -0.011759156361222267,
      "z": -0.036193765699863434,
      "time_usec": 151612843674
    },
    {
      "x": -0.003054326167330146,
      "y": -0.007024950347840786,
      "z": -0.03985895588994026,
      "time_usec": 151612845931
    },
    {
      "x": 6.108652451075613E-4,
      "y": -0.01191187184303999,
      "z": -0.03985895588994026,
      "time_usec": 151612848188
    },
    {
      "x": -7.635815418325365E-4,
      "y": -0.01542434748262167,
      "z": -0.03741549700498581,
      "time_usec": 151612850440
    },
    {
      "x": 0.003054326167330146,
      "y": -0.013133603148162365,
      "z": -0.04352414980530739,
      "time_usec": 151612852698
    },
    {
      "x": -6.108652451075613E-4,
      "y": -0.010690141469240189,
      "z": -0.04963280260562897,
      "time_usec": 151612854961
    },
    {
      "x": -6.108652451075613E-4,
      "y": -0.01191187184303999,
      "z": -0.04841107130050659,
      "time_usec": 151612857219
    },
    {
      "x": -0.0032070425804704428,
      "y": -0.015577063895761967,
      "z": -0.04841107130050659,
      "time_usec": 151612859470
    },
    {
      "x": -0.005650503560900688,
      "y": -0.017867809161543846,
      "z": -0.04841107130050659,
      "time_usec": 151612861731
    },
    {
      "x": -0.005650503560900688,
      "y": -0.020311269909143448,
      "z": -0.04963280260562897,
      "time_usec": 151612863990
    },
    {
      "x": -0.00809396430850029,
      "y": -0.020311269909143448,
      "z": -0.04596760869026184,
      "time_usec": 151612866249
    },
    {
      "x": -0.009468411095440388,
      "y": -0.021380282938480377,
      "z": -0.04596760869026184,
      "time_usec": 151612868504
    },
    {
      "x": -0.013133603148162365,
      "y": -0.02382374368607998,
      "z": -0.04245513305068016,
      "time_usec": 151612870754
    },
    {
      "x": -0.01817324012517929,
      "y": -0.026114489883184433,
      "z": -0.04245513305068016,
      "time_usec": 151612873016
    },
    {
      "x": -0.019394971430301666,
      "y": -0.02977968007326126,
      "z": -0.04489859566092491,
      "time_usec": 151612875273
    },
    {
      "x": -0.016951510682702065,
      "y": -0.031001411378383636,
      "z": -0.04734205827116966,
      "time_usec": 151612877529
    },
    {
      "x": -0.019394971430301666,
      "y": -0.03329215571284294,
      "z": -0.04734205827116966,
      "time_usec": 151612879790
    },
    {
      "x": -0.023060163483023643,
      "y": -0.03680463135242462,
      "z": -0.04489859566092491,
      "time_usec": 151612882043
    },
    {
      "x": -0.02672535367310047,
      "y": -0.032070424407720566,
      "z": -0.04734205827116966,
      "time_usec": 151612884305
    },
    {
      "x": -0.029168816283345222,
      "y": -0.03084869496524334,
      "z": -0.04734205827116966,
      "time_usec": 151612886551
    },
    {
      "x": -0.02672535367310047,
      "y": -0.029626963660120964,
      "z": -0.04612032696604729,
      "time_usec": 151612888821
    },
    {
      "x": -0.03039054572582245,
      "y": -0.02122756652534008,
      "z": -0.04612032696604729,
      "time_usec": 151612891074
    },
    {
      "x": -0.03527746722102165,
      "y": -0.015118914656341076,
      "z": -0.04245513305068016,
      "time_usec": 151612893340
    },
    {
      "x": -0.03649919852614403,
      "y": -0.009010262787342072,
      "z": -0.03756821155548096,
      "time_usec": 151612895594
    },
    {
      "x": -0.0377209298312664,
      "y": -0.0065668015740811825,
      "z": -0.035124752670526505,
      "time_usec": 151612897853
    },
    {
      "x": -0.03527746722102165,
      "y": -0.0029016099870204926,
      "z": -0.03390302136540413,
      "time_usec": 151612900107
    },
    {
      "x": -0.03649919852614403,
      "y": 0.003054326167330146,
      "z": -0.030237829312682152,
      "time_usec": 151612902360
    },
    {
      "x": -0.03649919852614403,
      "y": 0.001832595793530345,
      "z": -0.030237829312682152,
      "time_usec": 151612904623
    },
    {
      "x": -0.032681290060281754,
      "y": 0.007941247895359993,
      "z": -0.029016099870204926,
      "time_usec": 151612906877
    },
    {
      "x": -0.03145955875515938,
      "y": 0.007788531947880983,
      "z": -0.02886338345706463,
      "time_usec": 151612909125
    },
    {
      "x": -0.029016099870204926,
      "y": 0.007788531947880983,
      "z": -0.03375030308961868,
      "time_usec": 151612911391
    },
    {
      "x": -0.026572637259960175,
      "y": 0.009010262787342072,
      "z": -0.032528575509786606,
      "time_usec": 151612913653
    },
    {
      "x": -0.023976460099220276,
      "y": 0.008857546374201775,
      "z": -0.038637228310108185,
      "time_usec": 151612915913
    },
    {
      "x": -0.02275473065674305,
      "y": 0.007635815534740686,
      "z": -0.038637228310108185,
      "time_usec": 151612918167
    },
    {
      "x": -0.019089538604021072,
      "y": 0.0064140851609408855,
      "z": -0.04108068719506264,
      "time_usec": 151612920419
    },
    {
      "x": -0.014049900695681572,
      "y": 0.006261368747800589,
      "z": -0.04230241850018501,
      "time_usec": 151612922670
    },
    {
      "x": -0.012828170321881771,
      "y": 0.0074830991216003895,
      "z": -0.044745877385139465,
      "time_usec": 151612924939
    },
    {
      "x": -0.012828170321881771,
      "y": 0.0074830991216003895,
      "z": -0.04352414980530739,
      "time_usec": 151612927197
    },
    {
      "x": -0.007941247895359993,
      "y": 0.008704829961061478,
      "z": -0.044745877385139465,
      "time_usec": 151612929453
    },
    {
      "x": -0.01038470957428217,
      "y": 0.010995574295520782,
      "z": -0.047189339995384216,
      "time_usec": 151612931706
    },
    {
      "x": -0.01038470957428217,
      "y": 0.01237002108246088,
      "z": -0.04108068719506264,
      "time_usec": 151612933969
    },
    {
      "x": -0.015271631069481373,
      "y": 0.014813481830060482,
      "z": -0.038637228310108185,
      "time_usec": 151612936227
    },
    {
      "x": -0.012828170321881771,
      "y": 0.013591751456260681,
      "z": -0.03497203439474106,
      "time_usec": 151612938484
    },
    {
      "x": -0.012828170321881771,
      "y": 0.01725694350898266,
      "z": -0.03375030308961868,
      "time_usec": 151612940737
    },
    {
      "x": -0.012828170321881771,
      "y": 0.016035212203860283,
      "z": -0.030085112899541855,
      "time_usec": 151612942995
    },
    {
      "x": -0.012828170321881771,
      "y": 0.016035212203860283,
      "z": -0.02886338345706463,
      "time_usec": 151612945256
    },
    {
      "x": -0.01664607785642147,
      "y": 0.012522737495601177,
      "z": -0.027641652151942253,
      "time_usec": 151612947512
    },
    {
      "x": -0.01542434748262167,
      "y": 0.012522737495601177,
      "z": -0.027641652151942253,
      "time_usec": 151612949757
    },
    {
      "x": -0.014202617108821869,
      "y": 0.012522737495601177,
      "z": -0.026419922709465027,
      "time_usec": 151612952023
    },
    {
      "x": -0.014202617108821869,
      "y": 0.012522737495601177,
      "z": -0.026419922709465027,
      "time_usec": 151612954285
    },
    {
      "x": -0.012980886735022068,
      "y": 0.007635815534740686,
      "z": -0.023976460099220276,
      "time_usec": 151612956546
    },
    {
      "x": -0.009162978269159794,
      "y": 0.007635815534740686,
      "z": -0.02519819140434265,
      "time_usec": 151612958800
    },
    {
      "x": -0.006719517521560192,
      "y": 0.0064140851609408855,
      "z": -0.02626720629632473,
      "time_usec": 151612961052
    },
    {
      "x": -0.007941247895359993,
      "y": 0.007635815534740686,
      "z": -0.025045474991202354,
      "time_usec": 151612963315
    },
    {
      "x": -0.005497787147760391,
      "y": 0.006261368747800589,
      "z": -0.025045474991202354,
      "time_usec": 151612965573
    },
    {
      "x": -0.00427605677396059,
      "y": 0.0074830991216003895,
      "z": -0.02382374368607998,
      "time_usec": 151612967831
    },
    {
      "x": -0.006719517521560192,
      "y": 0.009926560334861279,
      "z": -0.022602014243602753,
      "time_usec": 151612970087
    },
    {
      "x": -0.005497787147760391,
      "y": 0.016035212203860283,
      "z": -0.021380282938480377,
      "time_usec": 151612972339
    },
    {
      "x": -0.004123340360820293,
      "y": 0.02321287989616394,
      "z": -0.01771509274840355,
      "time_usec": 151612974602
    },
    {
      "x": -0.004123340360820293,
      "y": 0.025656340643763542,
      "z": -0.018936822190880775,
      "time_usec": 151612976858
    },
    {
      "x": -0.01160643994808197,
      "y": 0.030543262138962746,
      "z": -0.01771509274840355,
      "time_usec": 151612979116
    },
    {
      "x": -0.012828170321881771,
      "y": 0.0354301854968071,
      "z": -0.014049900695681572,
      "time_usec": 151612981369
    },
    {
      "x": -0.016493361443281174,
      "y": 0.04260785132646561,
      "z": -0.01038470957428217,
      "time_usec": 151612983632
    },
    {
      "x": -0.018936822190880775,
      "y": 0.046273041516542435,
      "z": -0.006719517521560192,
      "time_usec": 151612985888
    },
    {
      "x": -0.022602014243602753,
      "y": 0.054825156927108765,
      "z": -0.003054326167330146,
      "time_usec": 151612988147
    },
    {
      "x": -0.029932396486401558,
      "y": 0.05971207842230797,
      "z": 6.108652451075613E-4,
      "time_usec": 151612990402
    },
    {
      "x": -0.03237585723400116,
      "y": 0.0633772686123848,
      "z": 0.003054326167330146,
      "time_usec": 151612992652
    },
    {
      "x": -0.03237585723400116,
      "y": 0.0633772686123848,
      "z": 0.00427605677396059,
      "time_usec": 151612994904
    },
    {
      "x": -0.03726277872920036,
      "y": 0.06582073122262955,
      "z": 0.00427605677396059,
      "time_usec": 151612997174
    },
    {
      "x": -0.036193765699863434,
      "y": 0.06230825558304787,
      "z": 0.006719517521560192,
      "time_usec": 151612999428
    },
    {
      "x": -0.036193765699863434,
      "y": 0.06230825558304787,
      "z": 0.007941247895359993,
      "time_usec": 151613001686
    },
    {
      "x": -0.038637228310108185,
      "y": 0.056352317333221436,
      "z": 0.00427605677396059,
      "time_usec": 151613003931
    },
    {
      "x": -0.03741549700498581,
      "y": 0.05390885844826698,
      "z": 0.00427605677396059,
      "time_usec": 151613006194
    },
    {
      "x": -0.038637228310108185,
      "y": 0.05268712714314461,
      "z": 0.001832595793530345,
      "time_usec": 151613008466
    },
    {
      "x": -0.03497203439474106,
      "y": 0.04535674303770065,
      "z": -0.00427605677396059,
      "time_usec": 151613010717
    },
    {
      "x": -0.032528575509786606,
      "y": 0.041691552847623825,
      "z": -0.003054326167330146,
      "time_usec": 151613012977
    },
    {
      "x": -0.03130684420466423,
      "y": 0.03573561832308769,
      "z": -0.003054326167330146,
      "time_usec": 151613015233
    },
    {
      "x": -0.027641652151942253,
      "y": 0.03084869496524334,
      "z": -0.001832595793530345,
      "time_usec": 151613017490
    },
    {
      "x": -0.02519819140434265,
      "y": 0.02474004216492176,
      "z": -0.001832595793530345,
      "time_usec": 151613019737
    },
    {
      "x": -0.02275473065674305,
      "y": 0.022449297830462456,
      "z": 6.108652451075613E-4,
      "time_usec": 151613022001
    },
    {
      "x": -0.019089538604021072,
      "y": 0.02474004216492176,
      "z": -6.108652451075613E-4,
      "time_usec": 151613024263
    },
    {
      "x": -0.014202617108821869,
      "y": 0.021074850112199783,
      "z": -0.001832595793530345,
      "time_usec": 151613026524
    },
    {
      "x": -0.011759156361222267,
      "y": 0.01618792861700058,
      "z": 6.108652451075613E-4,
      "time_usec": 151613028778
    },
    {
      "x": -0.00931569468230009,
      "y": 0.013744467869400978,
      "z": 0.003054326167330146,
      "time_usec": 151613031031
    },
    {
      "x": -0.005650503560900688,
      "y": 0.010079276748001575,
      "z": 0.001832595793530345,
      "time_usec": 151613033293
    },
    {
      "x": -0.004428773187100887,
      "y": 0.007788531947880983,
      "z": 0.001832595793530345,
      "time_usec": 151613035548
    },
    {
      "x": -7.635815418325365E-4,
      "y": 0.005192354787141085,
      "z": 0.0019853119738399982,
      "time_usec": 151613037798
    },
    {
      "x": 4.5814894838258624E-4,
      "y": -7.635815418325365E-4,
      "z": -6.108652451075613E-4,
      "time_usec": 151613040064
    },
    {
      "x": 0.004123340360820293,
      "y": -0.005650503560900688,
      "z": 0.0019853119738399982,
      "time_usec": 151613042318
    },
    {
      "x": 0.007788531947880983,
      "y": -0.010537425056099892,
      "z": 0.0019853119738399982,
      "time_usec": 151613044583
    },
    {
      "x": 0.010231993161141872,
      "y": -0.014202617108821869,
      "z": -4.5814894838258624E-4,
      "time_usec": 151613046837
    },
    {
      "x": 0.015118914656341076,
      "y": -0.021380282938480377,
      "z": -4.5814894838258624E-4,
      "time_usec": 151613049094
    },
    {
      "x": 0.017562376335263252,
      "y": -0.027488935738801956,
      "z": -4.5814894838258624E-4,
      "time_usec": 151613051347
    },
    {
      "x": 0.01878410577774048,
      "y": -0.03237585723400116,
      "z": -0.001679879380390048,
      "time_usec": 151613053610
    },
    {
      "x": 0.022449297830462456,
      "y": -0.03833179548382759,
      "z": 7.635815418325365E-4,
      "time_usec": 151613055868
    },
    {
      "x": 0.020005837082862854,
      "y": -0.03955352306365967,
      "z": -4.5814894838258624E-4,
      "time_usec": 151613058122
    },
    {
      "x": 0.02229658141732216,
      "y": -0.046731192618608475,
      "z": 0.0019853119738399982,
      "time_usec": 151613060368
    },
    {
      "x": 0.02229658141732216,
      "y": -0.046731192618608475,
      "z": 0.0032070425804704428,
      "time_usec": 151613062634
    },
    {
      "x": 0.021074850112199783,
      "y": -0.04306599870324135,
      "z": 0.006872233934700489,
      "time_usec": 151613064896
    },
    {
      "x": 0.01863138936460018,
      "y": -0.0455094613134861,
      "z": 0.006872233934700489,
      "time_usec": 151613067157
    },
    {
      "x": 0.017409659922122955,
      "y": -0.044287730008363724,
      "z": 0.00931569468230009,
      "time_usec": 151613069412
    },
    {
      "x": 0.01618792861700058,
      "y": -0.04184427112340927,
      "z": 0.014202617108821869,
      "time_usec": 151613071664
    },
    {
      "x": 0.01237002108246088,
      "y": -0.0429132841527462,
      "z": 0.012980886735022068,
      "time_usec": 151613073927
    },
    {
      "x": 0.009926560334861279,
      "y": -0.041691552847623825,
      "z": 0.012980886735022068,
      "time_usec": 151613076181
    },
    {
      "x": 0.010079276748001575,
      "y": -0.03329215571284294,
      "z": 0.014202617108821869,
      "time_usec": 151613078435
    },
    {
      "x": 0.005192354787141085,
      "y": -0.027183502912521362,
      "z": 0.01664607785642147,
      "time_usec": 151613080692
    },
    {
      "x": 0.001527163083665073,
      "y": -0.02229658141732216,
      "z": 0.019089538604021072,
      "time_usec": 151613082953
    },
    {
      "x": -9.162978967651725E-4,
      "y": -0.017562376335263252,
      "z": 0.01664607785642147,
      "time_usec": 151613085214
    },
    {
      "x": -0.003359758760780096,
      "y": -0.015118914656341076,
      "z": 0.01664607785642147,
      "time_usec": 151613087473
    },
    {
      "x": -0.003359758760780096,
      "y": -0.0065668015740811825,
      "z": 0.01664607785642147,
      "time_usec": 151613089734
    },
    {
      "x": -0.008246680721640587,
      "y": -6.108652451075613E-4,
      "z": 0.017867809161543846,
      "time_usec": 151613091977
    },
    {
      "x": -0.00809396430850029,
      "y": 0.007788531947880983,
      "z": 0.01542434748262167,
      "time_usec": 151613094229
    },
    {
      "x": -0.006872233934700489,
      "y": 0.01618792861700058,
      "z": 0.01542434748262167,
      "time_usec": 151613096497
    },
    {
      "x": -0.006872233934700489,
      "y": 0.023518312722444534,
      "z": 0.01664607785642147,
      "time_usec": 151613098753
    },
    {
      "x": -0.00427605677396059,
      "y": 0.02580905705690384,
      "z": 0.01542434748262167,
      "time_usec": 151613101012
    },
    {
      "x": -0.003054326167330146,
      "y": 0.027030786499381065,
      "z": 0.014202617108821869,
      "time_usec": 151613103271
    },
    {
      "x": -0.001832595793530345,
      "y": 0.029474247246980667,
      "z": 0.014202617108821869,
      "time_usec": 151613105530
    },
    {
      "x": 0.001832595793530345,
      "y": 0.028099801391363144,
      "z": 0.012980886735022068,
      "time_usec": 151613107788
    },
    {
      "x": 0.006872233934700489,
      "y": 0.025656340643763542,
      "z": 0.01542434748262167,
      "time_usec": 151613110043
    },
    {
      "x": 0.00809396430850029,
      "y": 0.02932153269648552,
      "z": 0.011759156361222267,
      "time_usec": 151613112296
    },
    {
      "x": 0.00809396430850029,
      "y": 0.028099801391363144,
      "z": 0.011759156361222267,
      "time_usec": 151613114559
    },
    {
      "x": 0.010537425056099892,
      "y": 0.02687807008624077,
      "z": 0.014355333521962166,
      "time_usec": 151613116816
    },
    {
      "x": 0.011759156361222267,
      "y": 0.018325956538319588,
      "z": 0.010537425056099892,
      "time_usec": 151613119073
    },
    {
      "x": 0.00931569468230009,
      "y": 0.018478672951459885,
      "z": 0.00931569468230009,
      "time_usec": 151613121325
    },
    {
      "x": 0.010537425056099892,
      "y": 0.019547687843441963,
      "z": 0.006872233934700489,
      "time_usec": 151613123588
    },
    {
      "x": 0.014202617108821869,
      "y": 0.019547687843441963,
      "z": 0.005650503560900688,
      "time_usec": 151613125846
    },
    {
      "x": 0.01542434748262167,
      "y": 0.015882495790719986,
      "z": 0.006872233934700489,
      "time_usec": 151613128102
    },
    {
      "x": 0.012980886735022068,
      "y": 0.013591751456260681,
      "z": 0.005650503560900688,
      "time_usec": 151613130345
    },
    {
      "x": 0.01542434748262167,
      "y": 0.009926560334861279,
      "z": 0.0032070425804704428,
      "time_usec": 151613132606
    },
    {
      "x": 0.016493361443281174,
      "y": 0.0013744467869400978,
      "z": 0.0032070425804704428,
      "time_usec": 151613134874
    },
    {
      "x": 0.01160643994808197,
      "y": 0.001527163083665073,
      "z": 0.0019853119738399982,
      "time_usec": 151613137135
    },
    {
      "x": 0.014049900695681572,
      "y": -9.162978967651725E-4,
      "z": 7.635815418325365E-4,
      "time_usec": 151613139391
    },
    {
      "x": 0.014049900695681572,
      "y": -9.162978967651725E-4,
      "z": 7.635815418325365E-4,
      "time_usec": 151613141642
    },
    {
      "x": 0.014049900695681572,
      "y": -0.00931569468230009,
      "z": 7.635815418325365E-4,
      "time_usec": 151613143904
    },
    {
      "x": 0.013897184282541275,
      "y": -0.012980886735022068,
      "z": 0.0032070425804704428,
      "time_usec": 151613146164
    },
    {
      "x": 0.011453723534941673,
      "y": -0.012980886735022068,
      "z": 0.0019853119738399982,
      "time_usec": 151613148424
    },
    {
      "x": 0.012675453908741474,
      "y": -0.012980886735022068,
      "z": 0.004428773187100887,
      "time_usec": 151613150670
    },
    {
      "x": 0.011453723534941673,
      "y": -0.016493361443281174,
      "z": 0.006872233934700489,
      "time_usec": 151613152928
    },
    {
      "x": 0.012675453908741474,
      "y": -0.016493361443281174,
      "z": 0.006872233934700489,
      "time_usec": 151613155189
    },
    {
      "x": 0.011453723534941673,
      "y": -0.015271631069481373,
      "z": 0.010537425056099892,
      "time_usec": 151613157443
    },
    {
      "x": 0.010231993161141872,
      "y": -0.016493361443281174,
      "z": 0.010537425056099892,
      "time_usec": 151613159694
    },
    {
      "x": 0.011453723534941673,
      "y": -0.012828170321881771,
      "z": 0.011759156361222267,
      "time_usec": 151613161958
    },
    {
      "x": 0.010231993161141872,
      "y": -0.014049900695681572,
      "z": 0.01542434748262167,
      "time_usec": 151613164223
    },
    {
      "x": 0.007788531947880983,
      "y": -0.012828170321881771,
      "z": 0.01542434748262167,
      "time_usec": 151613166481
    },
    {
      "x": 0.005345070734620094,
      "y": -0.007941247895359993,
      "z": 0.017867809161543846,
      "time_usec": 151613168734
    },
    {
      "x": 0.004123340360820293,
      "y": -0.00427605677396059,
      "z": 0.01664607785642147,
      "time_usec": 151613170987
    },
    {
      "x": 0.001679879380390048,
      "y": -6.108652451075613E-4,
      "z": 0.01664607785642147,
      "time_usec": 151613173250
    },
    {
      "x": -0.005803219974040985,
      "y": 0.001832595793530345,
      "z": 0.01664607785642147,
      "time_usec": 151613175508
    },
    {
      "x": -0.009468411095440388,
      "y": 0.00427605677396059,
      "z": 0.01542434748262167,
      "time_usec": 151613177766
    },
    {
      "x": -0.01191187184303999,
      "y": 0.0019853119738399982,
      "z": 0.018936822190880775,
      "time_usec": 151613180021
    },
    {
      "x": -0.015577063895761967,
      "y": 0.004428773187100887,
      "z": 0.021380282938480377,
      "time_usec": 151613182276
    },
    {
      "x": -0.015577063895761967,
      "y": 0.009162978269159794,
      "z": 0.02519819140434265,
      "time_usec": 151613184537
    },
    {
      "x": -0.01817324012517929,
      "y": 0.00809396430850029,
      "z": 0.025045474991202354,
      "time_usec": 151613186795
    },
    {
      "x": -0.018020525574684143,
      "y": 0.01160643994808197,
      "z": 0.026419922709465027,
      "time_usec": 151613189051
    },
    {
      "x": -0.020463986322283745,
      "y": 0.015271631069481373,
      "z": 0.02886338345706463,
      "time_usec": 151613191304
    },
    {
      "x": -0.025503624230623245,
      "y": 0.019089538604021072,
      "z": 0.032528575509786606,
      "time_usec": 151613193567
    },
    {
      "x": -0.02428189292550087,
      "y": 0.01664607785642147,
      "z": 0.03497203439474106,
      "time_usec": 151613195824
    },
    {
      "x": -0.027947084978222847,
      "y": 0.01191187184303999,
      "z": 0.033597588539123535,
      "time_usec": 151613198082
    },
    {
      "x": -0.03039054572582245,
      "y": 0.013133603148162365,
      "z": 0.03237585723400116,
      "time_usec": 151613200338
    },
    {
      "x": -0.03420845419168472,
      "y": 0.016798794269561768,
      "z": 0.033597588539123535,
      "time_usec": 151613202591
    },
    {
      "x": -0.03787364438176155,
      "y": 0.014355333521962166,
      "z": 0.033597588539123535,
      "time_usec": 151613204853
    },
    {
      "x": -0.039095375686883926,
      "y": 0.014355333521962166,
      "z": 0.031154127791523933,
      "time_usec": 151613207111
    },
    {
      "x": -0.039095375686883926,
      "y": 0.021532999351620674,
      "z": 0.029932396486401558,
      "time_usec": 151613209368
    },
    {
      "x": -0.042760565876960754,
      "y": 0.020463986322283745,
      "z": 0.03237585723400116,
      "time_usec": 151613211620
    },
    {
      "x": -0.04153883829712868,
      "y": 0.020463986322283745,
      "z": 0.029932396486401558,
      "time_usec": 151613213882
    },
    {
      "x": -0.04153883829712868,
      "y": 0.020463986322283745,
      "z": 0.031154127791523933,
      "time_usec": 151613216140
    },
    {
      "x": -0.04153883829712868,
      "y": 0.020463986322283745,
      "z": 0.03237585723400116,
      "time_usec": 151613218399
    },
    {
      "x": -0.045204028487205505,
      "y": 0.02168571576476097,
      "z": 0.033597588539123535,
      "time_usec": 151613220649
    },
    {
      "x": -0.04153883829712868,
      "y": 0.022907447069883347,
      "z": 0.03237585723400116,
      "time_usec": 151613222907
    },
    {
      "x": -0.042760565876960754,
      "y": 0.022907447069883347,
      "z": 0.03237585723400116,
      "time_usec": 151613225168
    },
    {
      "x": -0.04398229718208313,
      "y": 0.01924225501716137,
      "z": 0.029932396486401558,
      "time_usec": 151613227424
    },
    {
      "x": -0.04398229718208313,
      "y": 0.018020525574684143,
      "z": 0.031154127791523933,
      "time_usec": 151613229683
    },
    {
      "x": -0.042760565876960754,
      "y": 0.016798794269561768,
      "z": 0.031154127791523933,
      "time_usec": 151613231929
    },
    {
      "x": -0.04398229718208313,
      "y": 0.016798794269561768,
      "z": 0.03237585723400116,
      "time_usec": 151613234200
    },
    {
      "x": -0.045204028487205505,
      "y": 0.018020525574684143,
      "z": 0.029932396486401558,
      "time_usec": 151613236454
    },
    {
      "x": -0.042760565876960754,
      "y": 0.010842857882380486,
      "z": 0.031154127791523933,
      "time_usec": 151613238717
    },
    {
      "x": -0.044135015457868576,
      "y": 0.008399397134780884,
      "z": 0.031154127791523933,
      "time_usec": 151613240966
    },
    {
      "x": -0.04153883829712868,
      "y": 0.005955935921519995,
      "z": 0.02626720629632473,
      "time_usec": 151613243226
    },
    {
      "x": -0.0429132841527462,
      "y": 0.005955935921519995,
      "z": 0.027488935738801956,
      "time_usec": 151613245471
    },
    {
      "x": -0.041691552847623825,
      "y": 0.003512475173920393,
      "z": 0.025045474991202354,
      "time_usec": 151613247739
    },
    {
      "x": -0.03787364438176155,
      "y": 0.004734205547720194,
      "z": 0.021380282938480377,
      "time_usec": 151613249999
    },
    {
      "x": -0.0403171069920063,
      "y": 0.005955935921519995,
      "z": 0.022602014243602753,
      "time_usec": 151613252256
    },
    {
      "x": -0.036651913076639175,
      "y": 0.0010690141934901476,
      "z": 0.018936822190880775,
      "time_usec": 151613254518
    },
    {
      "x": -0.0354301854968071,
      "y": 0.0010690141934901476,
      "z": 0.015118914656341076,
      "time_usec": 151613256773
    },
    {
      "x": -0.03298672288656235,
      "y": -3.054326225537807E-4,
      "z": 0.010231993161141872,
      "time_usec": 151613259031
    },
    {
      "x": -0.03176499158143997,
      "y": -0.005039638374000788,
      "z": 0.010231993161141872,
      "time_usec": 151613261282
    },
    {
      "x": -0.028099801391363144,
      "y": -0.009926560334861279,
      "z": 0.007788531947880983,
      "time_usec": 151613263545
    },
    {
      "x": -0.021991148591041565,
      "y": -0.016035212203860283,
      "z": 0.004123340360820293,
      "time_usec": 151613265802
    },
    {
      "x": -0.016951510682702065,
      "y": -0.019853120669722557,
      "z": 6.108652451075613E-4,
      "time_usec": 151613268059
    },
    {
      "x": -0.012064588256180286,
      "y": -0.019853120669722557,
      "z": -0.003054326167330146,
      "time_usec": 151613270311
    },
    {
      "x": -0.009621127508580685,
      "y": -0.023518312722444534,
      "z": -0.006719517521560192,
      "time_usec": 151613272567
    },
    {
      "x": -0.005803219974040985,
      "y": -0.024892758578062057,
      "z": -0.009162978269159794,
      "time_usec": 151613274820
    },
    {
      "x": -0.003512475173920393,
      "y": -0.032070424407720566,
      "z": -0.006719517521560192,
      "time_usec": 151613277088
    },
    {
      "x": 0.001527163083665073,
      "y": -0.031001411378383636,
      "z": -0.009162978269159794,
      "time_usec": 151613279335
    },
    {
      "x": 0.007635815534740686,
      "y": -0.034666601568460464,
      "z": -0.01160643994808197,
      "time_usec": 151613281601
    },
    {
      "x": 0.011301007121801376,
      "y": -0.037110064178705215,
      "z": -0.014049900695681572,
      "time_usec": 151613283857
    },
    {
      "x": 0.016340645030140877,
      "y": -0.04077525436878204,
      "z": -0.014049900695681572,
      "time_usec": 151613286121
    },
    {
      "x": 0.02122756652534008,
      "y": -0.04092797264456749,
      "z": -0.016493361443281174,
      "time_usec": 151613288376
    },
    {
      "x": 0.02367102913558483,
      "y": -0.039706241339445114,
      "z": -0.016493361443281174,
      "time_usec": 151613290629
    },
    {
      "x": 0.022449297830462456,
      "y": -0.04214970022439957,
      "z": -0.018936822190880775,
      "time_usec": 151613292883
    },
    {
      "x": 0.022449297830462456,
      "y": -0.04092797264456749,
      "z": -0.01771509274840355,
      "time_usec": 151613295133
    },
    {
      "x": 0.02871066704392433,
      "y": -0.039706241339445114,
      "z": -0.017562376335263252,
      "time_usec": 151613297394
    },
    {
      "x": 0.02733621932566166,
      "y": -0.04214970022439957,
      "z": -0.01771509274840355,
      "time_usec": 151613299663
    },
    {
      "x": 0.027488935738801956,
      "y": -0.03848451003432274,
      "z": -0.016340645030140877,
      "time_usec": 151613301918
    },
    {
      "x": 0.025045474991202354,
      "y": -0.03497203439474106,
      "z": -0.02015855349600315,
      "time_usec": 151613304180
    },
    {
      "x": 0.025045474991202354,
      "y": -0.03481931984424591,
      "z": -0.015118914656341076,
      "time_usec": 151613306431
    },
    {
      "x": 0.025045474991202354,
      "y": -0.030085112899541855,
      "z": -0.015118914656341076,
      "time_usec": 151613308694
    },
    {
      "x": 0.021380282938480377,
      "y": -0.023976460099220276,
      "z": -0.011453723534941673,
      "time_usec": 151613310942
    },
    {
      "x": 0.016493361443281174,
      "y": -0.01664607785642147,
      "z": -0.009010262787342072,
      "time_usec": 151613313197
    },
    {
      "x": 0.014049900695681572,
      "y": -0.014202617108821869,
      "z": -0.01160643994808197,
      "time_usec": 151613315467
    },
    {
      "x": 0.01160643994808197,
      "y": -0.009468411095440388,
      "z": -0.009010262787342072,
      "time_usec": 151613317730
    },
    {
      "x": 0.01038470957428217,
      "y": -0.004581489134579897,
      "z": -0.0065668015740811825,
      "time_usec": 151613319981
    },
    {
      "x": 0.007941247895359993,
      "y": -0.003359758760780096,
      "z": -0.005345070734620094,
      "time_usec": 151613322231
    },
    {
      "x": 0.003054326167330146,
      "y": 0.001527163083665073,
      "z": -0.005497787147760391,
      "time_usec": 151613324493
    },
    {
      "x": 6.108652451075613E-4,
      "y": 0.007635815534740686,
      "z": -0.001832595793530345,
      "time_usec": 151613326752
    },
    {
      "x": -0.0032070425804704428,
      "y": 0.011301007121801376,
      "z": -6.108652451075613E-4,
      "time_usec": 151613329007
    },
    {
      "x": -0.003054326167330146,
      "y": 0.012522737495601177,
      "z": -6.108652451075613E-4,
      "time_usec": 151613331255
    },
    {
      "x": -0.006872233934700489,
      "y": 0.017409659922122955,
      "z": 0.00427605677396059,
      "time_usec": 151613333523
    },
    {
      "x": -0.010537425056099892,
      "y": 0.02229658141732216,
      "z": 0.003054326167330146,
      "time_usec": 151613335781
    },
    {
      "x": -0.012980886735022068,
      "y": 0.02580905705690384,
      "z": 0.00427605677396059,
      "time_usec": 151613338040
    },
    {
      "x": -0.01038470957428217,
      "y": 0.02825251780450344,
      "z": 0.003054326167330146,
      "time_usec": 151613340291
    },
    {
      "x": -0.01038470957428217,
      "y": 0.03298672288656235,
      "z": 0.0032070425804704428,
      "time_usec": 151613342548
    },
    {
      "x": -0.009162978269159794,
      "y": 0.030695978552103043,
      "z": 0.0019853119738399982,
      "time_usec": 151613344811
    },
    {
      "x": -0.009162978269159794,
      "y": 0.027030786499381065,
      "z": 0.001832595793530345,
      "time_usec": 151613347069
    },
    {
      "x": -0.007941247895359993,
      "y": 0.022143865004181862,
      "z": 6.108652451075613E-4,
      "time_usec": 151613349325
    },
    {
      "x": -0.005497787147760391,
      "y": 0.018478672951459885,
      "z": -0.001832595793530345,
      "time_usec": 151613351577
    },
    {
      "x": -0.00931569468230009,
      "y": 0.010079276748001575,
      "z": -0.00427605677396059,
      "time_usec": 151613353840
    },
    {
      "x": -0.00931569468230009,
      "y": 0.010079276748001575,
      "z": -0.009162978269159794,
      "time_usec": 151613356098
    },
    {
      "x": -0.00809396430850029,
      "y": 4.5814894838258624E-4,
      "z": -0.01038470957428217,
      "time_usec": 151613358356
    },
    {
      "x": -0.004428773187100887,
      "y": -0.0019853119738399982,
      "z": -0.014049900695681572,
      "time_usec": 151613360606
    },
    {
      "x": -0.005650503560900688,
      "y": -0.0032070425804704428,
      "z": -0.015271631069481373,
      "time_usec": 151613362864
    },
    {
      "x": -0.005650503560900688,
      "y": 4.5814894838258624E-4,
      "z": -0.016493361443281174,
      "time_usec": 151613365123
    },
    {
      "x": -0.004428773187100887,
      "y": 3.054326225537807E-4,
      "z": -0.01771509274840355,
      "time_usec": 151613367385
    },
    {
      "x": -0.006872233934700489,
      "y": 0.0027488935738801956,
      "z": -0.018936822190880775,
      "time_usec": 151613369641
    },
    {
      "x": -0.004428773187100887,
      "y": -9.162978967651725E-4,
      "z": -0.02015855349600315,
      "time_usec": 151613371894
    },
    {
      "x": -6.108652451075613E-4,
      "y": -0.002138028386980295,
      "z": -0.021380282938480377,
      "time_usec": 151613374157
    },
    {
      "x": -0.004428773187100887,
      "y": -0.0032070425804704428,
      "z": -0.021380282938480377,
      "time_usec": 151613376417
    },
    {
      "x": -0.0019853119738399982,
      "y": -0.006872233934700489,
      "z": -0.021380282938480377,
      "time_usec": 151613378671
    },
    {
      "x": 4.5814894838258624E-4,
      "y": -0.007024950347840786,
      "z": -0.02382374368607998,
      "time_usec": 151613380924
    },
    {
      "x": -7.635815418325365E-4,
      "y": -0.007024950347840786,
      "z": -0.027488935738801956,
      "time_usec": 151613383184
    },
    {
      "x": 0.001832595793530345,
      "y": -0.009468411095440388,
      "z": -0.027488935738801956,
      "time_usec": 151613385438
    },
    {
      "x": 0.00427605677396059,
      "y": -0.005803219974040985,
      "z": -0.029932396486401558,
      "time_usec": 151613387700
    },
    {
      "x": 0.006719517521560192,
      "y": -0.01191187184303999,
      "z": -0.029932396486401558,
      "time_usec": 151613389951
    },
    {
      "x": 0.006719517521560192,
      "y": -0.014355333521962166,
      "z": -0.02871066704392433,
      "time_usec": 151613392208
    },
    {
      "x": 0.009162978269159794,
      "y": -0.014355333521962166,
      "z": -0.02871066704392433,
      "time_usec": 151613394460
    },
    {
      "x": 0.01038470957428217,
      "y": -0.014355333521962166,
      "z": -0.029932396486401558,
      "time_usec": 151613396734
    },
    {
      "x": 0.014049900695681572,
      "y": -0.018020525574684143,
      "z": -0.03237585723400116,
      "time_usec": 151613398988
    },
    {
      "x": 0.016493361443281174,
      "y": -0.018020525574684143,
      "z": -0.03237585723400116,
      "time_usec": 151613401240
    },
    {
      "x": 0.015271631069481373,
      "y": -0.018020525574684143,
      "z": -0.036041051149368286,
      "time_usec": 151613403488
    },
    {
      "x": 0.020311269909143448,
      "y": -0.016951510682702065,
      "z": -0.036041051149368286,
      "time_usec": 151613405752
    },
    {
      "x": 0.017867809161543846,
      "y": -0.013286318629980087,
      "z": -0.036041051149368286,
      "time_usec": 151613408017
    },
    {
      "x": 0.01664607785642147,
      "y": -0.010842857882380486,
      "z": -0.03848451003432274,
      "time_usec": 151613410272
    },
    {
      "x": 0.017867809161543846,
      "y": -0.00855211354792118,
      "z": -0.03848451003432274,
      "time_usec": 151613412528
    },
    {
      "x": 0.017867809161543846,
      "y": -0.006108652334660292,
      "z": -0.03726277872920036,
      "time_usec": 151613414789
    },
    {
      "x": 0.01664607785642147,
      "y": -0.0012217304902151227,
      "z": -0.03726277872920036,
      "time_usec": 151613417048
    },
    {
      "x": 0.01664607785642147,
      "y": -0.0024434609804302454,
      "z": -0.039706241339445114,
      "time_usec": 151613419304
    },
    {
      "x": 0.016798794269561768,
      "y": 0.004734205547720194,
      "z": -0.03848451003432274,
      "time_usec": 151613421556
    },
    {
      "x": 0.015577063895761967,
      "y": 0.004734205547720194,
      "z": -0.039706241339445114,
      "time_usec": 151613423818
    },
    {
      "x": 0.014355333521962166,
      "y": 0.007177666760981083,
      "z": -0.03726277872920036,
      "time_usec": 151613426076
    },
    {
      "x": 0.011759156361222267,
      "y": 0.008399397134780884,
      "z": -0.03726277872920036,
      "time_usec": 151613428331
    },
    {
      "x": 0.00809396430850029,
      "y": 0.00855211354792118,
      "z": -0.03726277872920036,
      "time_usec": 151613430577
    },
    {
      "x": 0.005650503560900688,
      "y": 0.009621127508580685,
      "z": -0.039706241339445114,
      "time_usec": 151613432843
    },
    {
      "x": 0.005650503560900688,
      "y": 0.014508049935102463,
      "z": -0.03848451003432274,
      "time_usec": 151613435106
    },
    {
      "x": -4.5814894838258624E-4,
      "y": 0.01817324012517929,
      "z": -0.036041051149368286,
      "time_usec": 151613437366
    },
    {
      "x": -0.0029016099870204926,
      "y": 0.019394971430301666,
      "z": -0.036041051149368286,
      "time_usec": 151613439620
    },
    {
