{
  "rotations": [
    {
      "x": -0.0633772686123848,
      "y": -0.019394971430301666,
      "z": 0.005650503560900688,
      "time_usec": 102332786250
    },
    {
      "x": -0.05711590126156807,
      "y": -0.012217304669320583,
      "z": 0.00809396430850029,
      "time_usec": 102332788520
    },
    {
      "x": -0.05207626149058342,
      "y": -0.008704829961061478,
      "z": 0.0032070425804704428,
      "time_usec": 102332790774
    },
    {
      "x": -0.04581489413976669,
      "y": 9.162978967651725E-4,
      "z": 0.0032070425804704428,
      "time_usec": 102332793026
    },
    {
      "x": -0.04199698567390442,
      "y": 0.00809396430850029,
      "z": 0.004581489134579897,
      "time_usec": 102332795290
    },
    {
      "x": -0.03588833287358284,
      "y": 0.01038470957428217,
      "z": 9.162978967651725E-4,
      "time_usec": 102332797548
    },
    {
      "x": -0.034666601568460464,
      "y": 0.007941247895359993,
      "z": 9.162978967651725E-4,
      "time_usec": 102332799808
    },
    {
      "x": -0.028405234217643738,
      "y": 0.011453723534941673,
      "z": 0.002138028386980295,
      "time_usec": 102332802062
    },
    {
      "x": -0.02474004216492176,
      "y": 0.009010262787342072,
      "z": -3.054326225537807E-4,
      "time_usec": 102332804319
    },
    {
      "x": -0.02474004216492176,
      "y": 0.0065668015740811825,
      "z": -0.0039706239476799965,
      "time_usec": 102332806578
    },
    {
      "x": -0.023518312722444534,
      "y": 0.009010262787342072,
      "z": -3.054326225537807E-4,
      "time_usec": 102332808839
    },
    {
      "x": -0.02229658141732216,
      "y": 0.005345070734620094,
      "z": -0.001527163083665073,
      "time_usec": 102332811091
    },
    {
      "x": -0.021074850112199783,
      "y": 0.007635815534740686,
      "z": -0.0027488935738801956,
      "time_usec": 102332813346
    },
    {
      "x": -0.019853120669722557,
      "y": 0.0065668015740811825,
      "z": 9.162978967651725E-4,
      "time_usec": 102332815596
    },
    {
      "x": -0.019853120669722557,
      "y": 0.005345070734620094,
      "z": 9.162978967651725E-4,
      "time_usec": 102332817857
    },
    {
      "x": -0.02229658141732216,
      "y": 0.001679879380390048,
      "z": 9.162978967651725E-4,
      "time_usec": 102332820118
    },
    {
      "x": -0.023518312722444534,
      "y": 4.5814894838258624E-4,
      "z": -0.001527163083665073,
      "time_usec": 102332822376
    },
    {
      "x": -0.02229658141732216,
      "y": 4.5814894838258624E-4,
      "z": -0.001527163083665073,
      "time_usec": 102332824630
    },
    {
      "x": -0.024892758578062057,
      "y": -0.001832595793530345,
      "z": 0.004581489134579897,
      "time_usec": 102332826877
    },
    {
      "x": -0.028557950630784035,
      "y": -0.00427605677396059,
      "z": -3.054326225537807E-4,
      "time_usec": 102332829147
    },
    {
      "x": -0.028557950630784035,
      "y": -0.007788531947880983,
      "z": 0.002138028386980295,
      "time_usec": 102332831403
    },
    {
      "x": -0.02733621932566166,
      "y": -0.010231993161141872,
      "z": 0.005803219974040985,
      "time_usec": 102332833663
    },
    {
      "x": -0.028557950630784035,
      "y": -0.012675453908741474,
      "z": 9.162978967651725E-4,
      "time_usec": 102332835917
    },
    {
      "x": -0.033597588539123535,
      "y": -0.01970040425658226,
      "z": 0.002138028386980295,
      "time_usec": 102332838173
    },
    {
      "x": -0.03481931984424591,
      "y": -0.024587325751781464,
      "z": 7.635815418325365E-4,
      "time_usec": 102332840426
    },
    {
      "x": -0.032528575509786606,
      "y": -0.029474247246980667,
      "z": 9.162978967651725E-4,
      "time_usec": 102332842689
    },
    {
      "x": -0.03375030308961868,
      "y": -0.030543262138962746,
      "z": -0.001679879380390048,
      "time_usec": 102332844946
    },
    {
      "x": -0.029932396486401558,
      "y": -0.03191770985722542,
      "z": -0.001527163083665073,
      "time_usec": 102332847204
    },
    {
      "x": -0.030085112899541855,
      "y": -0.03420845419168472,
      "z": 0.002138028386980295,
      "time_usec": 102332849456
    },
    {
      "x": -0.030085112899541855,
      "y": -0.03298672288656235,
      "z": 9.162978967651725E-4,
      "time_usec": 102332851717
    },
    {
      "x": -0.027488935738801956,
      "y": -0.03436116874217987,
      "z": -3.054326225537807E-4,
      "time_usec": 102332853973
    },
    {
      "x": -0.02382374368607998,
      "y": -0.03436116874217987,
      "z": 9.162978967651725E-4,
      "time_usec": 102332856232
    },
    {
      "x": -0.02382374368607998,
      "y": -0.030695978552103043,
      "z": 9.162978967651725E-4,
      "time_usec": 102332858486
    },
    {
      "x": -0.017562376335263252,
      "y": -0.02474004216492176,
      "z": -0.001527163083665073,
      "time_usec": 102332860737
    },
    {
      "x": -0.015118914656341076,
      "y": -0.024892758578062057,
      "z": -3.054326225537807E-4,
      "time_usec": 102332862993
    },
    {
      "x": -0.013897184282541275,
      "y": -0.02367102913558483,
      "z": 0.002138028386980295,
      "time_usec": 102332865260
    },
    {
      "x": -0.0064140851609408855,
      "y": -0.02015855349600315,
      "z": 0.0022907445672899485,
      "time_usec": 102332867517
    },
    {
      "x": -0.001527163083665073,
      "y": -0.021380282938480377,
      "z": -1.5271631127689034E-4,
      "time_usec": 102332869770
    },
    {
      "x": -0.0027488935738801956,
      "y": -0.022602014243602753,
      "z": -1.5271631127689034E-4,
      "time_usec": 102332872030
    },
    {
      "x": 0.0022907445672899485,
      "y": -0.022602014243602753,
      "z": -1.5271631127689034E-4,
      "time_usec": 102332874286
    },
    {
      "x": 0.007177666760981083,
      "y": -0.025045474991202354,
      "z": 0.0010690141934901476,
      "time_usec": 102332876539
    },
    {
      "x": 0.005955935921519995,
      "y": -0.02626720629632473,
      "z": -0.003817907767370343,
      "time_usec": 102332878795
    },
    {
      "x": 0.004581489134579897,
      "y": -0.031154127791523933,
      "z": -0.0025961773935705423,
      "time_usec": 102332881053
    },
    {
      "x": 0.004581489134579897,
      "y": -0.031154127791523933,
      "z": -0.003817907767370343,
      "time_usec": 102332883318
    },
    {
      "x": 0.004581489134579897,
      "y": -0.034666601568460464,
      "z": -0.005039638374000788,
      "time_usec": 102332885577
    },
    {
      "x": 0.004581489134579897,
      "y": -0.037110064178705215,
      "z": -0.003817907767370343,
      "time_usec": 102332887830
    },
    {
      "x": 0.003359758760780096,
      "y": -0.03833179548382759,
      "z": -0.005039638374000788,
      "time_usec": 102332890078
    },
    {
      "x": 0.003359758760780096,
      "y": -0.04077525436878204,
      "z": -0.0074830991216003895,
      "time_usec": 102332892327
    },
    {
      "x": 0.005803219974040985,
      "y": -0.03833179548382759,
      "z": -0.006261368747800589,
      "time_usec": 102332894588
    },
    {
      "x": 0.004581489134579897,
      "y": -0.03833179548382759,
      "z": -0.008704829961061478,
      "time_usec": 102332896848
    },
    {
      "x": 0.003359758760780096,
      "y": -0.03955352306365967,
      "z": -0.0074830991216003895,
      "time_usec": 102332899102
    },
    {
      "x": 0.003359758760780096,
      "y": -0.03955352306365967,
      "z": -0.0074830991216003895,
      "time_usec": 102332901362
    },
    {
      "x": 0.003359758760780096,
      "y": -0.04077525436878204,
      "z": -0.008857546374201775,
      "time_usec": 102332903631
    },
    {
      "x": 0.003359758760780096,
      "y": -0.03955352306365967,
      "z": -0.006261368747800589,
      "time_usec": 102332905889
    },
    {
      "x": 0.004581489134579897,
      "y": -0.03833179548382759,
      "z": -0.009926560334861279,
      "time_usec": 102332908144
    },
    {
      "x": 0.008399397134780884,
      "y": -0.03726277872920036,
      "z": -0.01237002108246088,
      "time_usec": 102332910392
    },
    {
      "x": 0.008246680721640587,
      "y": -0.03726277872920036,
      "z": -0.008704829961061478,
      "time_usec": 102332912646
    },
    {
      "x": 0.013286318629980087,
      "y": -0.039706241339445114,
      "z": -0.009926560334861279,
      "time_usec": 102332914915
    },
    {
      "x": 0.013286318629980087,
      "y": -0.033597588539123535,
      "z": -0.0074830991216003895,
      "time_usec": 102332917171
    },
    {
      "x": 0.013286318629980087,
      "y": -0.03375030308961868,
      "z": -0.01114829070866108,
      "time_usec": 102332919427
    },
    {
      "x": 0.013286318629980087,
      "y": -0.032528575509786606,
      "z": -0.008704829961061478,
      "time_usec": 102332921686
    },
    {
      "x": 0.014508049935102463,
      "y": -0.032528575509786606,
      "z": -0.01114829070866108,
      "time_usec": 102332923942
    },
    {
      "x": 0.018325956538319588,
      "y": -0.03130684420466423,
      "z": -0.009926560334861279,
      "time_usec": 102332926200
    },
    {
      "x": 0.01710422709584236,
      "y": -0.02779436856508255,
      "z": -0.01237002108246088,
      "time_usec": 102332928453
    },
    {
      "x": 0.018325956538319588,
      "y": -0.02535090781748295,
      "z": -0.013591751456260681,
      "time_usec": 102332930699
    },
    {
      "x": 0.015882495790719986,
      "y": -0.030085112899541855,
      "z": -0.014813481830060482,
      "time_usec": 102332932963
    },
    {
      "x": 0.02076941914856434,
      "y": -0.02779436856508255,
      "z": -0.013591751456260681,
      "time_usec": 102332935211
    },
    {
      "x": 0.018325956538319588,
      "y": -0.030085112899541855,
      "z": -0.01237002108246088,
      "time_usec": 102332937473
    },
    {
      "x": 0.01466076634824276,
      "y": -0.026419922709465027,
      "z": -0.01114829070866108,
      "time_usec": 102332939727
    },
    {
      "x": 0.013286318629980087,
      "y": -0.026419922709465027,
      "z": -0.01114829070866108,
      "time_usec": 102332941989
    },
    {
      "x": 0.009621127508580685,
      "y": -0.030085112899541855,
      "z": -0.01237002108246088,
      "time_usec": 102332944255
    },
    {
      "x": 0.007177666760981083,
      "y": -0.02886338345706463,
      "z": -0.009926560334861279,
      "time_usec": 102332946500
    },
    {
      "x": 0.002138028386980295,
      "y": -0.033597588539123535,
      "z": -0.009926560334861279,
      "time_usec": 102332948759
    },
    {
      "x": -3.054326225537807E-4,
      "y": -0.029932396486401558,
      "z": -0.006261368747800589,
      "time_usec": 102332951019
    },
    {
      "x": -0.0039706239476799965,
      "y": -0.028557950630784035,
      "z": -0.003817907767370343,
      "time_usec": 102332953275
    },
    {
      "x": -0.011453723534941673,
      "y": -0.026114489883184433,
      "z": -0.0027488935738801956,
      "time_usec": 102332955529
    },
    {
      "x": -0.015118914656341076,
      "y": -0.022449297830462456,
      "z": -0.0039706239476799965,
      "time_usec": 102332957786
    },
    {
      "x": -0.020005837082862854,
      "y": -0.020005837082862854,
      "z": -0.001527163083665073,
      "time_usec": 102332960048
    },
    {
      "x": -0.022449297830462456,
      "y": -0.013897184282541275,
      "z": -0.0027488935738801956,
      "time_usec": 102332962299
    },
    {
      "x": -0.024892758578062057,
      "y": -0.006719517521560192,
      "z": 0.002138028386980295,
      "time_usec": 102332964558
    },
    {
      "x": -0.026114489883184433,
      "y": -0.003054326167330146,
      "z": 0.003359758760780096,
      "time_usec": 102332966820
    },
    {
      "x": -0.02733621932566166,
      "y": -6.108652451075613E-4,
      "z": 0.003359758760780096,
      "time_usec": 102332969070
    },
    {
      "x": -0.027183502912521362,
      "y": 0.00427605677396059,
      "z": 0.005803219974040985,
      "time_usec": 102332971331
    },
    {
      "x": -0.025961773470044136,
      "y": 0.007788531947880983,
      "z": 0.005803219974040985,
      "time_usec": 102332973596
    },
    {
      "x": -0.025961773470044136,
      "y": 0.010231993161141872,
      "z": 0.003359758760780096,
      "time_usec": 102332975845
    },
    {
      "x": -0.02474004216492176,
      "y": 0.010231993161141872,
      "z": 0.004581489134579897,
      "time_usec": 102332978113
    },
    {
      "x": -0.02229658141732216,
      "y": 0.0065668015740811825,
      "z": 0.005955935921519995,
      "time_usec": 102332980363
    },
    {
      "x": -0.02474004216492176,
      "y": 0.009010262787342072,
      "z": 0.004581489134579897,
      "time_usec": 102332982627
    },
    {
      "x": -0.025961773470044136,
      "y": 0.010231993161141872,
      "z": 0.005803219974040985,
      "time_usec": 102332984876
    },
    {
      "x": -0.027183502912521362,
      "y": 0.005497787147760391,
      "z": 0.007024950347840786,
      "time_usec": 102332987126
    },
    {
      "x": -0.031001411378383636,
      "y": -0.001679879380390048,
      "z": 0.007024950347840786,
      "time_usec": 102332989392
    },
    {
      "x": -0.03344487398862839,
      "y": -0.0029016099870204926,
      "z": 0.009468411095440388,
      "time_usec": 102332991653
    },
    {
      "x": -0.03848451003432274,
      "y": -0.007635815534740686,
      "z": 0.008246680721640587,
      "time_usec": 102332993903
    },
    {
      "x": -0.04841107130050659,
      "y": -0.009926560334861279,
      "z": 0.010537425056099892,
      "time_usec": 102332996166
    },
    {
      "x": -0.050854530185461044,
      "y": -0.012217304669320583,
      "z": 0.012980886735022068,
      "time_usec": 102332998410
    },
    {
      "x": -0.058337632566690445,
      "y": -0.014508049935102463,
      "z": 0.014202617108821869,
      "time_usec": 102333000676
    },
    {
      "x": -0.06582073122262955,
      "y": -0.018020525574684143,
      "z": 0.01542434748262167,
      "time_usec": 102333002922
    },
    {
      "x": -0.0731511116027832,
      "y": -0.016798794269561768,
      "z": 0.017867809161543846,
      "time_usec": 102333005186
    },
    {
      "x": -0.07696902006864548,
      "y": -0.017867809161543846,
      "z": 0.021380282938480377,
      "time_usec": 102333007451
    },
    {
      "x": -0.07696902006864548,
      "y": -0.017867809161543846,
      "z": 0.02015855349600315,
      "time_usec": 102333009698
    },
    {
      "x": -0.08185594528913498,
      "y": -0.019089538604021072,
      "z": 0.01771509274840355,
      "time_usec": 102333011957
    },
    {
      "x": -0.0806342139840126,
      "y": -0.017867809161543846,
      "z": 0.021380282938480377,
      "time_usec": 102333014224
    },
    {
      "x": -0.07819075137376785,
      "y": -0.017867809161543846,
      "z": 0.026419922709465027,
      "time_usec": 102333016481
    },
    {
      "x": -0.0757472887635231,
      "y": -0.020311269909143448,
      "z": 0.026419922709465027,
      "time_usec": 102333018725
    },
    {
      "x": -0.07330382615327835,
      "y": -0.01542434748262167,
      "z": 0.026419922709465027,
      "time_usec": 102333020982
    },
    {
      "x": -0.06582073122262955,
      "y": -0.010690141469240189,
      "z": 0.02519819140434265,
      "time_usec": 102333023252
    },
    {
      "x": -0.05955936014652252,
      "y": -0.008399397134780884,
      "z": 0.02519819140434265,
      "time_usec": 102333025512
    },
    {
      "x": -0.05207626149058342,
      "y": -0.004886921960860491,
      "z": 0.024129176512360573,
      "time_usec": 102333027769
    },
    {
      "x": -0.04841107130050659,
      "y": -0.0013744467869400978,
      "z": 0.024129176512360573,
      "time_usec": 102333030018
    },
    {
      "x": -0.04459316283464432,
      "y": 0.003359758760780096,
      "z": 0.022907447069883347,
      "time_usec": 102333032279
    },
    {
      "x": -0.04337143152952194,
      "y": 0.004581489134579897,
      "z": 0.022907447069883347,
      "time_usec": 102333034532
    },
    {
      "x": -0.037110064178705215,
      "y": 0.00931569468230009,
      "z": 0.022907447069883347,
      "time_usec": 102333036791
    },
    {
      "x": -0.037110064178705215,
      "y": 0.012980886735022068,
      "z": 0.022907447069883347,
      "time_usec": 102333039043
    },
    {
      "x": -0.03955352306365967,
      "y": 0.016493361443281174,
      "z": 0.024129176512360573,
      "time_usec": 102333041295
    },
    {
      "x": -0.03833179548382759,
      "y": 0.02367102913558483,
      "z": 0.023060163483023643,
      "time_usec": 102333043562
    },
    {
      "x": -0.03588833287358284,
      "y": 0.022449297830462456,
      "z": 0.021838432177901268,
      "time_usec": 102333045825
    },
    {
      "x": -0.04077525436878204,
      "y": 0.02382374368607998,
      "z": 0.01924225501716137,
      "time_usec": 102333048081
    },
    {
      "x": -0.043218716979026794,
      "y": 0.022602014243602753,
      "z": 0.020463986322283745,
      "time_usec": 102333050332
    },
    {
      "x": -0.04199698567390442,
      "y": 0.02015855349600315,
      "z": 0.022907447069883347,
      "time_usec": 102333052593
    },
    {
      "x": -0.043218716979026794,
      "y": 0.02382374368607998,
      "z": 0.022907447069883347,
      "time_usec": 102333054850
    },
    {
      "x": -0.043218716979026794,
      "y": 0.02382374368607998,
      "z": 0.02535090781748295,
      "time_usec": 102333057107
    },
    {
      "x": -0.04199698567390442,
      "y": 0.02382374368607998,
      "z": 0.024129176512360573,
      "time_usec": 102333059356
    },
    {
      "x": -0.03955352306365967,
      "y": 0.021380282938480377,
      "z": 0.025503624230623245,
      "time_usec": 102333061622
    },
    {
      "x": -0.03833179548382759,
      "y": 0.022602014243602753,
      "z": 0.02672535367310047,
      "time_usec": 102333063876
    },
    {
      "x": -0.03833179548382759,
      "y": 0.02626720629632473,
      "z": 0.029168816283345222,
      "time_usec": 102333066127
    },
    {
      "x": -0.03222314268350601,
      "y": 0.02122756652534008,
      "z": 0.029168816283345222,
      "time_usec": 102333068392
    },
    {
      "x": -0.02977968007326126,
      "y": 0.016493361443281174,
      "z": 0.027947084978222847,
      "time_usec": 102333070642
    },
    {
      "x": -0.02474004216492176,
      "y": 0.020005837082862854,
      "z": 0.025503624230623245,
      "time_usec": 102333072897
    },
    {
      "x": -0.019853120669722557,
      "y": 0.020005837082862854,
      "z": 0.027947084978222847,
      "time_usec": 102333075164
    },
    {
      "x": -0.01237002108246088,
      "y": 0.02229658141732216,
      "z": 0.030543262138962746,
      "time_usec": 102333077421
    },
    {
      "x": -0.01114829070866108,
      "y": 0.021074850112199783,
      "z": 0.02687807008624077,
      "time_usec": 102333079676
    },
    {
      "x": -0.006261368747800589,
      "y": 0.01970040425658226,
      "z": 0.028099801391363144,
      "time_usec": 102333081936
    },
    {
      "x": -0.0025961773935705423,
      "y": 0.014813481830060482,
      "z": 0.024434609338641167,
      "time_usec": 102333084192
    },
    {
      "x": 0.0,
      "y": 0.013591751456260681,
      "z": 0.024434609338641167,
      "time_usec": 102333086449
    },
    {
      "x": 0.0024434609804302454,
      "y": 0.013591751456260681,
      "z": 0.02321287989616394,
      "time_usec": 102333088699
    },
    {
      "x": 0.0010690141934901476,
      "y": 0.0064140851609408855,
      "z": 0.02321287989616394,
      "time_usec": 102333090958
    },
    {
      "x": 0.0022907445672899485,
      "y": 0.001527163083665073,
      "z": 0.02321287989616394,
      "time_usec": 102333093220
    },
    {
      "x": -0.0013744467869400978,
      "y": -0.0032070425804704428,
      "z": 0.024434609338641167,
      "time_usec": 102333095478
    },
    {
      "x": -0.0027488935738801956,
      "y": -0.012828170321881771,
      "z": 0.023060163483023643,
      "time_usec": 102333097735
    },
    {
      "x": -0.001527163083665073,
      "y": -0.014049900695681572,
      "z": 0.025656340643763542,
      "time_usec": 102333099987
    },
    {
      "x": -0.004123340360820293,
      "y": -0.022449297830462456,
      "z": 0.02428189292550087,
      "time_usec": 102333102248
    },
    {
      "x": -4.5814894838258624E-4,
      "y": -0.029626963660120964,
      "z": 0.025503624230623245,
      "time_usec": 102333104504
    },
    {
      "x": -4.5814894838258624E-4,
      "y": -0.039248090237379074,
      "z": 0.02428189292550087,
      "time_usec": 102333106755
    },
    {
      "x": -6.108652451075613E-4,
      "y": -0.04535674303770065,
      "z": 0.025503624230623245,
      "time_usec": 102333109015
    },
    {
      "x": 6.108652451075613E-4,
      "y": -0.04886921867728233,
      "z": 0.02428189292550087,
      "time_usec": 102333111276
    },
    {
      "x": 0.006872233934700489,
      "y": -0.05253441259264946,
      "z": 0.02428189292550087,
      "time_usec": 102333113534
    },
    {
      "x": 0.00931569468230009,
      "y": -0.05268712714314461,
      "z": 0.025503624230623245,
      "time_usec": 102333115792
    },
    {
      "x": 0.01664607785642147,
      "y": -0.05268712714314461,
      "z": 0.021991148591041565,
      "time_usec": 102333118047
    },
    {
      "x": 0.02168571576476097,
      "y": -0.04795292019844055,
      "z": 0.021991148591041565,
      "time_usec": 102333120300
    },
    {
      "x": 0.023060163483023643,
      "y": -0.04199698567390442,
      "z": 0.018325956538319588,
      "time_usec": 102333122560
    },
    {
      "x": 0.02672535367310047,
      "y": -0.033597588539123535,
      "z": 0.02076941914856434,
      "time_usec": 102333124819
    },
    {
      "x": 0.02932153269648552,
      "y": -0.02519819140434265,
      "z": 0.019547687843441963,
      "time_usec": 102333127076
    },
    {
      "x": 0.030695978552103043,
      "y": -0.013286318629980087,
      "z": 0.022143865004181862,
      "time_usec": 102333129328
    },
    {
      "x": 0.02825251780450344,
      "y": -0.005955935921519995,
      "z": 0.020922135561704636,
      "time_usec": 102333131589
    },
    {
      "x": 0.03329215571284294,
      "y": 0.0,
      "z": 0.018478672951459885,
      "time_usec": 102333133844
    },
    {
      "x": 0.032070424407720566,
      "y": 0.010842857882380486,
      "z": 0.018478672951459885,
      "time_usec": 102333136107
    },
    {
      "x": 0.031001411378383636,
      "y": 0.02168571576476097,
      "z": 0.018478672951459885,
      "time_usec": 102333138359
    },
    {
      "x": 0.03222314268350601,
      "y": 0.026419922709465027,
      "z": 0.01970040425658226,
      "time_usec": 102333140607
    },
    {
      "x": 0.03222314268350601,
      "y": 0.031154127791523933,
      "z": 0.018478672951459885,
      "time_usec": 102333142879
    },
    {
      "x": 0.03222314268350601,
      "y": 0.036041051149368286,
      "z": 0.01725694350898266,
      "time_usec": 102333145132
    },
    {
      "x": 0.031154127791523933,
      "y": 0.04077525436878204,
      "z": 0.01725694350898266,
      "time_usec": 102333147391
    },
    {
      "x": 0.033597588539123535,
      "y": 0.03955352306365967,
      "z": 0.01725694350898266,
      "time_usec": 102333149640
    },
    {
      "x": 0.02977968007326126,
      "y": 0.039706241339445114,
      "z": 0.01725694350898266,
      "time_usec": 102333151904
    },
    {
      "x": 0.028557950630784035,
      "y": 0.03726277872920036,
      "z": 0.01725694350898266,
      "time_usec": 102333154161
    },
    {
      "x": 0.024892758578062057,
      "y": 0.03375030308961868,
      "z": 0.014813481830060482,
      "time_usec": 102333156419
    },
    {
      "x": 0.024892758578062057,
      "y": 0.030085112899541855,
      "z": 0.01725694350898266,
      "time_usec": 102333158674
    },
    {
      "x": 0.02474004216492176,
      "y": 0.02535090781748295,
      "z": 0.016035212203860283,
      "time_usec": 102333160926
    },
    {
      "x": 0.02229658141732216,
      "y": 0.02168571576476097,
      "z": 0.013591751456260681,
      "time_usec": 102333163188
    },
    {
      "x": 0.018478672951459885,
      "y": 0.01817324012517929,
      "z": 0.01725694350898266,
      "time_usec": 102333165445
    },
    {
      "x": 0.018478672951459885,
      "y": 0.01572977937757969,
      "z": 0.01970040425658226,
      "time_usec": 102333167703
    },
    {
      "x": 0.018478672951459885,
      "y": 0.00855211354792118,
      "z": 0.020922135561704636,
      "time_usec": 102333169955
    },
    {
      "x": 0.01725694350898266,
      "y": 0.005039638374000788,
      "z": 0.02076941914856434,
      "time_usec": 102333172218
    },
    {
      "x": 0.01466076634824276,
      "y": 0.003817907767370343,
      "z": 0.018325956538319588,
      "time_usec": 102333174474
    },
    {
      "x": 0.01466076634824276,
      "y": 1.5271631127689034E-4,
      "z": 0.019547687843441963,
      "time_usec": 102333176731
    },
    {
      "x": 0.019547687843441963,
      "y": -0.0022907445672899485,
      "z": 0.021991148591041565,
      "time_usec": 102333178985
    },
    {
      "x": 0.02076941914856434,
      "y": -0.003512475173920393,
      "z": 0.02076941914856434,
      "time_usec": 102333181245
    },
    {
      "x": 0.019547687843441963,
      "y": -0.005955935921519995,
      "z": 0.02076941914856434,
      "time_usec": 102333183502
    },
    {
      "x": 0.019547687843441963,
      "y": -0.004734205547720194,
      "z": 0.02076941914856434,
      "time_usec": 102333185760
    },
    {
      "x": 0.018325956538319588,
      "y": -0.007024950347840786,
      "z": 0.018325956538319588,
      "time_usec": 102333188014
    },
    {
      "x": 0.02076941914856434,
      "y": -0.005955935921519995,
      "z": 0.01710422709584236,
      "time_usec": 102333190267
    },
    {
      "x": 0.023365596309304237,
      "y": -0.004734205547720194,
      "z": 0.015882495790719986,
      "time_usec": 102333192531
    },
    {
      "x": 0.022143865004181862,
      "y": -0.003512475173920393,
      "z": 0.01710422709584236,
      "time_usec": 102333194771
    },
    {
      "x": 0.029474247246980667,
      "y": -0.0012217304902151227,
      "z": 0.01725694350898266,
      "time_usec": 102333197032
    },
    {
      "x": 0.027030786499381065,
      "y": -0.00366519158706069,
      "z": 0.018478672951459885,
      "time_usec": 102333199294
    },
    {
      "x": 0.030695978552103043,
      "y": 0.0,
      "z": 0.020922135561704636,
      "time_usec": 102333201552
    },
    {
      "x": 0.029474247246980667,
      "y": 0.0012217304902151227,
      "z": 0.018478672951459885,
      "time_usec": 102333203803
    },
    {
      "x": 0.03084869496524334,
      "y": 0.003512475173920393,
      "z": 0.01725694350898266,
      "time_usec": 102333206058
    },
    {
      "x": 0.03084869496524334,
      "y": 0.004734205547720194,
      "z": 0.01725694350898266,
      "time_usec": 102333208318
    },
    {
      "x": 0.032070424407720566,
      "y": 0.005955935921519995,
      "z": 0.01970040425658226,
      "time_usec": 102333210586
    },
    {
      "x": 0.03084869496524334,
      "y": 0.005955935921519995,
      "z": 0.018478672951459885,
      "time_usec": 102333212849
    },
    {
      "x": 0.028405234217643738,
      "y": 0.007177666760981083,
      "z": 0.016035212203860283,
      "time_usec": 102333215104
    },
    {
      "x": 0.027183502912521362,
      "y": 0.010842857882380486,
      "z": 0.016035212203860283,
      "time_usec": 102333217358
    },
    {
      "x": 0.025961773470044136,
      "y": 0.008399397134780884,
      "z": 0.013591751456260681,
      "time_usec": 102333219607
    },
    {
      "x": 0.027183502912521362,
      "y": 0.008399397134780884,
      "z": 0.013591751456260681,
      "time_usec": 102333221860
    },
    {
      "x": 0.023365596309304237,
      "y": 0.009621127508580685,
      "z": 0.013591751456260681,
      "time_usec": 102333224126
    },
    {
      "x": 0.02474004216492176,
      "y": 0.008399397134780884,
      "z": 0.010995574295520782,
      "time_usec": 102333226376
    },
    {
      "x": 0.023365596309304237,
      "y": 0.005955935921519995,
      "z": 0.010995574295520782,
      "time_usec": 102333228643
    },
    {
      "x": 0.02474004216492176,
      "y": 0.008399397134780884,
      "z": 0.009773843921720982,
      "time_usec": 102333230890
    },
    {
      "x": 0.025961773470044136,
      "y": 0.007177666760981083,
      "z": 0.00855211354792118,
      "time_usec": 102333233160
    },
    {
      "x": 0.023365596309304237,
      "y": 0.004734205547720194,
      "z": 0.004886921960860491,
      "time_usec": 102333235414
    },
    {
      "x": 0.02474004216492176,
      "y": 0.004734205547720194,
      "z": 0.004886921960860491,
      "time_usec": 102333237673
    },
    {
      "x": 0.027183502912521362,
      "y": 0.005955935921519995,
      "z": 0.00366519158706069,
      "time_usec": 102333239923
    },
    {
      "x": 0.028405234217643738,
      "y": 0.0022907445672899485,
      "z": 0.0012217304902151227,
      "time_usec": 102333242184
    },
    {
      "x": 0.028405234217643738,
      "y": 0.004734205547720194,
      "z": -0.0,
      "time_usec": 102333244437
    },
    {
      "x": 0.028405234217643738,
      "y": 0.008246680721640587,
      "z": -0.0024434609804302454,
      "time_usec": 102333246699
    },
    {
      "x": 0.028405234217643738,
      "y": 0.005803219974040985,
      "z": -0.0024434609804302454,
      "time_usec": 102333248951
    },
    {
      "x": 0.029626963660120964,
      "y": 0.005803219974040985,
      "z": -0.0024434609804302454,
      "time_usec": 102333251214
    },
    {
      "x": 0.027183502912521362,
      "y": 0.008246680721640587,
      "z": -0.00366519158706069,
      "time_usec": 102333253470
    },
    {
      "x": 0.029626963660120964,
      "y": 0.010690141469240189,
      "z": -0.0024434609804302454,
      "time_usec": 102333255729
    },
    {
      "x": 0.031001411378383636,
      "y": 0.011759156361222267,
      "z": -0.006108652334660292,
      "time_usec": 102333257983
    },
    {
      "x": 0.026114489883184433,
      "y": 0.01664607785642147,
      "z": -0.00366519158706069,
      "time_usec": 102333260233
    },
    {
      "x": 0.02474004216492176,
      "y": 0.016798794269561768,
      "z": -0.0024434609804302454,
      "time_usec": 102333262487
    },
    {
      "x": 0.02733621932566166,
      "y": 0.01664607785642147,
      "z": -0.00733038317412138,
      "time_usec": 102333264756
    },
    {
      "x": 0.026114489883184433,
      "y": 0.019089538604021072,
      "z": -0.006108652334660292,
      "time_usec": 102333267013
    },
    {
      "x": 0.026114489883184433,
      "y": 0.02275473065674305,
      "z": -0.00366519158706069,
      "time_usec": 102333269269
    },
    {
      "x": 0.022449297830462456,
      "y": 0.026419922709465027,
      "z": -0.0024434609804302454,
      "time_usec": 102333271532
    },
    {
      "x": 0.02367102913558483,
      "y": 0.02275473065674305,
      "z": -0.0024434609804302454,
      "time_usec": 102333273784
    },
    {
      "x": 0.019853120669722557,
      "y": 0.026419922709465027,
      "z": -0.0,
      "time_usec": 102333276042
    },
    {
      "x": 0.02122756652534008,
      "y": 0.02886338345706463,
      "z": -0.0012217304902151227,
      "time_usec": 102333278296
    },
    {
      "x": 0.020005837082862854,
      "y": 0.02886338345706463,
      "z": 0.0012217304902151227,
      "time_usec": 102333280552
    },
    {
      "x": 0.017409659922122955,
      "y": 0.027641652151942253,
      "z": -0.0,
      "time_usec": 102333282813
    },
    {
      "x": 0.017409659922122955,
      "y": 0.02886338345706463,
      "z": 0.0024434609804302454,
      "time_usec": 102333285068
    },
    {
      "x": 0.014966198243200779,
      "y": 0.02779436856508255,
      "z": 0.0024434609804302454,
      "time_usec": 102333287320
    },
    {
      "x": 0.01618792861700058,
      "y": 0.027641652151942253,
      "z": 0.0012217304902151227,
      "time_usec": 102333289579
    },
    {
      "x": 0.014966198243200779,
      "y": 0.02535090781748295,
      "z": 0.0024434609804302454,
      "time_usec": 102333291845
    },
    {
      "x": 0.013744467869400978,
      "y": 0.02168571576476097,
      "z": -0.0,
      "time_usec": 102333294098
    },
    {
      "x": 0.01618792861700058,
      "y": 0.01572977937757969,
      "z": -0.0,
      "time_usec": 102333296354
    },
    {
      "x": 0.01725694350898266,
      "y": 0.010842857882380486,
      "z": -0.0012217304902151227,
      "time_usec": 102333298599
    },
    {
      "x": 0.01725694350898266,
      "y": 0.009621127508580685,
      "z": -0.0012217304902151227,
      "time_usec": 102333300858
    },
    {
      "x": 0.018478672951459885,
      "y": 0.007177666760981083,
      "z": 0.0012217304902151227,
      "time_usec": 102333303122
    },
    {
      "x": 0.018478672951459885,
      "y": 0.004886921960860491,
      "z": 0.0012217304902151227,
      "time_usec": 102333305371
    },
    {
      "x": 0.022143865004181862,
      "y": -0.0012217304902151227,
      "z": 0.0012217304902151227,
      "time_usec": 102333307640
    },
    {
      "x": 0.024587325751781464,
      "y": -0.0012217304902151227,
      "z": 0.004886921960860491,
      "time_usec": 102333309891
    },
    {
      "x": 0.024587325751781464,
      "y": 0.0010690141934901476,
      "z": 0.0024434609804302454,
      "time_usec": 102333312157
    },
    {
      "x": 0.027030786499381065,
      "y": -0.00366519158706069,
      "z": 0.0012217304902151227,
      "time_usec": 102333314411
    },
    {
      "x": 0.024587325751781464,
      "y": -0.0024434609804302454,
      "z": 0.0024434609804302454,
      "time_usec": 102333316669
    },
    {
      "x": 0.023365596309304237,
      "y": -0.0012217304902151227,
      "z": -0.0,
      "time_usec": 102333318920
    },
    {
      "x": 0.01970040425658226,
      "y": -0.006108652334660292,
      "z": -0.0012217304902151227,
      "time_usec": 102333321182
    },
    {
      "x": 0.018325956538319588,
      "y": -0.012064588256180286,
      "z": -0.00366519158706069,
      "time_usec": 102333323435
    },
    {
      "x": 0.01710422709584236,
      "y": -0.009621127508580685,
      "z": -0.0024434609804302454,
      "time_usec": 102333325686
    },
    {
      "x": 0.013439035043120384,
      "y": -0.014355333521962166,
      "z": -0.005039638374000788,
      "time_usec": 102333327951
    },
    {
      "x": 0.01466076634824276,
      "y": -0.012064588256180286,
      "z": -0.0012217304902151227,
      "time_usec": 102333330204
    },
    {
      "x": 0.013439035043120384,
      "y": -0.01191187184303999,
      "z": -0.0025961773935705423,
      "time_usec": 102333332470
    },
    {
      "x": 0.015882495790719986,
      "y": -0.012064588256180286,
      "z": -0.003817907767370343,
      "time_usec": 102333334725
    },
    {
      "x": 0.01466076634824276,
      "y": -0.009621127508580685,
      "z": -0.0024434609804302454,
      "time_usec": 102333336981
    },
    {
      "x": 0.018478672951459885,
      "y": -0.008399397134780884,
      "z": -0.00366519158706069,
      "time_usec": 102333339233
    },
    {
      "x": 0.015882495790719986,
      "y": -0.005955935921519995,
      "z": -0.0012217304902151227,
      "time_usec": 102333341495
    },
    {
      "x": 0.01725694350898266,
      "y": -0.0024434609804302454,
      "z": -0.00366519158706069,
      "time_usec": 102333343752
    },
    {
      "x": 0.016035212203860283,
      "y": 0.0024434609804302454,
      "z": -0.0012217304902151227,
      "time_usec": 102333346010
    },
    {
      "x": 0.018478672951459885,
      "y": 0.00366519158706069,
      "z": -0.0,
      "time_usec": 102333348265
    },
    {
      "x": 0.01970040425658226,
      "y": 0.007177666760981083,
      "z": 0.0012217304902151227,
      "time_usec": 102333350519
    },
    {
      "x": 0.016035212203860283,
      "y": 0.009621127508580685,
      "z": 0.0012217304902151227,
      "time_usec": 102333352781
    },
    {
      "x": 0.016035212203860283,
      "y": 0.009621127508580685,
      "z": 0.00366519158706069,
      "time_usec": 102333355032
    },
    {
      "x": 0.016035212203860283,
      "y": 0.01572977937757969,
      "z": 0.006108652334660292,
      "time_usec": 102333357295
    },
    {
      "x": 0.009926560334861279,
      "y": 0.01817324012517929,
      "z": 0.00733038317412138,
      "time_usec": 102333359547
    },
    {
      "x": 0.008704829961061478,
      "y": 0.013439035043120384,
      "z": 0.009773843921720982,
      "time_usec": 102333361809
    },
    {
      "x": 0.0074830991216003895,
      "y": 0.01817324012517929,
      "z": 0.009773843921720982,
      "time_usec": 102333364065
    },
    {
      "x": 0.004886921960860491,
      "y": 0.015882495790719986,
      "z": 0.01466076634824276,
      "time_usec": 102333366323
    },
    {
      "x": 0.0012217304902151227,
      "y": 0.015882495790719986,
      "z": 0.013439035043120384,
      "time_usec": 102333368572
    },
    {
      "x": -0.003817907767370343,
      "y": 0.011301007121801376,
      "z": 0.018325956538319588,
      "time_usec": 102333370822
    },
    {
      "x": -0.003817907767370343,
      "y": 0.008857546374201775,
      "z": 0.01710422709584236,
      "time_usec": 102333373078
    },
    {
      "x": -0.008704829961061478,
      "y": 0.008857546374201775,
      "z": 0.01817324012517929,
      "time_usec": 102333375338
    },
    {
      "x": -0.01114829070866108,
      "y": 0.007635815534740686,
      "z": 0.014508049935102463,
      "time_usec": 102333377602
    },
    {
      "x": -0.013744467869400978,
      "y": 0.004123340360820293,
      "z": 0.020616702735424042,
      "time_usec": 102333379853
    },
    {
      "x": -0.017409659922122955,
      "y": 0.001832595793530345,
      "z": 0.020616702735424042,
      "time_usec": 102333382109
    },
    {
      "x": -0.022449297830462456,
      "y": 0.003054326167330146,
      "z": 0.02428189292550087,
      "time_usec": 102333384365
    },
    {
      "x": -0.02122756652534008,
      "y": 0.005497787147760391,
      "z": 0.02672535367310047,
      "time_usec": 102333386623
    },
    {
      "x": -0.02367102913558483,
      "y": 0.005497787147760391,
      "z": 0.029168816283345222,
      "time_usec": 102333388882
    },
    {
      "x": -0.026114489883184433,
      "y": 0.005650503560900688,
      "z": 0.029168816283345222,
      "time_usec": 102333391144
    },
    {
      "x": -0.028557950630784035,
      "y": 0.006872233934700489,
      "z": 0.031612277030944824,
      "time_usec": 102333393410
    },
    {
      "x": -0.028557950630784035,
      "y": 0.01038470957428217,
      "z": 0.031612277030944824,
      "time_usec": 102333395667
    },
    {
      "x": -0.02977968007326126,
      "y": 0.011759156361222267,
      "z": 0.03527746722102165,
      "time_usec": 102333397922
    },
    {
      "x": -0.03222314268350601,
      "y": 0.014202617108821869,
      "z": 0.03527746722102165,
      "time_usec": 102333400173
    },
    {
      "x": -0.034666601568460464,
      "y": 0.014202617108821869,
      "z": 0.0328340083360672,
      "time_usec": 102333402435
    },
    {
      "x": -0.037110064178705215,
      "y": 0.014202617108821869,
      "z": 0.0328340083360672,
      "time_usec": 102333404692
    },
    {
      "x": -0.03848451003432274,
      "y": 0.014202617108821869,
      "z": 0.031612277030944824,
      "time_usec": 102333406946
    },
    {
      "x": -0.04214970022439957,
      "y": 0.014202617108821869,
      "z": 0.02779436856508255,
      "time_usec": 102333409201
    },
    {
      "x": -0.04214970022439957,
      "y": 0.011759156361222267,
      "z": 0.029016099870204926,
      "time_usec": 102333411463
    },
    {
      "x": -0.04581489413976669,
      "y": 0.005803219974040985,
      "z": 0.030237829312682152,
      "time_usec": 102333413721
    },
    {
      "x": -0.04841107130050659,
      "y": 0.004734205547720194,
      "z": 0.02779436856508255,
      "time_usec": 102333415979
    },
    {
      "x": -0.050854530185461044,
      "y": -0.0013744467869400978,
      "z": 0.024129176512360573,
      "time_usec": 102333418233
    },
    {
      "x": -0.052228979766368866,
      "y": -0.009773843921720982,
      "z": 0.022907447069883347,
      "time_usec": 102333420486
    },
    {
      "x": -0.05345070734620094,
      "y": -0.012064588256180286,
      "z": 0.022907447069883347,
      "time_usec": 102333422749
    },
    {
      "x": -0.05345070734620094,
      "y": -0.014508049935102463,
      "z": 0.021532999351620674,
      "time_usec": 102333425004
    },
    {
      "x": -0.05467243865132332,
      "y": -0.016951510682702065,
      "z": 0.020311269909143448,
      "time_usec": 102333427251
    },
    {
      "x": -0.049785517156124115,
      "y": -0.020616702735424042,
      "z": 0.02168571576476097,
      "time_usec": 102333429515
    },
    {
      "x": -0.049785517156124115,
      "y": -0.023060163483023643,
      "z": 0.017867809161543846,
      "time_usec": 102333431777
    },
    {
      "x": -0.04734205827116966,
      "y": -0.020616702735424042,
      "z": 0.018020525574684143,
      "time_usec": 102333434034
    },
    {
      "x": -0.04596760869026184,
      "y": -0.01710422709584236,
      "z": 0.018020525574684143,
      "time_usec": 102333436280
    },
    {
      "x": -0.036193765699863434,
      "y": -0.016035212203860283,
      "z": 0.020463986322283745,
      "time_usec": 102333438542
    },
    {
      "x": -0.036041051149368286,
      "y": -0.01237002108246088,
      "z": 0.020463986322283745,
      "time_usec": 102333440797
    },
    {
      "x": -0.03481931984424591,
      "y": -0.0039706239476799965,
      "z": 0.01924225501716137,
      "time_usec": 102333443053
    },
    {
      "x": -0.02977968007326126,
      "y": -0.001679879380390048,
      "z": 0.015577063895761967,
      "time_usec": 102333445320
    },
    {
      "x": -0.02367102913558483,
      "y": 0.001832595793530345,
      "z": 0.019394971430301666,
      "time_usec": 102333447577
    },
    {
      "x": -0.019853120669722557,
      "y": 0.005497787147760391,
      "z": 0.01817324012517929,
      "time_usec": 102333449831
    },
    {
      "x": -0.017409659922122955,
      "y": 0.005345070734620094,
      "z": 0.01572977937757969,
      "time_usec": 102333452090
    },
    {
      "x": -0.013591751456260681,
      "y": 0.011453723534941673,
      "z": 0.020616702735424042,
      "time_usec": 102333454347
    },
    {
      "x": -0.01114829070866108,
      "y": 0.009010262787342072,
      "z": 0.020616702735424042,
      "time_usec": 102333456605
    },
    {
      "x": -0.0074830991216003895,
      "y": 0.007635815534740686,
      "z": 0.019394971430301666,
      "time_usec": 102333458858
    },
    {
      "x": -0.0013744467869400978,
      "y": 0.008857546374201775,
      "z": 0.015882495790719986,
      "time_usec": 102333461116
    },
    {
      "x": 0.0024434609804302454,
      "y": 0.01237002108246088,
      "z": 0.01710422709584236,
      "time_usec": 102333463375
    },
    {
      "x": 0.0,
      "y": 0.01114829070866108,
      "z": 0.01466076634824276,
      "time_usec": 102333465630
    },
    {
      "x": 0.004886921960860491,
      "y": 0.01237002108246088,
      "z": 0.015882495790719986,
      "time_usec": 102333467874
    },
    {
      "x": 0.00366519158706069,
      "y": 0.01114829070866108,
      "z": 0.01466076634824276,
      "time_usec": 102333470134
    },
    {
      "x": 0.00366519158706069,
      "y": 0.01114829070866108,
      "z": 0.015882495790719986,
      "time_usec": 102333472403
    },
    {
      "x": 0.00855211354792118,
      "y": 0.012217304669320583,
      "z": 0.01710422709584236,
      "time_usec": 102333474661
    },
    {
      "x": 0.010995574295520782,
      "y": 0.009773843921720982,
      "z": 0.01710422709584236,
      "time_usec": 102333476916
    },
    {
      "x": 0.012217304669320583,
      "y": 0.005039638374000788,
      "z": 0.018325956538319588,
      "time_usec": 102333479171
    },
    {
      "x": 0.013439035043120384,
      "y": 0.0025961773935705423,
      "z": 0.018325956538319588,
      "time_usec": 102333481433
    },
    {
      "x": 0.01466076634824276,
      "y": -0.003512475173920393,
      "z": 0.01710422709584236,
      "time_usec": 102333483690
    },
    {
      "x": 0.019547687843441963,
      "y": -0.007177666760981083,
      "z": 0.018325956538319588,
      "time_usec": 102333485947
    },
    {
      "x": 0.02321287989616394,
      "y": -0.01191187184303999,
      "z": 0.018325956538319588,
      "time_usec": 102333488202
    },
    {
      "x": 0.024587325751781464,
      "y": -0.009621127508580685,
      "z": 0.01466076634824276,
      "time_usec": 102333490455
    },
    {
      "x": 0.024434609338641167,
      "y": -0.013133603148162365,
      "z": 0.01710422709584236,
      "time_usec": 102333492717
    },
    {
      "x": 0.02825251780450344,
      "y": -0.014508049935102463,
      "z": 0.01466076634824276,
      "time_usec": 102333494974
    },
    {
      "x": 0.030695978552103043,
      "y": -0.01817324012517929,
      "z": 0.013439035043120384,
      "time_usec": 102333497233
    },
    {
      "x": 0.03191770985722542,
      "y": -0.01572977937757969,
      "z": 0.013591751456260681,
      "time_usec": 102333499484
    },
    {
      "x": 0.030695978552103043,
      "y": -0.01817324012517929,
      "z": 0.012217304669320583,
      "time_usec": 102333501745
    },
    {
      "x": 0.03680463135242462,
      "y": -0.01817324012517929,
      "z": 0.013591751456260681,
      "time_usec": 102333504002
    },
    {
      "x": 0.03680463135242462,
      "y": -0.01817324012517929,
      "z": 0.01237002108246088,
      "time_usec": 102333506261
    },
    {
      "x": 0.03680463135242462,
      "y": -0.012217304669320583,
      "z": 0.01114829070866108,
      "time_usec": 102333508516
    },
    {
      "x": 0.035582900047302246,
      "y": -0.012217304669320583,
      "z": 0.01114829070866108,
      "time_usec": 102333510769
    },
    {
      "x": 0.03436116874217987,
      "y": -0.012217304669320583,
      "z": 0.008704829961061478,
      "time_usec": 102333513032
    },
    {
      "x": 0.03191770985722542,
      "y": -0.009773843921720982,
      "z": 0.01114829070866108,
      "time_usec": 102333515292
    },
    {
      "x": 0.03191770985722542,
      "y": -0.009773843921720982,
      "z": 0.009926560334861279,
      "time_usec": 102333517540
    },
    {
      "x": 0.030695978552103043,
      "y": -0.00733038317412138,
      "z": 0.01114829070866108,
      "time_usec": 102333519793
    },
    {
      "x": 0.029474247246980667,
      "y": -0.00366519158706069,
      "z": 0.01237002108246088,
      "time_usec": 102333522044
    },
    {
      "x": 0.030695978552103043,
      "y": -0.00366519158706069,
      "z": 0.01237002108246088,
      "time_usec": 102333524317
    },
    {
      "x": 0.027030786499381065,
      "y": 0.003512475173920393,
      "z": 0.013591751456260681,
      "time_usec": 102333526576
    },
    {
      "x": 0.02580905705690384,
      "y": 0.005955935921519995,
      "z": 0.014813481830060482,
      "time_usec": 102333528827
    },
    {
      "x": 0.020922135561704636,
      "y": 0.013286318629980087,
      "z": 0.01725694350898266,
      "time_usec": 102333531085
    },
    {
      "x": 0.016035212203860283,
      "y": 0.013286318629980087,
      "z": 0.01466076634824276,
      "time_usec": 102333533344
    },
    {
      "x": 0.016035212203860283,
      "y": 0.013286318629980087,
      "z": 0.013439035043120384,
      "time_usec": 102333535599
    },
    {
      "x": 0.01114829070866108,
      "y": 0.016951510682702065,
      "z": 0.013439035043120384,
      "time_usec": 102333537845
    },
    {
      "x": 0.00366519158706069,
      "y": 0.019547687843441963,
      "z": 0.01466076634824276,
      "time_usec": 102333540110
    },
    {
      "x": 0.0024434609804302454,
      "y": 0.018325956538319588,
      "z": 0.012217304669320583,
      "time_usec": 102333542369
    },
    {
      "x": -0.0024434609804302454,
      "y": 0.018325956538319588,
      "z": 0.012217304669320583,
      "time_usec": 102333544621
    },
    {
      "x": -0.004886921960860491,
      "y": 0.018478672951459885,
      "z": 0.010842857882380486,
      "time_usec": 102333546883
    },
    {
      "x": -0.01114829070866108,
      "y": 0.01970040425658226,
      "z": 0.009621127508580685,
      "time_usec": 102333549138
    },
    {
      "x": -0.014813481830060482,
      "y": 0.018478672951459885,
      "z": 0.012064588256180286,
      "time_usec": 102333551404
    },
    {
      "x": -0.02229658141732216,
      "y": 0.013897184282541275,
      "z": 0.012064588256180286,
      "time_usec": 102333553658
    },
    {
      "x": -0.028405234217643738,
      "y": 0.013897184282541275,
      "z": 0.014508049935102463,
      "time_usec": 102333555915
    },
    {
      "x": -0.03222314268350601,
      "y": 0.013897184282541275,
      "z": 0.01191187184303999,
      "time_usec": 102333558168
    },
    {
      "x": -0.034666601568460464,
      "y": 0.014049900695681572,
      "z": 0.013133603148162365,
      "time_usec": 102333560415
    },
    {
      "x": -0.04199698567390442,
      "y": 0.015271631069481373,
      "z": 0.01191187184303999,
      "time_usec": 102333562684
    },
    {
      "x": -0.04199698567390442,
      "y": 0.014049900695681572,
      "z": 0.01191187184303999,
      "time_usec": 102333564942
    },
    {
      "x": -0.043218716979026794,
      "y": 0.012980886735022068,
      "z": 0.01191187184303999,
      "time_usec": 102333567200
    },
    {
      "x": -0.04948008432984352,
      "y": 0.012980886735022068,
      "z": 0.009468411095440388,
      "time_usec": 102333569442
    },
    {
      "x": -0.04948008432984352,
      "y": 0.01542434748262167,
      "z": 0.008246680721640587,
      "time_usec": 102333571702
    },
    {
      "x": -0.0507018156349659,
      "y": 0.012980886735022068,
      "z": 0.007024950347840786,
      "time_usec": 102333573971
    },
    {
      "x": -0.05192354694008827,
      "y": 0.01664607785642147,
      "z": 0.007024950347840786,
      "time_usec": 102333576231
    },
    {
      "x": -0.04948008432984352,
      "y": 0.014202617108821869,
      "z": 0.005803219974040985,
      "time_usec": 102333578486
    },
    {
      "x": -0.048258353024721146,
      "y": 0.011759156361222267,
      "z": 0.003359758760780096,
      "time_usec": 102333580736
    },
    {
      "x": -0.043218716979026794,
      "y": 0.012828170321881771,
      "z": 0.004581489134579897,
      "time_usec": 102333582999
    },
    {
      "x": -0.04199698567390442,
      "y": 0.014049900695681572,
      "z": 0.004581489134579897,
      "time_usec": 102333585256
    },
    {
      "x": -0.04077525436878204,
      "y": 0.012828170321881771,
      "z": 9.162978967651725E-4,
      "time_usec": 102333587513
    },
    {
      "x": -0.03833179548382759,
      "y": 0.01160643994808197,
      "z": 0.002138028386980295,
      "time_usec": 102333589757
    },
    {
      "x": -0.03451388701796532,
      "y": 0.013897184282541275,
      "z": -0.001527163083665073,
      "time_usec": 102333592027
    },
    {
      "x": -0.03329215571284294,
      "y": 0.012675453908741474,
      "z": -0.0027488935738801956,
      "time_usec": 102333594283
    },
    {
      "x": -0.029626963660120964,
      "y": 0.012675453908741474,
      "z": -0.001527163083665073,
      "time_usec": 102333596539
    },
    {
      "x": -0.029626963660120964,
      "y": 0.013744467869400978,
      "z": -0.005192354787141085,
      "time_usec": 102333598792
    },
    {
      "x": -0.028405234217643738,
      "y": 0.017409659922122955,
      "z": -0.0064140851609408855,
      "time_usec": 102333601050
    },
    {
      "x": -0.027030786499381065,
      "y": 0.019853120669722557,
      "z": -0.0039706239476799965,
      "time_usec": 102333603315
    },
    {
      "x": -0.028405234217643738,
      "y": 0.017409659922122955,
      "z": -0.007635815534740686,
      "time_usec": 102333605577
    },
    {
      "x": -0.027030786499381065,
      "y": 0.020922135561704636,
      "z": -0.011301007121801376,
      "time_usec": 102333607826
    },
    {
      "x": -0.023365596309304237,
      "y": 0.01970040425658226,
      "z": -0.011301007121801376,
      "time_usec": 102333610075
    },
    {
      "x": -0.022143865004181862,
      "y": 0.018478672951459885,
      "z": -0.010079276748001575,
      "time_usec": 102333612326
    },
    {
      "x": -0.022143865004181862,
      "y": 0.014813481830060482,
      "z": -0.011301007121801376,
      "time_usec": 102333614598
    },
    {
      "x": -0.01970040425658226,
      "y": 0.013591751456260681,
      "z": -0.011301007121801376,
      "time_usec": 102333616853
    },
    {
      "x": -0.013591751456260681,
      "y": 0.0074830991216003895,
      "z": -0.012522737495601177,
      "time_usec": 102333619110
    },
    {
      "x": -0.014813481830060482,
      "y": 0.0074830991216003895,
      "z": -0.012522737495601177,
      "time_usec": 102333621369
    },
    {
      "x": -0.008704829961061478,
      "y": 0.0025961773935705423,
      "z": -0.014966198243200779,
      "time_usec": 102333623628
    },
    {
      "x": -0.005039638374000788,
      "y": -0.003359758760780096,
      "z": -0.013591751456260681,
      "time_usec": 102333625886
    },
    {
      "x": -0.0025961773935705423,
      "y": -0.005803219974040985,
      "z": -0.014813481830060482,
      "time_usec": 102333628138
    },
    {
      "x": -0.0012217304902151227,
      "y": -0.004734205547720194,
      "z": -0.01725694350898266,
      "time_usec": 102333630391
    },
    {
      "x": 0.0012217304902151227,
      "y": -0.008246680721640587,
      "z": -0.013591751456260681,
      "time_usec": 102333632652
    },
    {
      "x": 0.00366519158706069,
      "y": -0.008399397134780884,
      "z": -0.014813481830060482,
      "time_usec": 102333634907
    },
    {
      "x": 0.00733038317412138,
      "y": -0.007177666760981083,
      "z": -0.01725694350898266,
      "time_usec": 102333637168
    },
    {
      "x": 0.004886921960860491,
      "y": -0.0022907445672899485,
      "z": -0.018478672951459885,
      "time_usec": 102333639421
    },
    {
      "x": 0.009773843921720982,
      "y": -0.008399397134780884,
      "z": -0.018478672951459885,
      "time_usec": 102333641685
    },
    {
      "x": 0.013591751456260681,
      "y": -0.00733038317412138,
      "z": -0.01970040425658226,
      "time_usec": 102333643940
    },
    {
      "x": 0.014813481830060482,
      "y": -0.0024434609804302454,
      "z": -0.018478672951459885,
      "time_usec": 102333646197
    },
    {
      "x": 0.01970040425658226,
      "y": -0.003817907767370343,
      "z": -0.01725694350898266,
      "time_usec": 102333648452
    },
    {
      "x": 0.02229658141732216,
      "y": -0.003817907767370343,
      "z": -0.01970040425658226,
      "time_usec": 102333650705
    },
    {
      "x": 0.02229658141732216,
      "y": -0.0025961773935705423,
      "z": -0.020922135561704636,
      "time_usec": 102333652967
    },
    {
      "x": 0.025961773470044136,
      "y": -0.001527163083665073,
      "z": -0.02076941914856434,
      "time_usec": 102333655224
    },
    {
      "x": 0.025961773470044136,
      "y": 9.162978967651725E-4,
      "z": -0.021991148591041565,
      "time_usec": 102333657482
    },
    {
      "x": 0.025961773470044136,
      "y": 0.002138028386980295,
      "z": -0.019547687843441963,
      "time_usec": 102333659735
    },
    {
      "x": 0.023518312722444534,
      "y": 0.003359758760780096,
      "z": -0.02076941914856434,
      "time_usec": 102333661997
    },
    {
      "x": 0.023518312722444534,
      "y": 0.009468411095440388,
      "z": -0.019547687843441963,
      "time_usec": 102333664252
    },
    {
      "x": 0.02122756652534008,
      "y": 0.01542434748262167,
      "z": -0.019547687843441963,
      "time_usec": 102333666510
    },
    {
      "x": 0.02122756652534008,
      "y": 0.01664607785642147,
      "z": -0.02076941914856434,
      "time_usec": 102333668760
    },
    {
      "x": 0.022449297830462456,
      "y": 0.022602014243602753,
      "z": -0.01710422709584236,
      "time_usec": 102333671018
    },
    {
      "x": 0.01878410577774048,
      "y": 0.02275473065674305,
      "z": -0.02076941914856434,
      "time_usec": 102333673279
    },
    {
      "x": 0.015118914656341076,
      "y": 0.027641652151942253,
      "z": -0.01710422709584236,
      "time_usec": 102333675535
    },
    {
      "x": 0.011301007121801376,
      "y": 0.02886338345706463,
      "z": -0.01710422709584236,
      "time_usec": 102333677796
    },
    {
      "x": 0.011453723534941673,
      "y": 0.03237585723400116,
      "z": -0.01970040425658226,
      "time_usec": 102333680047
    },
    {
      "x": 0.012522737495601177,
      "y": 0.027641652151942253,
      "z": -0.01710422709584236,
      "time_usec": 102333682309
    },
    {
      "x": 0.008857546374201775,
      "y": 0.027641652151942253,
      "z": -0.020922135561704636,
      "time_usec": 102333684561
    },
    {
      "x": 0.010079276748001575,
      "y": 0.02519819140434265,
      "z": -0.022143865004181862,
      "time_usec": 102333686819
    },
    {
      "x": 0.008857546374201775,
      "y": 0.023976460099220276,
      "z": -0.020922135561704636,
      "time_usec": 102333689075
    },
    {
      "x": 0.005192354787141085,
      "y": 0.02168571576476097,
      "z": -0.018478672951459885,
      "time_usec": 102333691338
    },
    {
      "x": 0.003817907767370343,
      "y": 0.02168571576476097,
      "z": -0.018478672951459885,
      "time_usec": 102333693595
    },
    {
      "x": 0.0025961773935705423,
      "y": 0.01924225501716137,
      "z": -0.018478672951459885,
      "time_usec": 102333695851
    },
    {
      "x": 0.0013744467869400978,
      "y": 0.013286318629980087,
      "z": -0.01970040425658226,
      "time_usec": 102333698107
    },
    {
      "x": -0.006108652334660292,
      "y": 0.01466076634824276,
      "z": -0.016035212203860283,
      "time_usec": 102333700360
    },
    {
      "x": -0.00855211354792118,
      "y": 0.013439035043120384,
      "z": -0.014813481830060482,
      "time_usec": 102333702620
    },
    {
      "x": -0.00855211354792118,
      "y": 0.010995574295520782,
      "z": -0.016035212203860283,
      "time_usec": 102333704867
    },
    {
      "x": -0.01237002108246088,
      "y": 0.009926560334861279,
      "z": -0.011301007121801376,
      "time_usec": 102333707136
    },
    {
      "x": -0.01725694350898266,
      "y": 0.014813481830060482,
      "z": -0.008857546374201775,
      "time_usec": 102333709388
    },
    {
      "x": -0.020922135561704636,
      "y": 0.013591751456260681,
      "z": -0.010079276748001575,
      "time_usec": 102333711654
    },
    {
      "x": -0.023365596309304237,
      "y": 0.014966198243200779,
      "z": -0.010079276748001575,
      "time_usec": 102333713909
    },
    {
      "x": -0.02580905705690384,
      "y": 0.014966198243200779,
      "z": -0.008857546374201775,
      "time_usec": 102333716167
    },
    {
      "x": -0.027183502912521362,
      "y": 0.014966198243200779,
      "z": -0.007635815534740686,
      "time_usec": 102333718420
    },
    {
      "x": -0.032070424407720566,
      "y": 0.01618792861700058,
      "z": -0.005192354787141085,
      "time_usec": 102333720673
    },
    {
      "x": -0.03573561832308769,
      "y": 0.016340645030140877,
      "z": -0.005192354787141085,
      "time_usec": 102333722933
    },
    {
