{
  "rotations": [
    {
      "x": -0.013133603148162365,
      "y": -0.19074267148971558,
      "z": -0.05864306539297104,
      "time_usec": 667832927070
    },
    {
      "x": 4.5814894838258624E-4,
      "y": -0.1992947906255722,
      "z": -0.05849034711718559,
      "time_usec": 667832929328
    },
    {
      "x": 0.016493361443281174,
      "y": -0.19715675711631775,
      "z": -0.05100724846124649,
      "time_usec": 667832931586
    },
    {
      "x": 0.032528575509786606,
      "y": -0.18646661937236786,
      "z": -0.049785517156124115,
      "time_usec": 667832933843
    },
    {
      "x": 0.04138612002134323,
      "y": -0.1696678251028061,
      "z": -0.044745877385139465,
      "time_usec": 667832936101
    },
    {
      "x": 0.05009094998240471,
      "y": -0.15057829022407532,
      "z": -0.04214970022439957,
      "time_usec": 667832938360
    },
    {
      "x": 0.05772676691412926,
      "y": -0.1290452778339386,
      "z": -0.03848451003432274,
      "time_usec": 667832940616
    },
    {
      "x": 0.06658431142568588,
      "y": -0.10873401165008545,
      "z": -0.04077525436878204,
      "time_usec": 667832942874
    },
    {
      "x": 0.07284568250179291,
      "y": -0.08827003091573715,
      "z": -0.03573561832308769,
      "time_usec": 667832945131
    },
    {
      "x": 0.07681630551815033,
      "y": -0.06185010448098183,
      "z": -0.03451388701796532,
      "time_usec": 667832947390
    },
    {
      "x": 0.0806342139840126,
      "y": -0.0403171069920063,
      "z": -0.03191770985722542,
      "time_usec": 667832949647
    },
    {
      "x": 0.0832303911447525,
      "y": -0.023365596309304237,
      "z": -0.029474247246980667,
      "time_usec": 667832951901
    },
    {
      "x": 0.08460483700037003,
      "y": -0.009010262787342072,
      "z": -0.027030786499381065,
      "time_usec": 667832954149
    },
    {
      "x": 0.08475755155086517,
      "y": 0.00427605677396059,
      "z": -0.024434609338641167,
      "time_usec": 667832956422
    },
    {
      "x": 0.0835358202457428,
      "y": 0.017562376335263252,
      "z": -0.021991148591041565,
      "time_usec": 667832958678
    },
    {
      "x": 0.08368854224681854,
      "y": 0.019853120669722557,
      "z": -0.024434609338641167,
      "time_usec": 667832960938
    },
    {
      "x": 0.08735372871160507,
      "y": 0.030695978552103043,
      "z": -0.024434609338641167,
      "time_usec": 667832963192
    },
    {
      "x": 0.08491026610136032,
      "y": 0.03436116874217987,
      "z": -0.02321287989616394,
      "time_usec": 667832965450
    },
    {
      "x": 0.08628471940755844,
      "y": 0.042760565876960754,
      "z": -0.02321287989616394,
      "time_usec": 667832967708
    },
    {
      "x": 0.08261952549219131,
      "y": 0.04398229718208313,
      "z": -0.02321287989616394,
      "time_usec": 667832969966
    },
    {
      "x": 0.08139779418706894,
      "y": 0.04764748737215996,
      "z": -0.021991148591041565,
      "time_usec": 667832972220
    },
    {
      "x": 0.08139779418706894,
      "y": 0.04764748737215996,
      "z": -0.021991148591041565,
      "time_usec": 667832974469
    },
    {
      "x": 0.07635815441608429,
      "y": 0.04886921867728233,
      "z": -0.019547687843441963,
      "time_usec": 667832976739
    },
    {
      "x": 0.07513642311096191,
      "y": 0.04764748737215996,
      "z": -0.019547687843441963,
      "time_usec": 667832978997
    },
    {
      "x": 0.07147123664617538,
      "y": 0.04535674303770065,
      "z": -0.01466076634824276,
      "time_usec": 667832981257
    },
    {
      "x": 0.06643159687519073,
      "y": 0.04184427112340927,
      "z": -0.01466076634824276,
      "time_usec": 667832983512
    },
    {
      "x": 0.058948494493961334,
      "y": 0.04077525436878204,
      "z": -0.01114829070866108,
      "time_usec": 667832985769
    },
    {
      "x": 0.05406157299876213,
      "y": 0.033597588539123535,
      "z": -0.009926560334861279,
      "time_usec": 667832988026
    },
    {
      "x": 0.04535674303770065,
      "y": 0.02779436856508255,
      "z": -0.008704829961061478,
      "time_usec": 667832990284
    },
    {
      "x": 0.039095375686883926,
      "y": 0.020616702735424042,
      "z": -0.005192354787141085,
      "time_usec": 667832992540
    },
    {
      "x": 0.03649919852614403,
      "y": 0.010995574295520782,
      "z": -0.005192354787141085,
      "time_usec": 667832994788
    },
    {
      "x": 0.026572637259960175,
      "y": 0.007635815534740686,
      "z": -0.0027488935738801956,
      "time_usec": 667832997056
    },
    {
      "x": 0.017867809161543846,
      "y": 0.0029016099870204926,
      "z": -0.0029016099870204926,
      "time_usec": 667832999309
    },
    {
      "x": 0.007941247895359993,
      "y": -6.108652451075613E-4,
      "z": -0.001679879380390048,
      "time_usec": 667833001575
    },
    {
      "x": -0.0019853119738399982,
      "y": -0.0064140851609408855,
      "z": -0.0029016099870204926,
      "time_usec": 667833003830
    },
    {
      "x": -0.013133603148162365,
      "y": -0.009926560334861279,
      "z": -0.005497787147760391,
      "time_usec": 667833006089
    },
    {
      "x": -0.021838432177901268,
      "y": -0.012217304669320583,
      "z": -0.001832595793530345,
      "time_usec": 667833008346
    },
    {
      "x": -0.030543262138962746,
      "y": -0.01817324012517929,
      "z": -0.0032070425804704428,
      "time_usec": 667833010604
    },
    {
      "x": -0.041691552847623825,
      "y": -0.021532999351620674,
      "z": -0.0019853119738399982,
      "time_usec": 667833012861
    },
    {
      "x": -0.046731192618608475,
      "y": -0.02871066704392433,
      "z": -7.635815418325365E-4,
      "time_usec": 667833015115
    },
    {
      "x": -0.052839845418930054,
      "y": -0.031001411378383636,
      "z": 3.054326225537807E-4,
      "time_usec": 667833017363
    },
    {
      "x": -0.06154467165470123,
      "y": -0.03695734590291977,
      "z": 0.001527163083665073,
      "time_usec": 667833019633
    },
    {
      "x": -0.06414084881544113,
      "y": -0.044135015457868576,
      "z": 0.0064140851609408855,
      "time_usec": 667833021891
    },
    {
      "x": -0.06918048858642578,
      "y": -0.04642575979232788,
      "z": 0.007635815534740686,
      "time_usec": 667833024149
    },
    {
      "x": -0.07284568250179291,
      "y": -0.04993823543190956,
      "z": 0.0064140851609408855,
      "time_usec": 667833026394
    },
    {
      "x": -0.07773260027170181,
      "y": -0.04993823543190956,
      "z": 0.009926560334861279,
      "time_usec": 667833028663
    },
    {
      "x": -0.07406741380691528,
      "y": -0.048716504126787186,
      "z": 0.011301007121801376,
      "time_usec": 667833030908
    },
    {
      "x": -0.07895433157682419,
      "y": -0.04749477282166481,
      "z": 0.01237002108246088,
      "time_usec": 667833033176
    },
    {
      "x": -0.08017606288194656,
      "y": -0.04138612002134323,
      "z": 0.017409659922122955,
      "time_usec": 667833035432
    },
    {
      "x": -0.08017606288194656,
      "y": -0.03298672288656235,
      "z": 0.014966198243200779,
      "time_usec": 667833037693
    },
    {
      "x": -0.08124507963657379,
      "y": -0.023365596309304237,
      "z": 0.017409659922122955,
      "time_usec": 667833039954
    },
    {
      "x": -0.0861319974064827,
      "y": -0.012522737495601177,
      "z": 0.01618792861700058,
      "time_usec": 667833042212
    },
    {
      "x": -0.0861319974064827,
      "y": -0.001679879380390048,
      "z": 0.017409659922122955,
      "time_usec": 667833044474
    },
    {
      "x": -0.08475755155086517,
      "y": 0.006719517521560192,
      "z": 0.019853120669722557,
      "time_usec": 667833046721
    },
    {
      "x": -0.08597928285598755,
      "y": 0.01771509274840355,
      "z": 0.023518312722444534,
      "time_usec": 667833048984
    },
    {
      "x": -0.0858265683054924,
      "y": 0.024892758578062057,
      "z": 0.02474004216492176,
      "time_usec": 667833051241
    },
    {
      "x": -0.0858265683054924,
      "y": 0.03084869496524334,
      "z": 0.02733621932566166,
      "time_usec": 667833053485
    },
    {
      "x": -0.0858265683054924,
      "y": 0.038179077208042145,
      "z": 0.028557950630784035,
      "time_usec": 667833055750
    },
    {
      "x": -0.08704829961061478,
      "y": 0.0429132841527462,
      "z": 0.031001411378383636,
      "time_usec": 667833058007
    },
    {
      "x": -0.08827003091573715,
      "y": 0.047800205647945404,
      "z": 0.02977968007326126,
      "time_usec": 667833060275
    },
    {
      "x": -0.08567385375499725,
      "y": 0.051312681287527084,
      "z": 0.031001411378383636,
      "time_usec": 667833062530
    },
    {
      "x": -0.0907134860754013,
      "y": 0.05268712714314461,
      "z": 0.02977968007326126,
      "time_usec": 667833064787
    },
    {
      "x": -0.08811730891466141,
      "y": 0.05375614017248154,
      "z": 0.028557950630784035,
      "time_usec": 667833067039
    },
    {
      "x": -0.08689557760953903,
      "y": 0.051312681287527084,
      "z": 0.02977968007326126,
      "time_usec": 667833069299
    },
    {
      "x": -0.0858265683054924,
      "y": 0.04657847434282303,
      "z": 0.03222314268350601,
      "time_usec": 667833071547
    },
    {
      "x": -0.08338310569524765,
      "y": 0.04046982154250145,
      "z": 0.031001411378383636,
      "time_usec": 667833073817
    },
    {
      "x": -0.07956519722938538,
      "y": 0.039248090237379074,
      "z": 0.03222314268350601,
      "time_usec": 667833076070
    },
    {
      "x": -0.078343465924263,
      "y": 0.03680463135242462,
      "z": 0.03222314268350601,
      "time_usec": 667833078335
    },
    {
      "x": -0.076052725315094,
      "y": 0.03084869496524334,
      "z": 0.03222314268350601,
      "time_usec": 667833080590
    },
    {
      "x": -0.06979135423898697,
      "y": 0.02474004216492176,
      "z": 0.03222314268350601,
      "time_usec": 667833082850
    },
    {
      "x": -0.06627888232469559,
      "y": 0.017409659922122955,
      "z": 0.03344487398862839,
      "time_usec": 667833085104
    },
    {
      "x": -0.06383541971445084,
      "y": 0.012675453908741474,
      "z": 0.03344487398862839,
      "time_usec": 667833087354
    },
    {
      "x": -0.06017022579908371,
      "y": 0.005345070734620094,
      "z": 0.03344487398862839,
      "time_usec": 667833089607
    },
    {
      "x": -0.05772676691412926,
      "y": 4.5814894838258624E-4,
      "z": 0.03481931984424591,
      "time_usec": 667833091878
    },
    {
      "x": -0.05161811411380768,
      "y": -0.006719517521560192,
      "z": 0.03481931984424591,
      "time_usec": 667833094136
    },
    {
      "x": -0.052839845418930054,
      "y": -0.009162978269159794,
      "z": 0.036041051149368286,
      "time_usec": 667833096391
    },
    {
      "x": -0.046731192618608475,
      "y": -0.012828170321881771,
      "z": 0.03481931984424591,
      "time_usec": 667833098652
    },
    {
      "x": -0.0455094613134861,
      "y": -0.014049900695681572,
      "z": 0.033597588539123535,
      "time_usec": 667833100911
    },
    {
      "x": -0.0429132841527462,
      "y": -0.011759156361222267,
      "z": 0.03481931984424591,
      "time_usec": 667833103169
    },
    {
      "x": -0.04046982154250145,
      "y": -0.00931569468230009,
      "z": 0.033597588539123535,
      "time_usec": 667833105428
    },
    {
      "x": -0.039248090237379074,
      "y": -0.010537425056099892,
      "z": 0.03237585723400116,
      "time_usec": 667833107674
    },
    {
      "x": -0.039248090237379074,
      "y": -0.004581489134579897,
      "z": 0.031154127791523933,
      "time_usec": 667833109928
    },
    {
      "x": -0.0354301854968071,
      "y": -0.002138028386980295,
      "z": 0.029932396486401558,
      "time_usec": 667833112195
    },
    {
      "x": -0.0354301854968071,
      "y": 0.0025961773935705423,
      "z": 0.033597588539123535,
      "time_usec": 667833114448
    },
    {
      "x": -0.03787364438176155,
      "y": 0.008704829961061478,
      "z": 0.031154127791523933,
      "time_usec": 667833116703
    },
    {
      "x": -0.0377209298312664,
      "y": 0.01710422709584236,
      "z": 0.03237585723400116,
      "time_usec": 667833118971
    },
    {
      "x": -0.04153883829712868,
      "y": 0.018325956538319588,
      "z": 0.029932396486401558,
      "time_usec": 667833121229
    },
    {
      "x": -0.040164388716220856,
      "y": 0.02428189292550087,
      "z": 0.033597588539123535,
      "time_usec": 667833123489
    },
    {
      "x": -0.04764748737215996,
      "y": 0.028099801391363144,
      "z": 0.033597588539123535,
      "time_usec": 667833125742
    },
    {
      "x": -0.04749477282166481,
      "y": 0.031612277030944824,
      "z": 0.029932396486401558,
      "time_usec": 667833127998
    },
    {
      "x": -0.05253441259264946,
      "y": 0.03405573591589928,
      "z": 0.029932396486401558,
      "time_usec": 667833130258
    },
    {
      "x": -0.05604688450694084,
      "y": 0.03894266113638878,
      "z": 0.025045474991202354,
      "time_usec": 667833132517
    },
    {
      "x": -0.05849034711718559,
      "y": 0.04382958263158798,
      "z": 0.025045474991202354,
      "time_usec": 667833134779
    },
    {
      "x": -0.06215553730726242,
      "y": 0.04489859566092491,
      "z": 0.017562376335263252,
      "time_usec": 667833137024
    },
    {
      "x": -0.06459899991750717,
      "y": 0.05451972410082817,
      "z": 0.012675453908741474,
      "time_usec": 667833139276
    },
    {
      "x": -0.07070764899253845,
      "y": 0.06062837690114975,
      "z": 0.010231993161141872,
      "time_usec": 667833141545
    },
    {
      "x": -0.07177666574716568,
      "y": 0.07147123664617538,
      "z": 0.0029016099870204926,
      "time_usec": 667833143804
    },
    {
      "x": -0.0754418596625328,
      "y": 0.07864890247583389,
      "z": -7.635815418325365E-4,
      "time_usec": 667833146060
    },
    {
      "x": -0.08277224004268646,
      "y": 0.08720101416110992,
      "z": -0.0032070425804704428,
      "time_usec": 667833148319
    },
    {
      "x": -0.08765916526317596,
      "y": 0.09560041129589081,
      "z": -0.004428773187100887,
      "time_usec": 667833150577
    },
    {
      "x": -0.09865473955869675,
      "y": 0.10415252298116684,
      "z": -0.010690141469240189,
      "time_usec": 667833152836
    },
    {
      "x": -0.1059851199388504,
      "y": 0.11514809727668762,
      "z": -0.010690141469240189,
      "time_usec": 667833155092
    },
    {
      "x": -0.11453723162412643,
      "y": 0.12599095702171326,
      "z": -0.013133603148162365,
      "time_usec": 667833157345
    },
    {
      "x": -0.12064588814973831,
      "y": 0.13454307615756989,
      "z": -0.014355333521962166,
      "time_usec": 667833159604
    },
    {
      "x": -0.12919799983501434,
      "y": 0.15027284622192383,
      "z": -0.013286318629980087,
      "time_usec": 667833161852
    },
    {
      "x": -0.13408492505550385,
      "y": 0.1598939746618271,
      "z": -0.014508049935102463,
      "time_usec": 667833164123
    },
    {
      "x": -0.1414152979850769,
      "y": 0.16844609379768372,
      "z": -0.016951510682702065,
      "time_usec": 667833166376
    },
    {
      "x": -0.14874568581581116,
      "y": 0.17333301901817322,
      "z": -0.01817324012517929,
      "time_usec": 667833168641
    },
    {
      "x": -0.15485434234142303,
      "y": 0.18188512325286865,
      "z": -0.016951510682702065,
      "time_usec": 667833170896
    },
    {
      "x": -0.1609629988670349,
      "y": 0.18906278908252716,
      "z": -0.01817324012517929,
      "time_usec": 667833173157
    },
    {
      "x": -0.1647808998823166,
      "y": 0.1892155110836029,
      "z": -0.018325956538319588,
      "time_usec": 667833175410
    },
    {
      "x": -0.16722436249256134,
      "y": 0.18799377977848053,
      "z": -0.02321287989616394,
      "time_usec": 667833177664
    },
    {
      "x": -0.1696678251028061,
      "y": 0.18325957655906677,
      "z": -0.02076941914856434,
      "time_usec": 667833179926
    },
    {
      "x": -0.16722436249256134,
      "y": 0.17470745742321014,
      "z": -0.025656340643763542,
      "time_usec": 667833182183
    },
    {
      "x": -0.16493362188339233,
      "y": 0.16752979159355164,
      "z": -0.025656340643763542,
      "time_usec": 667833184437
    },
    {
      "x": -0.1612684279680252,
      "y": 0.15531249344348907,
      "z": -0.028099801391363144,
      "time_usec": 667833186691
    },
    {
      "x": -0.15760323405265808,
      "y": 0.14324790239334106,
      "z": -0.03176499158143997,
      "time_usec": 667833188945
    },
    {
      "x": -0.1540907621383667,
      "y": 0.12996158003807068,
      "z": -0.0354301854968071,
      "time_usec": 667833191217
    },
    {
      "x": -0.15042556822299957,
      "y": 0.11423180252313614,
      "z": -0.036651913076639175,
      "time_usec": 667833193474
    },
    {
      "x": -0.14187344908714294,
      "y": 0.098502017557621,
      "z": -0.039095375686883926,
      "time_usec": 667833195728
    },
    {
      "x": -0.1371392458677292,
      "y": 0.08032877743244171,
      "z": -0.04153883829712868,
      "time_usec": 667833197986
    },
    {
      "x": -0.13240504264831543,
      "y": 0.05742133408784866,
      "z": -0.0429132841527462,
      "time_usec": 667833200245
    },
    {
      "x": -0.1287398487329483,
      "y": 0.03695734590291977,
      "z": -0.041691552847623825,
      "time_usec": 667833202502
    },
    {
      "x": -0.12522737681865692,
      "y": 0.016493361443281174,
      "z": -0.03680463135242462,
      "time_usec": 667833204749
    },
    {
      "x": -0.12171489745378494,
      "y": -0.0027488935738801956,
      "z": -0.0429132841527462,
      "time_usec": 667833207013
    },
    {
      "x": -0.11575896292924881,
      "y": -0.022143865004181862,
      "z": -0.04046982154250145,
      "time_usec": 667833209277
    },
    {
      "x": -0.10842858254909515,
      "y": -0.04260785132646561,
      "z": -0.038026362657547,
      "time_usec": 667833211536
    },
    {
      "x": -0.10613783448934555,
      "y": -0.06062837690114975,
      "z": -0.038026362657547,
      "time_usec": 667833213791
    },
    {
      "x": -0.09758572280406952,
      "y": -0.07880161702632904,
      "z": -0.03436116874217987,
      "time_usec": 667833216044
    },
    {
      "x": -0.08903361111879349,
      "y": -0.0910189226269722,
      "z": -0.03191770985722542,
      "time_usec": 667833218307
    },
    {
      "x": -0.08429940044879913,
      "y": -0.10308351367712021,
      "z": -0.03191770985722542,
      "time_usec": 667833220565
    },
    {
      "x": -0.08429940044879913,
      "y": -0.11392636597156525,
      "z": -0.03191770985722542,
      "time_usec": 667833222823
    },
    {
      "x": -0.07819075137376785,
      "y": -0.12232576310634613,
      "z": -0.030695978552103043,
      "time_usec": 667833225078
    },
    {
      "x": -0.07208210229873657,
      "y": -0.12599095702171326,
      "z": -0.02932153269648552,
      "time_usec": 667833227333
    },
    {
      "x": -0.06841690838336945,
      "y": -0.12858712673187256,
      "z": -0.03420845419168472,
      "time_usec": 667833229594
    },
    {
      "x": -0.0633772686123848,
      "y": -0.12858712673187256,
      "z": -0.03298672288656235,
      "time_usec": 667833231852
    },
    {
      "x": -0.05971207842230797,
      "y": -0.12263119965791702,
      "z": -0.0354301854968071,
      "time_usec": 667833234099
    },
    {
      "x": -0.05467243865132332,
      "y": -0.11789698898792267,
      "z": -0.0354301854968071,
      "time_usec": 667833236366
    },
    {
      "x": -0.05345070734620094,
      "y": -0.11545353382825851,
      "z": -0.0354301854968071,
      "time_usec": 667833238628
    },
    {
      "x": -0.05207626149058342,
      "y": -0.10949759185314178,
      "z": -0.03298672288656235,
      "time_usec": 667833240886
    },
    {
      "x": -0.04963280260562897,
      "y": -0.10231992602348328,
      "z": -0.031612277030944824,
      "time_usec": 667833243142
    },
    {
      "x": -0.04459316283464432,
      "y": -0.09514226019382477,
      "z": -0.03039054572582245,
      "time_usec": 667833245399
    },
    {
      "x": -0.04337143152952194,
      "y": -0.08903361111879349,
      "z": -0.025503624230623245,
      "time_usec": 667833247651
    },
    {
      "x": -0.04337143152952194,
      "y": -0.08674286305904388,
      "z": -0.023060163483023643,
      "time_usec": 667833249913
    },
    {
      "x": -0.04337143152952194,
      "y": -0.08552113175392151,
      "z": -0.021838432177901268,
      "time_usec": 667833252172
    },
    {
      "x": -0.04077525436878204,
      "y": -0.0806342139840126,
      "z": -0.020463986322283745,
      "time_usec": 667833254432
    },
    {
      "x": -0.04199698567390442,
      "y": -0.07819075137376785,
      "z": -0.01924225501716137,
      "time_usec": 667833256681
    },
    {
      "x": -0.03955352306365967,
      "y": -0.07590000331401825,
      "z": -0.018020525574684143,
      "time_usec": 667833258944
    },
    {
      "x": -0.03833179548382759,
      "y": -0.07590000331401825,
      "z": -0.01924225501716137,
      "time_usec": 667833261198
    },
    {
      "x": -0.03588833287358284,
      "y": -0.07223481684923172,
      "z": -0.016798794269561768,
      "time_usec": 667833263448
    },
    {
      "x": -0.032070424407720566,
      "y": -0.06994406878948212,
      "z": -0.020463986322283745,
      "time_usec": 667833265711
    },
    {
      "x": -0.029626963660120964,
      "y": -0.07116580009460449,
      "z": -0.022907447069883347,
      "time_usec": 667833267967
    },
    {
      "x": -0.027030786499381065,
      "y": -0.06520986557006836,
      "z": -0.024129176512360573,
      "time_usec": 667833270222
    },
    {
      "x": -0.020922135561704636,
      "y": -0.06414084881544113,
      "z": -0.023976460099220276,
      "time_usec": 667833272490
    },
    {
      "x": -0.02076941914856434,
      "y": -0.055741455405950546,
      "z": -0.027641652151942253,
      "time_usec": 667833274744
    },
    {
      "x": -0.018325956538319588,
      "y": -0.05100724846124649,
      "z": -0.027641652151942253,
      "time_usec": 667833277003
    },
    {
      "x": -0.01572977937757969,
      "y": -0.04734205827116966,
      "z": -0.02886338345706463,
      "time_usec": 667833279263
    },
    {
      "x": -0.01572977937757969,
      "y": -0.04260785132646561,
      "z": -0.030085112899541855,
      "time_usec": 667833281522
    },
    {
      "x": -0.016951510682702065,
      "y": -0.03649919852614403,
      "z": -0.03375030308961868,
      "time_usec": 667833283778
    },
    {
      "x": -0.014355333521962166,
      "y": -0.03298672288656235,
      "z": -0.03497203439474106,
      "time_usec": 667833286030
    },
    {
      "x": -0.014355333521962166,
      "y": -0.027030786499381065,
      "z": -0.03741549700498581,
      "time_usec": 667833288294
    },
    {
      "x": -0.014355333521962166,
      "y": -0.027030786499381065,
      "z": -0.03985895588994026,
      "time_usec": 667833290551
    },
    {
      "x": -0.015577063895761967,
      "y": -0.023365596309304237,
      "z": -0.04352414980530739,
      "time_usec": 667833292808
    },
    {
      "x": -0.01924225501716137,
      "y": -0.01618792861700058,
      "z": -0.047189339995384216,
      "time_usec": 667833295056
    },
    {
      "x": -0.022907447069883347,
      "y": -0.012522737495601177,
      "z": -0.047189339995384216,
      "time_usec": 667833297319
    },
    {
      "x": -0.02535090781748295,
      "y": -0.013744467869400978,
      "z": -0.04734205827116966,
      "time_usec": 667833299583
    },
    {
      "x": -0.030237829312682152,
      "y": -0.007635815534740686,
      "z": -0.04734205827116966,
      "time_usec": 667833301841
    },
    {
      "x": -0.03145955875515938,
      "y": -4.5814894838258624E-4,
      "z": -0.04734205827116966,
      "time_usec": 667833304097
    },
    {
      "x": -0.03634648025035858,
      "y": 0.002138028386980295,
      "z": -0.04856378585100174,
      "time_usec": 667833306349
    },
    {
      "x": -0.03878994286060333,
      "y": 0.004581489134579897,
      "z": -0.04612032696604729,
      "time_usec": 667833308612
    },
    {
      "x": -0.043676864355802536,
      "y": 0.008246680721640587,
      "z": -0.04612032696604729,
      "time_usec": 667833310869
    },
    {
      "x": -0.04245513305068016,
      "y": 0.009468411095440388,
      "z": -0.04245513305068016,
      "time_usec": 667833313129
    },
    {
      "x": -0.046273041516542435,
      "y": 0.003359758760780096,
      "z": -0.04489859566092491,
      "time_usec": 667833315385
    },
    {
      "x": -0.048716504126787186,
      "y": 0.003512475173920393,
      "z": -0.043676864355802536,
      "time_usec": 667833317640
    },
    {
      "x": -0.04993823543190956,
      "y": -1.5271631127689034E-4,
      "z": -0.03756821155548096,
      "time_usec": 667833319900
    },
    {
      "x": -0.05009094998240471,
      "y": -0.00366519158706069,
      "z": -0.03756821155548096,
      "time_usec": 667833322158
    },
    {
      "x": -0.05009094998240471,
      "y": -0.00733038317412138,
      "z": -0.035124752670526505,
      "time_usec": 667833324416
    },
    {
      "x": -0.05009094998240471,
      "y": -0.01572977937757969,
      "z": -0.032681290060281754,
      "time_usec": 667833326668
    },
    {
      "x": -0.04902193695306778,
      "y": -0.020463986322283745,
      "z": -0.03145955875515938,
      "time_usec": 667833328931
    },
    {
      "x": -0.047800205647945404,
      "y": -0.029016099870204926,
      "z": -0.032681290060281754,
      "time_usec": 667833331187
    },
    {
      "x": -0.04902193695306778,
      "y": -0.032528575509786606,
      "z": -0.03145955875515938,
      "time_usec": 667833333441
    },
    {
      "x": -0.050243668258190155,
      "y": -0.03130684420466423,
      "z": -0.030237829312682152,
      "time_usec": 667833335697
    },
    {
      "x": -0.05406157299876213,
      "y": -0.03481931984424591,
      "z": -0.02779436856508255,
      "time_usec": 667833337948
    },
    {
      "x": -0.052839845418930054,
      "y": -0.036041051149368286,
      "z": -0.024129176512360573,
      "time_usec": 667833340208
    },
    {
      "x": -0.052839845418930054,
      "y": -0.04077525436878204,
      "z": -0.024129176512360573,
      "time_usec": 667833342479
    },
    {
      "x": -0.05406157299876213,
      "y": -0.043218716979026794,
      "z": -0.02672535367310047,
      "time_usec": 667833344740
    },
    {
      "x": -0.05161811411380768,
      "y": -0.04092797264456749,
      "z": -0.022907447069883347,
      "time_usec": 667833346990
    },
    {
      "x": -0.05161811411380768,
      "y": -0.04444044828414917,
      "z": -0.020463986322283745,
      "time_usec": 667833349250
    },
    {
      "x": -0.051770828664302826,
      "y": -0.04688390716910362,
      "z": -0.018020525574684143,
      "time_usec": 667833351507
    },
    {
      "x": -0.051770828664302826,
      "y": -0.04566217586398125,
      "z": -0.013133603148162365,
      "time_usec": 667833353765
    },
    {
      "x": -0.05161811411380768,
      "y": -0.043218716979026794,
      "z": -0.01191187184303999,
      "time_usec": 667833356018
    },
    {
      "x": -0.04917465150356293,
      "y": -0.04199698567390442,
      "z": -0.010690141469240189,
      "time_usec": 667833358280
    },
    {
      "x": -0.0455094613134861,
      "y": -0.04444044828414917,
      "z": -0.008246680721640587,
      "time_usec": 667833360538
    },
    {
      "x": -0.040622539818286896,
      "y": -0.04566217586398125,
      "z": -0.007024950347840786,
      "time_usec": 667833362796
    },
    {
      "x": -0.040622539818286896,
      "y": -0.04444044828414917,
      "z": -0.005650503560900688,
      "time_usec": 667833365049
    },
    {
      "x": -0.03680463135242462,
      "y": -0.04092797264456749,
      "z": -0.00809396430850029,
      "time_usec": 667833367306
    },
    {
      "x": -0.038026362657547,
      "y": -0.04092797264456749,
      "z": -0.005650503560900688,
      "time_usec": 667833369569
    },
    {
      "x": -0.035582900047302246,
      "y": -0.04214970022439957,
      "z": -0.004428773187100887,
      "time_usec": 667833371825
    },
    {
      "x": -0.033139441162347794,
      "y": -0.03848451003432274,
      "z": -7.635815418325365E-4,
      "time_usec": 667833374072
    },
    {
      "x": -0.027030786499381065,
      "y": -0.03741549700498581,
      "z": -0.0019853119738399982,
      "time_usec": 667833376333
    },
    {
      "x": -0.030695978552103043,
      "y": -0.036193765699863434,
      "z": -0.005650503560900688,
      "time_usec": 667833378587
    },
    {
      "x": -0.029474247246980667,
      "y": -0.03497203439474106,
      "z": -0.0032070425804704428,
      "time_usec": 667833380860
    },
    {
      "x": -0.029474247246980667,
      "y": -0.03497203439474106,
      "z": -0.004428773187100887,
      "time_usec": 667833383116
    },
    {
      "x": -0.029474247246980667,
      "y": -0.036193765699863434,
      "z": -7.635815418325365E-4,
      "time_usec": 667833385374
    },
    {
      "x": -0.03191770985722542,
      "y": -0.038637228310108185,
      "z": -0.0019853119738399982,
      "time_usec": 667833387625
    },
    {
      "x": -0.030695978552103043,
      "y": -0.03985895588994026,
      "z": -0.0032070425804704428,
      "time_usec": 667833389890
    },
    {
      "x": -0.03436116874217987,
      "y": -0.03726277872920036,
      "z": -0.0019853119738399982,
      "time_usec": 667833392146
    },
    {
      "x": -0.03436116874217987,
      "y": -0.03497203439474106,
      "z": -7.635815418325365E-4,
      "time_usec": 667833394403
    },
    {
      "x": -0.038026362657547,
      "y": -0.03130684420466423,
      "z": -0.004428773187100887,
      "time_usec": 667833396655
    },
    {
      "x": -0.04046982154250145,
      "y": -0.026419922709465027,
      "z": -0.0032070425804704428,
      "time_usec": 667833398917
    },
    {
      "x": -0.04657847434282303,
      "y": -0.02519819140434265,
      "z": -0.0019853119738399982,
      "time_usec": 667833401171
    },
    {
      "x": -0.047800205647945404,
      "y": -0.020311269909143448,
      "z": -0.0019853119738399982,
      "time_usec": 667833403429
    },
    {
      "x": -0.047800205647945404,
      "y": -0.019089538604021072,
      "z": -0.0019853119738399982,
      "time_usec": 667833405685
    },
    {
      "x": -0.05390885844826698,
      "y": -0.008246680721640587,
      "z": -0.0032070425804704428,
      "time_usec": 667833407945
    },
    {
      "x": -0.05757404863834381,
      "y": -0.003359758760780096,
      "z": -0.004581489134579897,
      "time_usec": 667833410206
    },
    {
      "x": -0.06123924255371094,
      "y": 0.003817907767370343,
      "z": -0.007024950347840786,
      "time_usec": 667833412461
    },
    {
      "x": -0.06368270516395569,
      "y": 0.01114829070866108,
      "z": -0.009468411095440388,
      "time_usec": 667833414722
    },
    {
      "x": -0.06719517707824707,
      "y": 0.02076941914856434,
      "z": -0.01191187184303999,
      "time_usec": 667833416974
    },
    {
      "x": -0.06963863968849182,
      "y": 0.027947084978222847,
      "z": -0.013133603148162365,
      "time_usec": 667833419238
    },
    {
      "x": -0.07208210229873657,
      "y": 0.03756821155548096,
      "z": -0.018020525574684143,
      "time_usec": 667833421494
    },
    {
      "x": -0.0731511116027832,
      "y": 0.047189339995384216,
      "z": -0.018020525574684143,
      "time_usec": 667833423750
    },
    {
      "x": -0.0731511116027832,
      "y": 0.05451972410082817,
      "z": -0.020463986322283745,
      "time_usec": 667833426005
    },
    {
      "x": -0.07925976812839508,
      "y": 0.060475658625364304,
      "z": -0.022907447069883347,
      "time_usec": 667833428268
    },
    {
      "x": -0.0780380368232727,
      "y": 0.05803219974040985,
      "z": -0.024129176512360573,
      "time_usec": 667833430526
    },
    {
      "x": -0.08170322328805923,
      "y": 0.055741455405950546,
      "z": -0.02779436856508255,
      "time_usec": 667833432784
    },
    {
      "x": -0.08552113175392151,
      "y": 0.053297992795705795,
      "z": -0.026572637259960175,
      "time_usec": 667833435038
    },
    {
      "x": -0.08552113175392151,
      "y": 0.04612032696604729,
      "z": -0.029168816283345222,
      "time_usec": 667833437288
    },
    {
      "x": -0.08552113175392151,
      "y": 0.03894266113638878,
      "z": -0.025503624230623245,
      "time_usec": 667833439556
    },
    {
      "x": -0.08811730891466141,
      "y": 0.030543262138962746,
      "z": -0.02672535367310047,
      "time_usec": 667833441814
    },
    {
      "x": -0.09437867999076843,
      "y": 0.022143865004181862,
      "z": -0.027947084978222847,
      "time_usec": 667833444073
    },
    {
      "x": -0.09437867999076843,
      "y": 0.01618792861700058,
      "z": -0.02672535367310047,
      "time_usec": 667833446324
    },
    {
      "x": -0.09575312584638596,
      "y": 0.005345070734620094,
      "z": -0.028099801391363144,
      "time_usec": 667833448586
    },
    {
      "x": -0.09957103431224823,
      "y": -0.005345070734620094,
      "z": -0.02687807008624077,
      "time_usec": 667833450844
    },
    {
      "x": -0.10216721147298813,
      "y": -0.017409659922122955,
      "z": -0.024434609338641167,
      "time_usec": 667833453103
    },
    {
      "x": -0.10216721147298813,
      "y": -0.02687807008624077,
      "z": -0.02076941914856434,
      "time_usec": 667833455358
    },
    {
      "x": -0.1059851199388504,
      "y": -0.04245513305068016,
      "z": -0.018325956538319588,
      "time_usec": 667833457610
    },
    {
      "x": -0.1085812970995903,
      "y": -0.050854530185461044,
      "z": -0.01466076634824276,
      "time_usec": 667833459870
    },
    {
      "x": -0.10873401165008545,
      "y": -0.06414084881544113,
      "z": -0.01114829070866108,
      "time_usec": 667833462134
    },
    {
      "x": -0.1062905490398407,
      "y": -0.07131851464509964,
      "z": -0.00733038317412138,
      "time_usec": 667833464390
    },
    {
      "x": -0.10766500234603882,
      "y": -0.07849618047475815,
      "z": -0.0024434609804302454,
      "time_usec": 667833466643
    },
    {
      "x": -0.10277807712554932,
      "y": -0.08933904021978378,
      "z": -0.0012217304902151227,
      "time_usec": 667833468905
    },
    {
      "x": -0.10170906037092209,
      "y": -0.10018189996480942,
      "z": 0.0,
      "time_usec": 667833471163
    },
    {
      "x": -0.09804387390613556,
      "y": -0.10018189996480942,
      "z": 0.006108652334660292,
      "time_usec": 667833473424
    },
    {
      "x": -0.09437867999076843,
      "y": -0.10735956579446793,
      "z": 0.012217304669320583,
      "time_usec": 667833475672
    },
    {
      "x": -0.09437867999076843,
      "y": -0.11453723162412643,
      "z": 0.01466076634824276,
      "time_usec": 667833477931
    },
    {
      "x": -0.09315694868564606,
      "y": -0.11698069423437119,
      "z": 0.02076941914856434,
      "time_usec": 667833480192
    },
    {
      "x": -0.09208793938159943,
      "y": -0.12064588814973831,
      "z": 0.019547687843441963,
      "time_usec": 667833482447
    },
    {
      "x": -0.09575312584638596,
      "y": -0.12049316614866257,
      "z": 0.024434609338641167,
      "time_usec": 667833484709
    },
    {
      "x": -0.0933096632361412,
      "y": -0.11820242553949356,
      "z": 0.02321287989616394,
      "time_usec": 667833486961
    },
    {
      "x": -0.09193521738052368,
      "y": -0.11575896292924881,
      "z": 0.02321287989616394,
      "time_usec": 667833489225
    },
    {
      "x": -0.09453139454126358,
      "y": -0.11331550031900406,
      "z": 0.02687807008624077,
      "time_usec": 667833491484
    },
    {
      "x": -0.09560041129589081,
      "y": -0.1036943718791008,
      "z": 0.02825251780450344,
      "time_usec": 667833493747
    },
    {
      "x": -0.09804387390613556,
      "y": -0.09407325088977814,
      "z": 0.025656340643763542,
      "time_usec": 667833495989
    },
    {
      "x": -0.09911288321018219,
      "y": -0.08552113175392151,
      "z": 0.027030786499381065,
      "time_usec": 667833498239
    },
    {
      "x": -0.09789115190505981,
      "y": -0.06872233748435974,
      "z": 0.029474247246980667,
      "time_usec": 667833500496
    },
    {
      "x": -0.09773843735456467,
      "y": -0.057879481464624405,
      "z": 0.029474247246980667,
      "time_usec": 667833502763
    },
    {
      "x": -0.09636399149894714,
      "y": -0.04230241850018501,
      "z": 0.030695978552103043,
      "time_usec": 667833505016
    },
    {
      "x": -0.09636399149894714,
      "y": -0.03145955875515938,
      "z": 0.03329215571284294,
      "time_usec": 667833507283
    },
    {
      "x": -0.096211276948452,
      "y": -0.019394971430301666,
      "z": 0.032070424407720566,
      "time_usec": 667833509544
    },
    {
      "x": -0.09605856239795685,
      "y": -0.0074830991216003895,
      "z": 0.03329215571284294,
      "time_usec": 667833511803
    },
    {
      "x": -0.09605856239795685,
      "y": 0.005803219974040985,
      "z": 0.03573561832308769,
      "time_usec": 667833514058
    },
    {
      "x": -0.09468411654233932,
      "y": 0.01664607785642147,
      "z": 0.03329215571284294,
      "time_usec": 667833516312
    },
    {
      "x": -0.09575312584638596,
      "y": 0.025045474991202354,
      "z": 0.029626963660120964,
      "time_usec": 667833518573
    },
    {
      "x": -0.09453139454126358,
      "y": 0.034666601568460464,
      "z": 0.025961773470044136,
      "time_usec": 667833520830
    },
    {
      "x": -0.09437867999076843,
      "y": 0.03940080851316452,
      "z": 0.025961773470044136,
      "time_usec": 667833523089
    },
    {
      "x": -0.09682214260101318,
      "y": 0.04184427112340927,
      "z": 0.023518312722444534,
      "time_usec": 667833525345
    },
    {
      "x": -0.09804387390613556,
      "y": 0.0455094613134861,
      "z": 0.023518312722444534,
      "time_usec": 667833527598
    },
    {
      "x": -0.09315694868564606,
      "y": 0.04184427112340927,
      "z": 0.019853120669722557,
      "time_usec": 667833529857
    },
    {
      "x": -0.09315694868564606,
      "y": 0.03940080851316452,
      "z": 0.02474004216492176,
      "time_usec": 667833532118
    },
    {
      "x": -0.09575312584638596,
      "y": 0.038179077208042145,
      "z": 0.02474004216492176,
      "time_usec": 667833534373
    },
    {
      "x": -0.09315694868564606,
      "y": 0.03573561832308769,
      "z": 0.02229658141732216,
      "time_usec": 667833536632
    },
    {
      "x": -0.09208793938159943,
      "y": 0.03222314268350601,
      "z": 0.027183502912521362,
      "time_usec": 667833538887
    },
    {
      "x": -0.0884227454662323,
      "y": 0.024892758578062057,
      "z": 0.02474004216492176,
      "time_usec": 667833541151
    },
    {
      "x": -0.0884227454662323,
      "y": 0.024892758578062057,
      "z": 0.023518312722444534,
      "time_usec": 667833543407
    },
    {
      "x": -0.08597928285598755,
      "y": 0.020005837082862854,
      "z": 0.02229658141732216,
      "time_usec": 667833545660
    },
    {
      "x": -0.08231408894062042,
      "y": 0.01160643994808197,
      "z": 0.021074850112199783,
      "time_usec": 667833547917
    },
    {
      "x": -0.07727445662021637,
      "y": 0.009010262787342072,
      "z": 0.01863138936460018,
      "time_usec": 667833550180
    },
    {
      "x": -0.06994406878948212,
      "y": 0.004123340360820293,
      "z": 0.016340645030140877,
      "time_usec": 667833552433
    },
    {
      "x": -0.06505715101957321,
      "y": -7.635815418325365E-4,
      "z": 0.012675453908741474,
      "time_usec": 667833554683
    },
    {
      "x": -0.06017022579908371,
      "y": -0.005650503560900688,
      "z": 0.012675453908741474,
      "time_usec": 667833556948
    },
    {
      "x": -0.05772676691412926,
      "y": -0.00809396430850029,
      "z": 0.010231993161141872,
      "time_usec": 667833559209
    },
    {
      "x": -0.05406157299876213,
      "y": -0.011759156361222267,
      "z": 0.007788531947880983,
      "time_usec": 667833561456
    },
    {
      "x": -0.04902193695306778,
      "y": -0.01542434748262167,
      "z": 0.004123340360820293,
      "time_usec": 667833563713
    },
    {
      "x": -0.041691552847623825,
      "y": -0.019089538604021072,
      "z": 0.004123340360820293,
      "time_usec": 667833565976
    },
    {
      "x": -0.038026362657547,
      "y": -0.018020525574684143,
      "z": 0.004123340360820293,
      "time_usec": 667833568234
    },
    {
      "x": -0.03176499158143997,
      "y": -0.018020525574684143,
      "z": 0.004123340360820293,
      "time_usec": 667833570502
    },
    {
      "x": -0.028099801391363144,
      "y": -0.020616702735424042,
      "z": 0.001832595793530345,
      "time_usec": 667833572749
    },
    {
      "x": -0.02428189292550087,
      "y": -0.012217304669320583,
      "z": 6.108652451075613E-4,
      "time_usec": 667833575004
    },
    {
      "x": -0.020616702735424042,
      "y": -0.008704829961061478,
      "z": -6.108652451075613E-4,
      "time_usec": 667833577261
    },
    {
      "x": -0.015577063895761967,
      "y": -0.001527163083665073,
      "z": -6.108652451075613E-4,
      "time_usec": 667833579518
    },
    {
      "x": -0.011759156361222267,
      "y": 0.006872233934700489,
      "z": -0.001832595793530345,
      "time_usec": 667833581777
    },
    {
      "x": -0.010537425056099892,
      "y": 0.01038470957428217,
      "z": -0.00427605677396059,
      "time_usec": 667833584045
    },
    {
      "x": -0.006719517521560192,
      "y": 0.02367102913558483,
      "z": -0.0029016099870204926,
      "time_usec": 667833586300
    },
    {
      "x": -0.004123340360820293,
      "y": 0.03680463135242462,
      "z": -0.0065668015740811825,
      "time_usec": 667833588561
    },
    {
      "x": -0.0027488935738801956,
      "y": 0.045204028487205505,
      "z": -0.004123340360820293,
      "time_usec": 667833590802
    },
    {
      "x": -0.0027488935738801956,
      "y": 0.051312681287527084,
      "z": -0.005345070734620094,
      "time_usec": 667833593061
    },
    {
      "x": 0.0022907445672899485,
      "y": 0.05604688450694084,
      "z": -0.0039706239476799965,
      "time_usec": 667833595317
    },
    {
      "x": 0.004734205547720194,
      "y": 0.06429356336593628,
      "z": -0.0064140851609408855,
      "time_usec": 667833597581
    },
    {
      "x": 0.0024434609804302454,
      "y": 0.07162395119667053,
      "z": -0.007635815534740686,
      "time_usec": 667833599849
    },
    {
      "x": -0.0,
      "y": 0.07528914511203766,
      "z": -0.005192354787141085,
      "time_usec": 667833602106
    },
    {
      "x": -0.0,
      "y": 0.07773260027170181,
      "z": -0.0064140851609408855,
      "time_usec": 667833604356
    },
    {
      "x": -0.0025961773935705423,
      "y": 0.07651086896657944,
      "z": -0.005192354787141085,
      "time_usec": 667833606616
    },
    {
      "x": -0.0025961773935705423,
      "y": 0.07528914511203766,
      "z": -0.0064140851609408855,
      "time_usec": 667833608864
    },
    {
      "x": -0.003817907767370343,
      "y": 0.07284568250179291,
      "z": -0.0039706239476799965,
      "time_usec": 667833611124
    },
    {
      "x": -0.0074830991216003895,
      "y": 0.06933320313692093,
      "z": -0.004123340360820293,
      "time_usec": 667833613379
    },
    {
      "x": -0.010079276748001575,
      "y": 0.0633772686123848,
      "z": -0.004123340360820293,
      "time_usec": 667833615641
    },
    {
      "x": -0.012675453908741474,
      "y": 0.05375614017248154,
      "z": -0.005345070734620094,
      "time_usec": 667833617908
    },
    {
      "x": -0.016340645030140877,
      "y": 0.04306599870324135,
      "z": -0.004123340360820293,
      "time_usec": 667833620167
    },
    {
      "x": -0.018936822190880775,
      "y": 0.03222314268350601,
      "z": -0.00427605677396059,
      "time_usec": 667833622415
    },
    {
      "x": -0.026419922709465027,
      "y": 0.020311269909143448,
      "z": -0.003054326167330146,
      "time_usec": 667833624681
    },
    {
      "x": -0.030237829312682152,
      "y": 0.005955935921519995,
      "z": -0.005497787147760391,
      "time_usec": 667833626927
    },
    {
      "x": -0.03527746722102165,
      "y": -0.004886921960860491,
      "z": -0.00809396430850029,
      "time_usec": 667833629200
    },
    {
      "x": -0.036651913076639175,
      "y": -0.01924225501716137,
      "z": -0.00809396430850029,
      "time_usec": 667833631451
    },
    {
      "x": -0.04046982154250145,
      "y": -0.027641652151942253,
      "z": -0.00931569468230009,
      "time_usec": 667833633715
    },
    {
      "x": -0.0455094613134861,
      "y": -0.036041051149368286,
      "z": -0.010690141469240189,
      "time_usec": 667833635965
    },
    {
      "x": -0.046731192618608475,
      "y": -0.043218716979026794,
      "z": -0.01191187184303999,
      "time_usec": 667833638229
    },
    {
      "x": -0.05054909735918045,
      "y": -0.05161811411380768,
      "z": -0.010690141469240189,
      "time_usec": 667833640486
    },
    {
      "x": -0.054367005825042725,
      "y": -0.06001751124858856,
      "z": -0.009468411095440388,
      "time_usec": 667833642746
    },
    {
      "x": -0.056810468435287476,
      "y": -0.06719517707824707,
      "z": -0.008246680721640587,
      "time_usec": 667833645000
    },
    {
      "x": -0.05696318298578262,
      "y": -0.0731511116027832,
      "z": -0.005803219974040985,
      "time_usec": 667833647254
    },
    {
      "x": -0.05696318298578262,
      "y": -0.07910704612731934,
      "z": -0.004734205547720194,
      "time_usec": 667833649517
    },
    {
      "x": -0.05696318298578262,
      "y": -0.08521570265293121,
      "z": -0.005955935921519995,
      "time_usec": 667833651776
    },
    {
      "x": -0.05955936014652252,
      "y": -0.08994990587234497,
      "z": -0.007177666760981083,
      "time_usec": 667833654032
    },
    {
      "x": -0.06200282275676727,
      "y": -0.0936150997877121,
      "z": -0.008399397134780884,
      "time_usec": 667833656284
    },
    {
      "x": -0.05955936014652252,
      "y": -0.09605856239795685,
      "z": -0.010842857882380486,
      "time_usec": 667833658547
    },
    {
      "x": -0.05955936014652252,
      "y": -0.0936150997877121,
      "z": -0.013286318629980087,
      "time_usec": 667833660806
    },
    {
      "x": -0.058184914290905,
      "y": -0.08765916526317596,
      "z": -0.013286318629980087,
      "time_usec": 667833663064
    },
    {
      "x": -0.055741455405950546,
      "y": -0.08643743395805359,
      "z": -0.013286318629980087,
      "time_usec": 667833665318
    },
    {
      "x": -0.05451972410082817,
      "y": -0.08048149943351746,
      "z": -0.016951510682702065,
      "time_usec": 667833667572
    },
    {
      "x": -0.05192354694008827,
      "y": -0.07452555745840073,
      "z": -0.016951510682702065,
      "time_usec": 667833669832
    },
    {
      "x": -0.0555887371301651,
      "y": -0.06475171446800232,
      "z": -0.014508049935102463,
      "time_usec": 667833672093
    },
    {
      "x": -0.05543602257966995,
      "y": -0.05757404863834381,
      "z": -0.015577063895761967,
      "time_usec": 667833674351
    },
    {
      "x": -0.051770828664302826,
      "y": -0.05161811411380768,
      "z": -0.009468411095440388,
      "time_usec": 667833676605
    },
    {
      "x": -0.04795292019844055,
      "y": -0.04444044828414917,
      "z": -0.013133603148162365,
      "time_usec": 667833678866
    },
    {
      "x": -0.0455094613134861,
      "y": -0.03726277872920036,
      "z": -0.009468411095440388,
      "time_usec": 667833681114
    },
    {
      "x": -0.04535674303770065,
      "y": -0.02886338345706463,
      "z": -0.005650503560900688,
      "time_usec": 667833683381
    },
    {
      "x": -0.0429132841527462,
      "y": -0.02275473065674305,
      "z": 4.5814894838258624E-4,
      "time_usec": 667833685632
    },
    {
      "x": -0.044135015457868576,
      "y": -0.01664607785642147,
      "z": 0.0029016099870204926,
      "time_usec": 667833687894
    },
    {
      "x": -0.039095375686883926,
      "y": -0.013133603148162365,
      "z": 0.004123340360820293,
      "time_usec": 667833690154
    },
    {
      "x": -0.03787364438176155,
      "y": -0.010690141469240189,
      "z": 0.0065668015740811825,
      "time_usec": 667833692410
    },
    {
      "x": -0.03787364438176155,
      "y": -0.004734205547720194,
      "z": 0.007941247895359993,
      "time_usec": 667833694657
    },
    {
      "x": -0.0328340083360672,
      "y": -0.0012217304902151227,
      "z": 0.007941247895359993,
      "time_usec": 667833696923
    },
    {
      "x": -0.03649919852614403,
      "y": 0.0024434609804302454,
      "z": 0.009162978269159794,
      "time_usec": 667833699184
    },
    {
      "x": -0.03787364438176155,
      "y": 0.00366519158706069,
      "z": 0.009162978269159794,
      "time_usec": 667833701441
    },
    {
      "x": -0.03527746722102165,
      "y": -0.0,
      "z": 0.007941247895359993,
      "time_usec": 667833703700
    },
    {
      "x": -0.0328340083360672,
      "y": 0.0024434609804302454,
      "z": 0.009162978269159794,
      "time_usec": 667833705952
    },
    {
      "x": -0.031612277030944824,
      "y": 0.007177666760981083,
      "z": 0.01160643994808197,
      "time_usec": 667833708217
    },
    {
      "x": -0.03405573591589928,
      "y": 0.008399397134780884,
      "z": 0.01160643994808197,
      "time_usec": 667833710474
    },
    {
      "x": -0.03039054572582245,
      "y": 0.007177666760981083,
      "z": 0.015271631069481373,
      "time_usec": 667833712733
    },
    {
      "x": -0.029168816283345222,
      "y": 0.013286318629980087,
      "z": 0.016493361443281174,
      "time_usec": 667833714988
    },
    {
      "x": -0.029016099870204926,
      "y": 0.018020525574684143,
      "z": 0.015271631069481373,
      "time_usec": 667833717241
    },
    {
      "x": -0.029016099870204926,
      "y": 0.016798794269561768,
      "z": 0.015271631069481373,
      "time_usec": 667833719501
    },
    {
      "x": -0.0328340083360672,
      "y": 0.01924225501716137,
      "z": 0.01771509274840355,
      "time_usec": 667833721750
    },
    {
      "x": -0.032681290060281754,
      "y": 0.024129176512360573,
      "z": 0.016493361443281174,
      "time_usec": 667833724019
    },
    {
      "x": -0.03634648025035858,
      "y": 0.030237829312682152,
      "z": 0.021380282938480377,
      "time_usec": 667833726271
    },
    {
      "x": -0.03390302136540413,
      "y": 0.029016099870204926,
      "z": 0.018936822190880775,
      "time_usec": 667833728537
    },
    {
      "x": -0.03634648025035858,
      "y": 0.030237829312682152,
      "z": 0.021380282938480377,
      "time_usec": 667833730792
    },
    {
      "x": -0.03756821155548096,
      "y": 0.03145955875515938,
      "z": 0.021380282938480377,
      "time_usec": 667833733048
    },
    {
      "x": -0.040164388716220856,
      "y": 0.032681290060281754,
      "z": 0.022602014243602753,
      "time_usec": 667833735291
    },
    {
      "x": -0.04001167416572571,
      "y": 0.036193765699863434,
      "z": 0.02015855349600315,
      "time_usec": 667833737551
    },
    {
      "x": -0.03878994286060333,
      "y": 0.03985895588994026,
      "z": 0.02015855349600315,
      "time_usec": 667833739817
    },
    {
      "x": -0.041233405470848083,
      "y": 0.035124752670526505,
      "z": 0.018936822190880775,
      "time_usec": 667833742081
    },
    {
      "x": -0.04001167416572571,
      "y": 0.038637228310108185,
      "z": 0.021380282938480377,
      "time_usec": 667833744328
    },
    {
      "x": -0.04245513305068016,
      "y": 0.038637228310108185,
      "z": 0.02015855349600315,
      "time_usec": 667833746592
    },
    {
      "x": -0.046273041516542435,
      "y": 0.035124752670526505,
      "z": 0.02015855349600315,
      "time_usec": 667833748854
    },
    {
      "x": -0.04749477282166481,
      "y": 0.031612277030944824,
      "z": 0.02626720629632473,
      "time_usec": 667833751116
    },
    {
      "x": -0.051312681287527084,
      "y": 0.028099801391363144,
      "z": 0.027488935738801956,
      "time_usec": 667833753368
    },
    {
      "x": -0.05375614017248154,
      "y": 0.024434609338641167,
      "z": 0.02626720629632473,
      "time_usec": 667833755620
    },
    {
      "x": -0.05390885844826698,
      "y": 0.014813481830060482,
      "z": 0.025045474991202354,
      "time_usec": 667833757878
    },
    {
      "x": -0.06001751124858856,
      "y": 0.012522737495601177,
      "z": 0.024892758578062057,
      "time_usec": 667833760141
    },
    {
      "x": -0.061391957104206085,
      "y": 0.005345070734620094,
      "z": 0.024892758578062057,
      "time_usec": 667833762401
    },
    {
      "x": -0.06261368840932846,
      "y": 0.0065668015740811825,
      "z": 0.022449297830462456,
      "time_usec": 667833764657
    },
    {
      "x": -0.06383541971445084,
      "y": -0.003054326167330146,
      "z": 0.020005837082862854,
      "time_usec": 667833766909
    },
    {
      "x": -0.06627888232469559,
      "y": -0.005497787147760391,
      "z": 0.015118914656341076,
      "time_usec": 667833769173
    },
    {
      "x": -0.06765332818031311,
      "y": -0.011453723534941673,
      "z": 0.014966198243200779,
      "time_usec": 667833771431
    },
    {
      "x": -0.06643159687519073,
      "y": -0.015118914656341076,
      "z": 0.013744467869400978,
      "time_usec": 667833773687
    },
    {
      "x": -0.06887505948543549,
      "y": -0.017562376335263252,
      "z": 0.012522737495601177,
      "time_usec": 667833775940
    },
    {
      "x": -0.07269296050071716,
      "y": -0.021074850112199783,
      "z": 0.010079276748001575,
      "time_usec": 667833778201
    },
    {
      "x": -0.07391469180583954,
      "y": -0.025961773470044136,
      "z": 0.008857546374201775,
      "time_usec": 667833780456
    },
    {
      "x": -0.07513642311096191,
      "y": -0.02825251780450344,
      "z": 0.008857546374201775,
      "time_usec": 667833782719
    },
    {
      "x": -0.07635815441608429,
      "y": -0.03436116874217987,
      "z": 0.007635815534740686,
      "time_usec": 667833784974
    },
    {
      "x": -0.07651086896657944,
      "y": -0.03787364438176155,
      "z": 0.0064140851609408855,
      "time_usec": 667833787230
    },
    {
      "x": -0.07651086896657944,
      "y": -0.04153883829712868,
      "z": 0.008857546374201775,
      "time_usec": 667833789491
    },
    {
      "x": -0.07895433157682419,
      "y": -0.05115996301174164,
      "z": 0.006261368747800589,
      "time_usec": 667833791746
    },
    {
      "x": -0.07788532227277756,
      "y": -0.055894169956445694,
      "z": 0.0074830991216003895,
      "time_usec": 667833794005
    },
    {
      "x": -0.08032877743244171,
      "y": -0.06429356336593628,
      "z": 0.006261368747800589,
      "time_usec": 667833796255
    },
    {
      "x": -0.07788532227277756,
      "y": -0.06551529467105865,
      "z": 0.003817907767370343,
      "time_usec": 667833798519
    },
    {
      "x": -0.07788532227277756,
      "y": -0.06918048858642578,
      "z": 0.0074830991216003895,
      "time_usec": 667833800779
    },
    {
      "x": -0.07299839705228806,
      "y": -0.07406741380691528,
      "z": 0.0025961773935705423,
      "time_usec": 667833803039
    },
    {
      "x": -0.07299839705228806,
      "y": -0.07528914511203766,
      "z": 0.0025961773935705423,
      "time_usec": 667833805295
    },
    {
      "x": -0.06933320313692093,
      "y": -0.07406741380691528,
      "z": 0.0025961773935705423,
      "time_usec": 667833807546
    },
    {
      "x": -0.06688974797725677,
      "y": -0.07422012835741043,
      "z": 0.003817907767370343,
      "time_usec": 667833809806
    },
    {
      "x": -0.06429356336593628,
      "y": -0.07177666574716568,
      "z": 0.003817907767370343,
      "time_usec": 667833812064
    },
    {
      "x": -0.06429356336593628,
      "y": -0.06811147183179855,
      "z": 0.0039706239476799965,
      "time_usec": 667833814313
    },
    {
      "x": -0.0630718395113945,
      "y": -0.06459899991750717,
      "z": 0.0064140851609408855,
      "time_usec": 667833816578
    },
    {
      "x": -0.06062837690114975,
      "y": -0.06215553730726242,
      "z": 0.0064140851609408855,
      "time_usec": 667833818840
    },
    {
      "x": -0.056810468435287476,
      "y": -0.05497787147760391,
      "z": 0.0064140851609408855,
      "time_usec": 667833821101
    },
    {
      "x": -0.05543602257966995,
      "y": -0.04657847434282303,
      "z": 0.005192354787141085,
      "time_usec": 667833823358
    },
    {
      "x": -0.05421429127454758,
      "y": -0.03940080851316452,
      "z": 0.007635815534740686,
      "time_usec": 667833825608
    },
    {
      "x": -0.04917465150356293,
      "y": -0.031001411378383636,
      "z": 0.009010262787342072,
      "time_usec": 667833827862
    },
    {
      "x": -0.04535674303770065,
      "y": -0.022602014243602753,
      "z": 0.009010262787342072,
      "time_usec": 667833830115
    },
    {
      "x": -0.0429132841527462,
      "y": -0.013133603148162365,
      "z": 0.007788531947880983,
      "time_usec": 667833832387
    },
    {
      "x": -0.036651913076639175,
      "y": -0.003512475173920393,
      "z": 0.007941247895359993,
      "time_usec": 667833834642
    },
    {
      "x": -0.03787364438176155,
      "y": 0.0024434609804302454,
      "z": 0.007941247895359993,
      "time_usec": 667833836890
    },
    {
      "x": -0.029168816283345222,
      "y": 0.009621127508580685,
      "z": 0.009162978269159794,
      "time_usec": 667833839152
    },
    {
      "x": -0.030237829312682152,
      "y": 0.016798794269561768,
      "z": 0.01038470957428217,
      "time_usec": 667833841419
    },
    {
      "x": -0.029016099870204926,
      "y": 0.01924225501716137,
      "z": 0.005497787147760391,
      "time_usec": 667833843677
    },
    {
      "x": -0.02535090781748295,
      "y": 0.017867809161543846,
      "z": 0.00427605677396059,
      "time_usec": 667833845928
    },
    {
      "x": -0.026572637259960175,
      "y": 0.020311269909143448,
      "z": 0.003054326167330146,
      "time_usec": 667833848188
    },
    {
      "x": -0.026419922709465027,
      "y": 0.02275473065674305,
      "z": 0.001832595793530345,
      "time_usec": 667833850442
    },
    {
      "x": -0.027641652151942253,
      "y": 0.02519819140434265,
      "z": -6.108652451075613E-4,
      "time_usec": 667833852706
    },
    {
      "x": -0.026419922709465027,
      "y": 0.02626720629632473,
      "z": -0.001832595793530345,
      "time_usec": 667833854961
    },
    {
      "x": -0.02519819140434265,
      "y": 0.027488935738801956,
      "z": -0.001832595793530345,
      "time_usec": 667833857216
    },
    {
      "x": -0.02519819140434265,
      "y": 0.029932396486401558,
      "z": -0.00427605677396059,
      "time_usec": 667833859481
    },
    {
      "x": -0.02382374368607998,
      "y": 0.03222314268350601,
      "z": -0.009162978269159794,
      "time_usec": 667833861742
    },
    {
      "x": -0.026419922709465027,
      "y": 0.03222314268350601,
      "z": -0.006719517521560192,
      "time_usec": 667833863993
    },
