{
  "accelerations": [
    {
      "x": 9.514460563659668,
      "y": 0.2925225794315338,
      "z": 0.9672985672950745,
      "time_usec": 54302964857
    },
    {
      "x": 9.53360366821289,
      "y": 0.30209386348724365,
      "z": 0.9625129103660583,
      "time_usec": 54302967111
    },
    {
      "x": 9.54796028137207,
      "y": 0.30209386348724365,
      "z": 0.9577272534370422,
      "time_usec": 54302969368
    },
    {
      "x": 9.581459999084473,
      "y": 0.3164508044719696,
      "z": 0.9726824164390564,
      "time_usec": 54302971626
    },
    {
      "x": 9.609575271606445,
      "y": 0.3403790295124054,
      "z": 0.9966106414794922,
      "time_usec": 54302973884
    },
    {
      "x": 9.604789733886719,
      "y": 0.35473597049713135,
      "z": 1.0061819553375244,
      "time_usec": 54302976142
    },
    {
      "x": 9.65683364868164,
      "y": 0.349352091550827,
      "z": 1.0205388069152832,
      "time_usec": 54302978399
    },
    {
      "x": 9.685547828674316,
      "y": 0.38285163044929504,
      "z": 1.0396814346313477,
      "time_usec": 54302980656
    },
    {
      "x": 9.723833084106445,
      "y": 0.4163511395454407,
      "z": 1.064207911491394,
      "time_usec": 54302982910
    },
    {
      "x": 9.732806205749512,
      "y": 0.40677985548973083,
      "z": 1.0785647630691528,
      "time_usec": 54302985157
    },
    {
      "x": 9.780662536621094,
      "y": 0.4307080805301666,
      "z": 1.1072787046432495,
      "time_usec": 54302987415
    },
    {
      "x": 9.780662536621094,
      "y": 0.4450650215148926,
      "z": 1.1216355562210083,
      "time_usec": 54302989686
    },
    {
      "x": 9.799206733703613,
      "y": 0.4498506486415863,
      "z": 1.155135154724121,
      "time_usec": 54302991946
    },
    {
      "x": 9.81356430053711,
      "y": 0.4833501875400543,
      "z": 1.174277663230896,
      "time_usec": 54302994205
    },
    {
      "x": 9.818349838256836,
      "y": 0.4833501875400543,
      "z": 1.2460623979568481,
      "time_usec": 54302996455
    },
    {
      "x": 9.836894035339355,
      "y": 0.49292147159576416,
      "z": 1.2747762203216553,
      "time_usec": 54302998716
    },
    {
      "x": 9.832108497619629,
      "y": 0.4977070987224579,
      "z": 1.3130614757537842,
      "time_usec": 54303000973
    },
    {
      "x": 9.827322959899902,
      "y": 0.5024927258491516,
      "z": 1.3609179258346558,
      "time_usec": 54303003232
    },
    {
      "x": 9.817750930786133,
      "y": 0.48813581466674805,
      "z": 1.3555340766906738,
      "time_usec": 54303005487
    },
    {
      "x": 9.812965393066406,
      "y": 0.48813581466674805,
      "z": 1.3507484197616577,
      "time_usec": 54303007740
    },
    {
      "x": 9.803394317626953,
      "y": 0.4737788736820221,
      "z": 1.3555340766906738,
      "time_usec": 54303009997
    },
    {
      "x": 9.789037704467773,
      "y": 0.4785645306110382,
      "z": 1.317248821258545,
      "time_usec": 54303012262
    },
    {
      "x": 9.798608779907227,
      "y": 0.4785645306110382,
      "z": 1.2747762203216553,
      "time_usec": 54303014519
    },
    {
      "x": 9.799206733703613,
      "y": 0.46899324655532837,
      "z": 1.217348575592041,
      "time_usec": 54303016778
    },
    {
      "x": 9.818349838256836,
      "y": 0.4785645306110382,
      "z": 1.179063320159912,
      "time_usec": 54303019033
    },
    {
      "x": 9.823135375976562,
      "y": 0.44446679949760437,
      "z": 1.150349497795105,
      "time_usec": 54303021287
    },
    {
      "x": 9.827920913696289,
      "y": 0.43968117237091064,
      "z": 1.1072787046432495,
      "time_usec": 54303023532
    },
    {
      "x": 9.837491989135742,
      "y": 0.41575294733047485,
      "z": 1.1024930477142334,
      "time_usec": 54303025794
    },
    {
      "x": 9.827920913696289,
      "y": 0.4253242313861847,
      "z": 1.083350419998169,
      "time_usec": 54303028064
    },
    {
      "x": 9.82373332977295,
      "y": 0.4301098585128784,
      "z": 1.0360921621322632,
      "time_usec": 54303030324
    },
    {
      "x": 9.814162254333496,
      "y": 0.3966103494167328,
      "z": 0.9930213689804077,
      "time_usec": 54303032577
    },
    {
      "x": 9.82373332977295,
      "y": 0.4061816334724426,
      "z": 0.9451649188995361,
      "time_usec": 54303034832
    },
    {
      "x": 9.809974670410156,
      "y": 0.3678964674472809,
      "z": 0.8925228714942932,
      "time_usec": 54303037081
    },
    {
      "x": 9.80518913269043,
      "y": 0.3966103494167328,
      "z": 0.8590233325958252,
      "time_usec": 54303039357
    },
    {
      "x": 9.814760208129883,
      "y": 0.39182472229003906,
      "z": 0.8733802437782288,
      "time_usec": 54303041608
    },
    {
      "x": 9.838688850402832,
      "y": 0.4007977843284607,
      "z": 0.882951557636261,
      "time_usec": 54303043869
    },
    {
      "x": 9.829116821289062,
      "y": 0.4055834412574768,
      "z": 0.8398807644844055,
      "time_usec": 54303046121
    },
    {
      "x": 9.800403594970703,
      "y": 0.38225340843200684,
      "z": 0.849452018737793,
      "time_usec": 54303048377
    },
    {
      "x": 9.77707290649414,
      "y": 0.4013960063457489,
      "z": 0.8542376756668091,
      "time_usec": 54303050638
    },
    {
      "x": 9.771689414978027,
      "y": 0.38703906536102295,
      "z": 0.8781659007072449,
      "time_usec": 54303052895
    },
    {
      "x": 9.742975234985352,
      "y": 0.3774677813053131,
      "z": 0.906281590461731,
      "time_usec": 54303055154
    },
    {
      "x": 9.710074424743652,
      "y": 0.38285163044929504,
      "z": 0.9445667266845703,
      "time_usec": 54303057410
    },
    {
      "x": 9.675976753234863,
      "y": 0.37806597352027893,
      "z": 1.0157532691955566,
      "time_usec": 54303059668
    },
    {
      "x": 9.66640567779541,
      "y": 0.3732803463935852,
      "z": 1.0492527484893799,
      "time_usec": 54303061924
    },
    {
      "x": 9.637691497802734,
      "y": 0.388235479593277,
      "z": 1.0971091985702515,
      "time_usec": 54303064178
    },
    {
      "x": 9.628120422363281,
      "y": 0.388235479593277,
      "z": 1.1306086778640747,
      "time_usec": 54303066442
    },
    {
      "x": 9.613762855529785,
      "y": 0.3930211067199707,
      "z": 1.1539387702941895,
      "time_usec": 54303068699
    },
    {
      "x": 9.618548393249512,
      "y": 0.40259242057800293,
      "z": 1.158724308013916,
      "time_usec": 54303070956
    },
    {
      "x": 9.608977317810059,
      "y": 0.4169493317604065,
      "z": 1.1730812788009644,
      "time_usec": 54303073208
    },
    {
      "x": 9.594620704650879,
      "y": 0.373878538608551,
      "z": 1.1682956218719482,
      "time_usec": 54303075455
    },
    {
      "x": 9.585049629211426,
      "y": 0.3690928816795349,
      "z": 1.1395817995071411,
      "time_usec": 54303077716
    },
    {
      "x": 9.585049629211426,
      "y": 0.3451646566390991,
      "z": 1.1252248287200928,
      "time_usec": 54303079986
    },
    {
      "x": 9.56650447845459,
      "y": 0.3164508044719696,
      "z": 1.0869396924972534,
      "time_usec": 54303082246
    },
    {
      "x": 9.56650447845459,
      "y": 0.2925225794315338,
      "z": 1.048654556274414,
      "time_usec": 54303084498
    },
    {
      "x": 9.56650447845459,
      "y": 0.2638086974620819,
      "z": 1.0390832424163818,
      "time_usec": 54303086751
    },
    {
      "x": 9.55214786529541,
      "y": 0.268594354391098,
      "z": 0.9960124492645264,
      "time_usec": 54303089003
    },
    {
      "x": 9.547362327575684,
      "y": 0.24466611444950104,
      "z": 0.9768698215484619,
      "time_usec": 54303091271
    },
    {
      "x": 9.54796028137207,
      "y": 0.22552353143692017,
      "z": 0.9200403094291687,
      "time_usec": 54303093516
    },
    {
      "x": 9.528818130493164,
      "y": 0.22552353143692017,
      "z": 0.890728235244751,
      "time_usec": 54303095776
    },
    {
      "x": 9.55753231048584,
      "y": 0.23988047242164612,
      "z": 0.8626125454902649,
      "time_usec": 54303098029
    },
    {
      "x": 9.576674461364746,
      "y": 0.22971096634864807,
      "z": 0.8243274092674255,
      "time_usec": 54303100292
    },
    {
      "x": 9.562317848205566,
      "y": 0.2105683982372284,
      "z": 0.8099704384803772,
      "time_usec": 54303102558
    },
    {
      "x": 9.562317848205566,
      "y": 0.20099709928035736,
      "z": 0.8003991842269897,
      "time_usec": 54303104815
    },
    {
      "x": 9.562317848205566,
      "y": 0.19621145725250244,
      "z": 0.8099704384803772,
      "time_usec": 54303107078
    },
    {
      "x": 9.576674461364746,
      "y": 0.19621145725250244,
      "z": 0.8195417523384094,
      "time_usec": 54303109330
    },
    {
      "x": 9.57188892364502,
      "y": 0.1866401731967926,
      "z": 0.833898663520813,
      "time_usec": 54303111576
    },
    {
      "x": 9.600004196166992,
      "y": 0.19142581522464752,
      "z": 0.8721838593482971,
      "time_usec": 54303113832
    },
    {
      "x": 9.571290969848633,
      "y": 0.17706887423992157,
      "z": 0.900897741317749,
      "time_usec": 54303116089
    },
    {
      "x": 9.56650447845459,
      "y": 0.18723836541175842,
      "z": 0.9439685344696045,
      "time_usec": 54303118354
    },
    {
      "x": 9.571290969848633,
      "y": 0.2063809484243393,
      "z": 0.9439685344696045,
      "time_usec": 54303120623
    },
    {
      "x": 9.547362327575684,
      "y": 0.2063809484243393,
      "z": 0.9577272534370422,
      "time_usec": 54303122873
    },
    {
      "x": 9.514460563659668,
      "y": 0.2350948303937912,
      "z": 0.9768698215484619,
      "time_usec": 54303125127
    },
    {
      "x": 9.514460563659668,
      "y": 0.268594354391098,
      "z": 1.0055837631225586,
      "time_usec": 54303127399
    },
    {
      "x": 9.495318412780762,
      "y": 0.2835494875907898,
      "z": 1.0103694200515747,
      "time_usec": 54303129652
    },
    {
      "x": 9.490532875061035,
      "y": 0.2883351147174835,
      "z": 1.0247262716293335,
      "time_usec": 54303131908
    },
    {
      "x": 9.528220176696777,
      "y": 0.29730820655822754,
      "z": 1.0534402132034302,
      "time_usec": 54303134151
    },
    {
      "x": 9.561718940734863,
      "y": 0.3116651475429535,
      "z": 1.1060823202133179,
      "time_usec": 54303136423
    },
    {
      "x": 9.55633544921875,
      "y": 0.29790642857551575,
      "z": 1.1635099649429321,
      "time_usec": 54303138677
    },
    {
      "x": 9.57487964630127,
      "y": 0.29312077164649963,
      "z": 1.220937728881836,
      "time_usec": 54303140927
    },
    {
      "x": 9.570094108581543,
      "y": 0.29790642857551575,
      "z": 1.2687941789627075,
      "time_usec": 54303143186
    },
    {
      "x": 9.570094108581543,
      "y": 0.2787638306617737,
      "z": 1.301695466041565,
      "time_usec": 54303145439
    },
    {
      "x": 9.583852767944336,
      "y": 0.2883351147174835,
      "z": 1.3351950645446777,
      "time_usec": 54303147710
    },
    {
      "x": 9.574281692504883,
      "y": 0.29312077164649963,
      "z": 1.3639088869094849,
      "time_usec": 54303149969
    },
    {
      "x": 9.598209381103516,
      "y": 0.3170489966869354,
      "z": 1.3830515146255493,
      "time_usec": 54303152227
    },
    {
      "x": 9.607781410217285,
      "y": 0.3888336718082428,
      "z": 1.3830515146255493,
      "time_usec": 54303154477
    },
    {
      "x": 9.607781410217285,
      "y": 0.4127618968486786,
      "z": 1.3926228284835815,
      "time_usec": 54303156726
    },
    {
      "x": 9.617950439453125,
      "y": 0.4654040038585663,
      "z": 1.4069796800613403,
      "time_usec": 54303158987
    },
    {
      "x": 9.622735977172852,
      "y": 0.47976094484329224,
      "z": 1.4075778722763062,
      "time_usec": 54303161253
    },
    {
      "x": 9.622735977172852,
      "y": 0.4749752879142761,
      "z": 1.3932210206985474,
      "time_usec": 54303163503
    },
    {
      "x": 9.632308006286621,
      "y": 0.4749752879142761,
      "z": 1.3836497068405151,
      "time_usec": 54303165773
    },
    {
      "x": 9.651450157165527,
      "y": 0.4989035129547119,
      "z": 1.3692927360534668,
      "time_usec": 54303168027
    },
    {
      "x": 9.675378799438477,
      "y": 0.4743770956993103,
      "z": 1.3214362859725952,
      "time_usec": 54303170272
    },
    {
      "x": 9.698708534240723,
      "y": 0.5030909776687622,
      "z": 1.3645070791244507,
      "time_usec": 54303172529
    },
    {
      "x": 9.70349407196045,
      "y": 0.47916272282600403,
      "z": 1.3076776266098022,
      "time_usec": 54303174796
    },
    {
      "x": 9.755537986755371,
      "y": 0.47916272282600403,
      "z": 1.3698909282684326,
      "time_usec": 54303177061
    },
    {
      "x": 9.77527904510498,
      "y": 0.46899324655532837,
      "z": 1.293320655822754,
      "time_usec": 54303179315
    },
    {
      "x": 9.774680137634277,
      "y": 0.4546363055706024,
      "z": 1.3363914489746094,
      "time_usec": 54303181561
    },
    {
      "x": 9.793225288391113,
      "y": 0.4163511395454407,
      "z": 1.3459627628326416,
      "time_usec": 54303183825
    },
    {
      "x": 9.784850120544434,
      "y": 0.43549370765686035,
      "z": 1.217348575592041,
      "time_usec": 54303186086
    },
    {
      "x": 9.802796363830566,
      "y": 0.41156548261642456,
      "z": 1.3507484197616577,
      "time_usec": 54303188332
    },
    {
      "x": 9.789037704467773,
      "y": 0.4163511395454407,
      "z": 1.236491084098816,
      "time_usec": 54303190588
    },
    {
      "x": 9.803394317626953,
      "y": 0.41156548261642456,
      "z": 1.2843475341796875,
      "time_usec": 54303192844
    },
    {
      "x": 9.784252166748047,
      "y": 0.4163511395454407,
      "z": 1.29810631275177,
      "time_usec": 54303195106
    },
    {
      "x": 9.780064582824707,
      "y": 0.44027936458587646,
      "z": 1.241276741027832,
      "time_usec": 54303197372
    },
    {
      "x": 9.741779327392578,
      "y": 0.4504488706588745,
      "z": 1.2741780281066895,
      "time_usec": 54303199635
    },
    {
      "x": 9.718449592590332,
      "y": 0.4743770956993103,
      "z": 1.231107234954834,
      "time_usec": 54303201892
    },
    {
      "x": 9.680164337158203,
      "y": 0.46002015471458435,
      "z": 1.231107234954834,
      "time_usec": 54303204143
    },
    {
      "x": 9.613164901733398,
      "y": 0.43190449476242065,
      "z": 1.2831511497497559,
      "time_usec": 54303206407
    },
    {
      "x": 9.53659439086914,
      "y": 0.4612165689468384,
      "z": 1.5020943880081177,
      "time_usec": 54303208670
    },
    {
      "x": 9.479166984558105,
      "y": 0.39421752095222473,
      "z": 1.5068800449371338,
      "time_usec": 54303210921
    },
    {
      "x": 9.436694145202637,
      "y": 0.31345975399017334,
      "z": 1.4398809671401978,
      "time_usec": 54303213172
    },
    {
      "x": 9.41755199432373,
      "y": 0.26081767678260803,
      "z": 1.4159528017044067,
      "time_usec": 54303215430
    },
    {
      "x": 9.43609619140625,
      "y": 0.24586252868175507,
      "z": 1.4159528017044067,
      "time_usec": 54303217680
    },
    {
      "x": 9.512067794799805,
      "y": 0.26979073882102966,
      "z": 1.4117653369903564,
      "time_usec": 54303219951
    },
    {
      "x": 9.621540069580078,
      "y": 0.2883351147174835,
      "z": 1.4691931009292603,
      "time_usec": 54303222206
    },
    {
      "x": 9.711270332336426,
      "y": 0.32602208852767944,
      "z": 1.5128620862960815,
      "time_usec": 54303224463
    },
    {
      "x": 9.79681396484375,
      "y": 0.3595215976238251,
      "z": 1.5326029062271118,
      "time_usec": 54303226723
    },
    {
      "x": 9.839884757995605,
      "y": 0.38763725757598877,
      "z": 1.5517455339431763,
      "time_usec": 54303228981
    },
    {
      "x": 9.839884757995605,
      "y": 0.397208571434021,
      "z": 1.5326029062271118,
      "time_usec": 54303231237
    },
    {
      "x": 9.81655502319336,
      "y": 0.4019941985607147,
      "z": 1.4943177700042725,
      "time_usec": 54303233489
    },
    {
      "x": 9.821340560913086,
      "y": 0.4019941985607147,
      "z": 1.4368900060653687,
      "time_usec": 54303235752
    },
    {
      "x": 9.807581901550293,
      "y": 0.41156548261642456,
      "z": 1.4033905267715454,
      "time_usec": 54303238010
    },
    {
      "x": 9.807581901550293,
      "y": 0.40677985548973083,
      "z": 1.3603196144104004,
      "time_usec": 54303240268
    },
    {
      "x": 9.840482711791992,
      "y": 0.397208571434021,
      "z": 1.3704891204833984,
      "time_usec": 54303242523
    },
    {
      "x": 9.840482711791992,
      "y": 0.3732803463935852,
      "z": 1.3800604343414307,
      "time_usec": 54303244777
    },
    {
      "x": 9.882955551147461,
      "y": 0.372682124376297,
      "z": 1.394417405128479,
      "time_usec": 54303247041
    },
    {
      "x": 9.830911636352539,
      "y": 0.3397808074951172,
      "z": 1.3986048698425293,
      "time_usec": 54303249297
    },
    {
      "x": 9.892526626586914,
      "y": 0.33918261528015137,
      "z": 1.4135600328445435,
      "time_usec": 54303251555
    },
    {
      "x": 10.182656288146973,
      "y": 0.44327038526535034,
      "z": 1.4243277311325073,
      "time_usec": 54303253806
    },
    {
      "x": 10.01156997680664,
      "y": 0.36729827523231506,
      "z": 1.3854442834854126,
      "time_usec": 54303256069
    },
    {
      "x": 9.964311599731445,
      "y": 0.3194418251514435,
      "z": 1.3280165195465088,
      "time_usec": 54303258329
    },
    {
      "x": 10.092328071594238,
      "y": 0.36670008301734924,
      "z": 1.3286148309707642,
      "time_usec": 54303260594
    },
    {
      "x": 10.06421184539795,
      "y": 0.3720839321613312,
      "z": 1.3142578601837158,
      "time_usec": 54303262837
    },
    {
      "x": 9.993025779724121,
      "y": 0.381655216217041,
      "z": 1.3088740110397339,
      "time_usec": 54303265100
    },
    {
      "x": 10.002596855163574,
      "y": 0.4342973232269287,
      "z": 1.3088740110397339,
      "time_usec": 54303267352
    },
    {
      "x": 10.002596855163574,
      "y": 0.44386860728263855,
      "z": 1.2801600694656372,
      "time_usec": 54303269616
    },
    {
      "x": 9.950552940368652,
      "y": 0.4588237404823303,
      "z": 1.2658032178878784,
      "time_usec": 54303271870
    },
    {
      "x": 9.927223205566406,
      "y": 0.4731806814670563,
      "z": 1.2370892763137817,
      "time_usec": 54303274123
    },
    {
      "x": 9.889535903930664,
      "y": 0.47796630859375,
      "z": 1.2323036193847656,
      "time_usec": 54303276383
    },
    {
      "x": 9.827322959899902,
      "y": 0.4498506486415863,
      "z": 1.236491084098816,
      "time_usec": 54303278641
    },
    {
      "x": 9.7938232421875,
      "y": 0.38763725757598877,
      "z": 1.2652050256729126,
      "time_usec": 54303280888
    },
    {
      "x": 9.793225288391113,
      "y": 0.349352091550827,
      "z": 1.2837493419647217,
      "time_usec": 54303283156
    },
    {
      "x": 9.783653259277344,
      "y": 0.3158525824546814,
      "z": 1.2837493419647217,
      "time_usec": 54303285416
    },
    {
      "x": 9.79801082611084,
      "y": 0.27756741642951965,
      "z": 1.2885349988937378,
      "time_usec": 54303287672
    },
    {
      "x": 9.793225288391113,
      "y": 0.28235307335853577,
      "z": 1.2837493419647217,
      "time_usec": 54303289920
    },
    {
      "x": 9.8267240524292,
      "y": 0.31106695532798767,
      "z": 1.2891331911087036,
      "time_usec": 54303292188
    },
    {
      "x": 9.841081619262695,
      "y": 0.32961133122444153,
      "z": 1.2891331911087036,
      "time_usec": 54303294439
    },
    {
      "x": 9.860223770141602,
      "y": 0.3439682424068451,
      "z": 1.2795618772506714,
      "time_usec": 54303296692
    },
    {
      "x": 9.860223770141602,
      "y": 0.35832518339157104,
      "z": 1.308275818824768,
      "time_usec": 54303298947
    },
    {
      "x": 9.873982429504395,
      "y": 0.38225340843200684,
      "z": 1.3130614757537842,
      "time_usec": 54303301206
    },
    {
      "x": 9.865009307861328,
      "y": 0.35832518339157104,
      "z": 1.2939188480377197,
      "time_usec": 54303303464
    },
    {
      "x": 9.883553504943848,
      "y": 0.35832518339157104,
      "z": 1.2747762203216553,
      "time_usec": 54303305721
    },
    {
      "x": 9.897911071777344,
      "y": 0.3487538993358612,
      "z": 1.2795618772506714,
      "time_usec": 54303307979
    },
    {
      "x": 9.88833999633789,
      "y": 0.33439695835113525,
      "z": 1.2699905633926392,
      "time_usec": 54303310236
    },
    {
      "x": 9.874580383300781,
      "y": 0.3535395562648773,
      "z": 1.2604193687438965,
      "time_usec": 54303312494
    },
    {
      "x": 9.850652694702148,
      "y": 0.3439682424068451,
      "z": 1.2508480548858643,
      "time_usec": 54303314752
    },
    {
      "x": 9.831509590148926,
      "y": 0.3487538993358612,
      "z": 1.2269197702407837,
      "time_usec": 54303317013
    },
    {
      "x": 9.822537422180176,
      "y": 0.36311084032058716,
      "z": 1.174277663230896,
      "time_usec": 54303319284
    },
    {
      "x": 9.80399227142334,
      "y": 0.3535395562648773,
      "z": 1.1312068700790405,
      "time_usec": 54303321539
    },
    {
      "x": 9.794421195983887,
      "y": 0.372682124376297,
      "z": 1.083350419998169,
      "time_usec": 54303323792
    },
    {
      "x": 9.78963565826416,
      "y": 0.35832518339157104,
      "z": 1.059422254562378,
      "time_usec": 54303326051
    },
    {
      "x": 9.77109146118164,
      "y": 0.35832518339157104,
      "z": 1.0307083129882812,
      "time_usec": 54303328309
    },
    {
      "x": 9.752547264099121,
      "y": 0.3535395562648773,
      "z": 0.9876375198364258,
      "time_usec": 54303330565
    },
    {
      "x": 9.747760772705078,
      "y": 0.372682124376297,
      "z": 0.9541380405426025,
      "time_usec": 54303332812
    },
    {
      "x": 9.7669038772583,
      "y": 0.3678964674472809,
      "z": 0.9445667266845703,
      "time_usec": 54303335082
    },
    {
      "x": 9.800403594970703,
      "y": 0.4013960063457489,
      "z": 0.9020941257476807,
      "time_usec": 54303337341
    },
    {
      "x": 9.833903312683105,
      "y": 0.39122650027275085,
      "z": 0.8781659007072449,
      "time_usec": 54303339600
    },
    {
      "x": 9.872187614440918,
      "y": 0.4055834412574768,
      "z": 0.8404789566993713,
      "time_usec": 54303341853
    },
    {
      "x": 9.900303840637207,
      "y": 0.41994038224220276,
      "z": 0.8309076428413391,
      "time_usec": 54303344105
    },
    {
      "x": 9.938589096069336,
      "y": 0.39541393518447876,
      "z": 0.7501499056816101,
      "time_usec": 54303346364
    },
    {
      "x": 9.952945709228516,
      "y": 0.4001995921134949,
      "z": 0.7357929348945618,
      "time_usec": 54303348627
    },
    {
      "x": 9.934401512145996,
      "y": 0.4289134442806244,
      "z": 0.7357929348945618,
      "time_usec": 54303350884
    },
    {
      "x": 9.948758125305176,
      "y": 0.4145565330982208,
      "z": 0.7070791125297546,
      "time_usec": 54303353138
    },
    {
      "x": 9.8871431350708,
      "y": 0.4145565330982208,
      "z": 0.7112665176391602,
      "time_usec": 54303355399
    },
    {
      "x": 9.8871431350708,
      "y": 0.4384847581386566,
      "z": 0.7256234884262085,
      "time_usec": 54303357653
    },
    {
      "x": 9.934401512145996,
      "y": 0.4624129831790924,
      "z": 0.745364248752594,
      "time_usec": 54303359915
    },
    {
      "x": 9.934401512145996,
      "y": 0.47676992416381836,
      "z": 0.7501499056816101,
      "time_usec": 54303362169
    },
    {
      "x": 9.934401512145996,
      "y": 0.4911268353462219,
      "z": 0.7884350419044495,
      "time_usec": 54303364425
    },
    {
      "x": 9.957731246948242,
      "y": 0.5198407173156738,
      "z": 0.836291491985321,
      "time_usec": 54303366685
    },
    {
      "x": 9.957731246948242,
      "y": 0.50129634141922,
      "z": 0.9170492887496948,
      "time_usec": 54303368945
    },
    {
      "x": 9.966704368591309,
      "y": 0.5204389095306396,
      "z": 1.0223335027694702,
      "time_usec": 54303371203
    },
    {
      "x": 9.990034103393555,
      "y": 0.5395814776420593,
      "z": 1.1132607460021973,
      "time_usec": 54303373455
    },
    {
      "x": 10.003793716430664,
      "y": 0.5682953596115112,
      "z": 1.189831018447876,
      "time_usec": 54303375716
    },
    {
      "x": 9.999007225036621,
      "y": 0.5539384484291077,
      "z": 1.2376874685287476,
      "time_usec": 54303377974
    },
    {
      "x": 9.984650611877441,
      "y": 0.5874379873275757,
      "z": 1.2610175609588623,
      "time_usec": 54303380233
    },
    {
      "x": 9.994221687316895,
      "y": 0.6071787476539612,
      "z": 1.3040883541107178,
      "time_usec": 54303382488
    },
    {
      "x": 9.955936431884766,
      "y": 0.6167500615119934,
      "z": 1.3280165195465088,
      "time_usec": 54303384741
    },
    {
      "x": 9.965508460998535,
      "y": 0.6071787476539612,
      "z": 1.3710874319076538,
      "time_usec": 54303387004
    },
    {
      "x": 9.832108497619629,
      "y": 0.6029912829399109,
      "z": 1.3848460912704468,
      "time_usec": 54303389262
    },
    {
      "x": 9.865009307861328,
      "y": 0.5934200286865234,
      "z": 1.41834557056427,
      "time_usec": 54303391521
    },
    {
      "x": 9.869794845581055,
      "y": 0.6029912829399109,
      "z": 1.4135600328445435,
      "time_usec": 54303393771
    },
    {
      "x": 9.817750930786133,
      "y": 0.6323033571243286,
      "z": 1.4273186922073364,
      "time_usec": 54303396034
    },
    {
      "x": 9.818349838256836,
      "y": 0.6562315821647644,
      "z": 1.4177473783493042,
      "time_usec": 54303398291
    },
    {
      "x": 9.799206733703613,
      "y": 0.6849454641342163,
      "z": 1.3746765851974487,
      "time_usec": 54303400547
    },
    {
      "x": 9.766305923461914,
      "y": 0.6658028960227966,
      "z": 1.3268201351165771,
      "time_usec": 54303402794
    },
    {
      "x": 9.728618621826172,
      "y": 0.6275177597999573,
      "z": 1.2598211765289307,
      "time_usec": 54303405064
    },
    {
      "x": 9.699904441833496,
      "y": 0.6275177597999573,
      "z": 1.2263215780258179,
      "time_usec": 54303407319
    },
    {
      "x": 9.671789169311523,
      "y": 0.6035895347595215,
      "z": 1.168893814086914,
      "time_usec": 54303409570
    },
    {
      "x": 9.643074989318848,
      "y": 0.5413761138916016,
      "z": 1.1545369625091553,
      "time_usec": 54303411835
    },
    {
      "x": 9.624530792236328,
      "y": 0.5174478888511658,
      "z": 1.1114661693572998,
      "time_usec": 54303414090
    },
    {
      "x": 9.624530792236328,
      "y": 0.48873403668403625,
      "z": 1.077966570854187,
      "time_usec": 54303416359
    },
    {
      "x": 9.614959716796875,
      "y": 0.4695914387702942,
      "z": 1.054038405418396,
      "time_usec": 54303418609
    },
    {
      "x": 9.634101867675781,
      "y": 0.46002015471458435,
      "z": 1.0205388069152832,
      "time_usec": 54303420866
    },
    {
      "x": 9.638887405395508,
      "y": 0.47916272282600403,
      "z": 0.9918249845504761,
      "time_usec": 54303423116
    },
    {
      "x": 9.64367389678955,
      "y": 0.46002015471458435,
      "z": 1.0013962984085083,
      "time_usec": 54303425375
    },
    {
      "x": 9.619745254516602,
      "y": 0.47916272282600403,
      "z": 0.9966106414794922,
      "time_usec": 54303427629
    },
    {
      "x": 9.614959716796875,
      "y": 0.4743770956993103,
      "z": 0.9726824164390564,
      "time_usec": 54303429897
    },
    {
      "x": 9.624530792236328,
      "y": 0.47916272282600403,
      "z": 0.98703932762146,
      "time_usec": 54303432154
    },
    {
      "x": 9.577272415161133,
      "y": 0.45523449778556824,
      "z": 0.98703932762146,
      "time_usec": 54303434408
    },
    {
      "x": 9.57188892364502,
      "y": 0.4169493317604065,
      "z": 1.0013962984085083,
      "time_usec": 54303436667
    },
    {
      "x": 9.552745819091797,
      "y": 0.3978067636489868,
      "z": 1.0390832424163818,
      "time_usec": 54303438925
    },
    {
      "x": 9.54796028137207,
      "y": 0.40319061279296875,
      "z": 1.0630114078521729,
      "time_usec": 54303441180
    },
    {
      "x": 9.55214786529541,
      "y": 0.3690928816795349,
      "z": 1.0869396924972534,
      "time_usec": 54303443438
    },
    {
      "x": 9.547362327575684,
      "y": 0.3696911036968231,
      "z": 1.1060823202133179,
      "time_usec": 54303445700
    },
    {
      "x": 9.542576789855957,
      "y": 0.34576287865638733,
      "z": 1.0821540355682373,
      "time_usec": 54303447957
    },
    {
      "x": 9.55753231048584,
      "y": 0.35473597049713135,
      "z": 1.048654556274414,
      "time_usec": 54303450215
    },
    {
      "x": 9.57188892364502,
      "y": 0.3595215976238251,
      "z": 1.0295119285583496,
      "time_usec": 54303452470
    },
    {
      "x": 9.567103385925293,
      "y": 0.3595215976238251,
      "z": 1.0247262716293335,
      "time_usec": 54303454724
    },
    {
      "x": 9.55753231048584,
      "y": 0.35473597049713135,
      "z": 1.0247262716293335,
      "time_usec": 54303456986
    },
    {
      "x": 9.538389205932617,
      "y": 0.34995031356811523,
      "z": 0.9912267923355103,
      "time_usec": 54303459244
    },
    {
      "x": 9.519247055053711,
      "y": 0.3601198196411133,
      "z": 1.0055837631225586,
      "time_usec": 54303461501
    },
    {
      "x": 9.500701904296875,
      "y": 0.3601198196411133,
      "z": 0.9960124492645264,
      "time_usec": 54303463753
    },
    {
      "x": 9.476774215698242,
      "y": 0.3936193287372589,
      "z": 0.9912267923355103,
      "time_usec": 54303466015
    },
    {
      "x": 9.448657989501953,
      "y": 0.37926238775253296,
      "z": 0.9906286001205444,
      "time_usec": 54303468269
    },
    {
      "x": 9.46301555633545,
      "y": 0.3936193287372589,
      "z": 0.9720842242240906,
      "time_usec": 54303470532
    },
    {
      "x": 9.467801094055176,
      "y": 0.40797626972198486,
      "z": 0.9720842242240906,
      "time_usec": 54303472783
    },
    {
      "x": 9.477372169494629,
      "y": 0.40319061279296875,
      "z": 0.9672985672950745,
      "time_usec": 54303475047
    },
    {
      "x": 9.46301555633545,
      "y": 0.4175475537776947,
      "z": 0.9625129103660583,
      "time_usec": 54303477303
    },
    {
      "x": 9.472586631774902,
      "y": 0.39840495586395264,
      "z": 0.9529415965080261,
      "time_usec": 54303479563
    },
    {
      "x": 9.482157707214355,
      "y": 0.3888336718082428,
      "z": 0.9433703422546387,
      "time_usec": 54303481818
    },
    {
      "x": 9.491728782653809,
      "y": 0.4127618968486786,
      "z": 0.9146564602851868,
      "time_usec": 54303484071
    },
    {
      "x": 9.496515274047852,
      "y": 0.3978067636489868,
      "z": 0.8955138921737671,
      "time_usec": 54303486334
    },
    {
      "x": 9.520442962646484,
      "y": 0.4217349886894226,
      "z": 0.8955138921737671,
      "time_usec": 54303488591
    },
    {
      "x": 9.515657424926758,
      "y": 0.4169493317604065,
      "z": 0.8859425783157349,
      "time_usec": 54303490848
    },
    {
      "x": 9.496515274047852,
      "y": 0.4175475537776947,
      "z": 0.9050851464271545,
      "time_usec": 54303493100
    },
    {
      "x": 9.482157707214355,
      "y": 0.4127618968486786,
      "z": 0.9337990283966064,
      "time_usec": 54303495359
    },
    {
      "x": 9.496515274047852,
      "y": 0.4414757788181305,
      "z": 0.9577272534370422,
      "time_usec": 54303497620
    },
    {
      "x": 9.510273933410645,
      "y": 0.42711883783340454,
      "z": 0.981655478477478,
      "time_usec": 54303499881
    },
    {
      "x": 9.524630546569824,
      "y": 0.4175475537776947,
      "z": 0.981655478477478,
      "time_usec": 54303502136
    },
    {
      "x": 9.519845008850098,
      "y": 0.4223332107067108,
      "z": 1.0055837631225586,
      "time_usec": 54303504386
    },
    {
      "x": 9.534201622009277,
      "y": 0.4366901218891144,
      "z": 1.0055837631225586,
      "time_usec": 54303506635
    },
    {
      "x": 9.54377269744873,
      "y": 0.4414757788181305,
      "z": 1.0342975854873657,
      "time_usec": 54303508896
    },
    {
      "x": 9.52941608428955,
      "y": 0.45104706287384033,
      "z": 1.0773683786392212,
      "time_usec": 54303511166
    },
    {
      "x": 9.552745819091797,
      "y": 0.47976094484329224,
      "z": 1.0869396924972534,
      "time_usec": 54303513419
    },
    {
      "x": 9.538389205932617,
      "y": 0.48454657196998596,
      "z": 1.1012966632843018,
      "time_usec": 54303515675
    },
    {
      "x": 9.52941608428955,
      "y": 0.4989035129547119,
      "z": 1.0917253494262695,
      "time_usec": 54303517940
    },
    {
      "x": 9.558130264282227,
      "y": 0.5228317379951477,
      "z": 1.0582258701324463,
      "time_usec": 54303520197
    },
    {
      "x": 9.5533447265625,
      "y": 0.537188708782196,
      "z": 1.0295119285583496,
      "time_usec": 54303522455
    },
    {
      "x": 9.586843490600586,
      "y": 0.5222335457801819,
      "z": 1.0253244638442993,
      "time_usec": 54303524703
    },
    {
      "x": 9.629914283752441,
      "y": 0.5222335457801819,
      "z": 0.98703932762146,
      "time_usec": 54303526958
    },
    {
      "x": 9.634700775146484,
      "y": 0.5318048596382141,
      "z": 0.9822536706924438,
      "time_usec": 54303529226
    },
    {
      "x": 9.65803050994873,
      "y": 0.5024927258491516,
      "z": 0.98703932762146,
      "time_usec": 54303531483
    },
    {
      "x": 9.653244972229004,
      "y": 0.48873403668403625,
      "z": 1.0061819553375244,
      "time_usec": 54303533739
    },
    {
      "x": 9.662816047668457,
      "y": 0.49292147159576416,
      "z": 1.0061819553375244,
      "time_usec": 54303535999
    },
    {
      "x": 9.65803050994873,
      "y": 0.46420758962631226,
      "z": 1.0013962984085083,
      "time_usec": 54303538252
    },
    {
      "x": 9.671789169311523,
      "y": 0.4737788736820221,
      "z": 1.0205388069152832,
      "time_usec": 54303540514
    },
    {
      "x": 9.667601585388184,
      "y": 0.4785645306110382,
      "z": 1.0061819553375244,
      "time_usec": 54303542763
    },
    {
      "x": 9.686145782470703,
      "y": 0.4785645306110382,
      "z": 0.9924231767654419,
      "time_usec": 54303545017
    },
    {
      "x": 9.691530227661133,
      "y": 0.5168496966362,
      "z": 0.9732806086540222,
      "time_usec": 54303547274
    },
    {
      "x": 9.743574142456055,
      "y": 0.5168496966362,
      "z": 0.9493523836135864,
      "time_usec": 54303549529
    },
    {
      "x": 9.762716293334961,
      "y": 0.5401797294616699,
      "z": 0.9302098155021667,
      "time_usec": 54303551787
    },
    {
      "x": 9.763314247131348,
      "y": 0.5545366406440735,
      "z": 0.9254241585731506,
      "time_usec": 54303554042
    },
    {
      "x": 9.80100154876709,
      "y": 0.5641079545021057,
      "z": 0.916451096534729,
      "time_usec": 54303556303
    },
    {
      "x": 9.796216011047363,
      "y": 0.5593222975730896,
      "z": 0.9068797826766968,
      "time_usec": 54303558576
    },
    {
      "x": 9.81535816192627,
      "y": 0.5210371017456055,
      "z": 0.916451096534729,
      "time_usec": 54303560833
    },
    {
      "x": 9.81954574584961,
      "y": 0.5258227586746216,
      "z": 0.9547362327575684,
      "time_usec": 54303563091
    },
    {
      "x": 9.80518913269043,
      "y": 0.5162515044212341,
      "z": 0.9643075466156006,
      "time_usec": 54303565348
    },
    {
      "x": 9.80518913269043,
      "y": 0.5306084156036377,
      "z": 0.9882357716560364,
      "time_usec": 54303567604
    },
    {
      "x": 9.791430473327637,
      "y": 0.5306084156036377,
      "z": 0.9643075466156006,
      "time_usec": 54303569862
    },
    {
      "x": 9.743574142456055,
      "y": 0.5455635786056519,
      "z": 0.9732806086540222,
      "time_usec": 54303572118
    },
    {
      "x": 9.729815483093262,
      "y": 0.5694918036460876,
      "z": 0.9684949517250061,
      "time_usec": 54303574371
    },
    {
      "x": 9.715457916259766,
      "y": 0.5694918036460876,
      "z": 0.96370929479599,
      "time_usec": 54303576634
    },
    {
      "x": 9.710672378540039,
      "y": 0.5694918036460876,
      "z": 0.9828519225120544,
      "time_usec": 54303578890
    },
    {
      "x": 9.69631576538086,
      "y": 0.5599204897880554,
      "z": 1.0163514614105225,
      "time_usec": 54303581148
    },
    {
      "x": 9.671789169311523,
      "y": 0.5222335457801819,
      "z": 1.0636097192764282,
      "time_usec": 54303583401
    },
    {
      "x": 9.671789169311523,
      "y": 0.5126622319221497,
      "z": 1.0827522277832031,
      "time_usec": 54303585668
    },
    {
      "x": 9.657432556152344,
      "y": 0.5174478888511658,
      "z": 1.0875378847122192,
      "time_usec": 54303587922
    },
    {
      "x": 9.643074989318848,
      "y": 0.48873403668403625,
      "z": 1.0971091985702515,
      "time_usec": 54303590181
    },
    {
      "x": 9.638289451599121,
      "y": 0.4983053207397461,
      "z": 1.0923235416412354,
      "time_usec": 54303592433
    },
    {
      "x": 9.623932838439941,
      "y": 0.4695914387702942,
      "z": 1.0875378847122192,
      "time_usec": 54303594685
    },
    {
      "x": 9.619147300720215,
      "y": 0.4695914387702942,
      "z": 1.0971091985702515,
      "time_usec": 54303596947
    },
    {
      "x": 9.600603103637695,
      "y": 0.4695914387702942,
      "z": 1.072582721710205,
      "time_usec": 54303599195
    },
    {
      "x": 9.591031074523926,
      "y": 0.4456632137298584,
      "z": 1.0444670915603638,
      "time_usec": 54303601466
    },
    {
      "x": 9.614959716796875,
      "y": 0.46002015471458435,
      "z": 1.0253244638442993,
      "time_usec": 54303603718
    },
    {
      "x": 9.610174179077148,
      "y": 0.48873403668403625,
      "z": 1.0253244638442993,
      "time_usec": 54303605984
    },
    {
      "x": 9.605388641357422,
      "y": 0.49351966381073,
      "z": 1.0013962984085083,
      "time_usec": 54303608236
    },
    {
      "x": 9.610772132873535,
      "y": 0.48873403668403625,
      "z": 0.9678967595100403,
      "time_usec": 54303610482
    },
    {
      "x": 9.615557670593262,
      "y": 0.5030909776687622,
      "z": 0.9487541913986206,
      "time_usec": 54303612740
    },
    {
      "x": 9.620343208312988,
      "y": 0.48873403668403625,
      "z": 0.9296116232872009,
      "time_usec": 54303615011
    },
    {
      "x": 9.625128746032715,
      "y": 0.48394837975502014,
      "z": 0.9152546525001526,
      "time_usec": 54303617271
    },
    {
      "x": 9.667601585388184,
      "y": 0.4785645306110382,
      "z": 0.9158528447151184,
      "time_usec": 54303619529
    },
    {
      "x": 9.667601585388184,
      "y": 0.4737788736820221,
      "z": 0.8919246196746826,
      "time_usec": 54303621782
    },
    {
      "x": 9.662816047668457,
      "y": 0.4785645306110382,
      "z": 0.8871390223503113,
      "time_usec": 54303624033
    },
    {
      "x": 9.67238712310791,
      "y": 0.46899324655532837,
      "z": 0.8727820515632629,
      "time_usec": 54303626286
    },
    {
      "x": 9.653244972229004,
      "y": 0.4498506486415863,
      "z": 0.8727820515632629,
      "time_usec": 54303628555
    },
    {
      "x": 9.677172660827637,
      "y": 0.4498506486415863,
      "z": 0.8536394834518433,
      "time_usec": 54303630813
    },
    {
      "x": 9.672985076904297,
      "y": 0.4546363055706024,
      "z": 0.8392825126647949,
      "time_usec": 54303633069
    },
    {
      "x": 9.701101303100586,
      "y": 0.4450650215148926,
      "z": 0.8344969153404236,
      "time_usec": 54303635328
    },
    {
      "x": 9.677172660827637,
      "y": 0.4211367964744568,
      "z": 0.844068169593811,
      "time_usec": 54303637586
    },
    {
      "x": 9.677172660827637,
      "y": 0.4211367964744568,
      "z": 0.8153542876243591,
      "time_usec": 54303639844
    },
    {
      "x": 9.691530227661133,
      "y": 0.4211367964744568,
      "z": 0.8105686902999878,
      "time_usec": 54303642100
    },
    {
      "x": 9.701101303100586,
      "y": 0.4301098585128784,
      "z": 0.8009973764419556,
      "time_usec": 54303644355
    },
    {
      "x": 9.69212818145752,
      "y": 0.4546363055706024,
      "z": 0.7770691514015198,
      "time_usec": 54303646615
    },
    {
      "x": 9.701699256896973,
      "y": 0.4731806814670563,
      "z": 0.7770691514015198,
      "time_usec": 54303648870
    },
    {
      "x": 9.69212818145752,
      "y": 0.48813581466674805,
      "z": 0.7818548083305359,
      "time_usec": 54303651119
    },
    {
      "x": 9.687342643737793,
      "y": 0.4833501875400543,
      "z": 0.7770691514015198,
      "time_usec": 54303653387
    },
    {
      "x": 9.701699256896973,
      "y": 0.5120640397071838,
      "z": 0.8057830333709717,
      "time_usec": 54303655644
    },
    {
      "x": 9.701699256896973,
      "y": 0.5066801905632019,
      "z": 0.7770691514015198,
      "time_usec": 54303657901
    },
    {
      "x": 9.687342643737793,
      "y": 0.4977070987224579,
      "z": 0.7818548083305359,
      "time_usec": 54303660159
    },
    {
      "x": 9.668798446655273,
      "y": 0.5312066078186035,
      "z": 0.7435696125030518,
      "time_usec": 54303662405
    },
    {
      "x": 9.673583984375,
      "y": 0.49292147159576416,
      "z": 0.7579265832901001,
      "time_usec": 54303664672
    },
    {
      "x": 9.672985076904297,
      "y": 0.4977070987224579,
      "z": 0.7818548083305359,
      "time_usec": 54303666933
    },
    {
      "x": 9.66819953918457,
      "y": 0.5120640397071838,
      "z": 0.8249256014823914,
      "time_usec": 54303669194
    },
    {
      "x": 9.682557106018066,
      "y": 0.5024927258491516,
      "z": 0.8392825126647949,
      "time_usec": 54303671448
    },
    {
      "x": 9.701101303100586,
      "y": 0.49292147159576416,
      "z": 0.8871390223503113,
      "time_usec": 54303673700
    },
    {
      "x": 9.705886840820312,
      "y": 0.5120640397071838,
      "z": 0.906281590461731,
      "time_usec": 54303675963
    },
    {
      "x": 9.729216575622559,
      "y": 0.4977070987224579,
      "z": 0.9349954724311829,
      "time_usec": 54303678221
    },
    {
      "x": 9.743574142456055,
      "y": 0.49292147159576416,
      "z": 0.9589236974716187,
      "time_usec": 54303680479
    },
    {
      "x": 9.748359680175781,
      "y": 0.5024927258491516,
      "z": 0.9780662655830383,
      "time_usec": 54303682729
    },
    {
      "x": 9.743574142456055,
      "y": 0.5024927258491516,
      "z": 0.9780662655830383,
      "time_usec": 54303684989
    },
    {
      "x": 9.7669038772583,
      "y": 0.5024927258491516,
      "z": 1.0115658044815063,
      "time_usec": 54303687250
    },
    {
      "x": 9.762118339538574,
      "y": 0.4833501875400543,
      "z": 1.0163514614105225,
      "time_usec": 54303689509
    },
    {
      "x": 9.776474952697754,
      "y": 0.4977070987224579,
      "z": 1.0354939699172974,
      "time_usec": 54303691765
    },
    {
      "x": 9.767501831054688,
      "y": 0.5168496966362,
      "z": 1.0019944906234741,
      "time_usec": 54303694018
    },
    {
      "x": 9.78126049041748,
      "y": 0.511465847492218,
      "z": 1.0163514614105225,
      "time_usec": 54303696278
    },
    {
      "x": 9.814760208129883,
      "y": 0.5066801905632019,
      "z": 0.9834501147270203,
      "time_usec": 54303698529
    },
    {
      "x": 9.824331283569336,
      "y": 0.5162515044212341,
      "z": 1.007378339767456,
      "time_usec": 54303700795
    },
    {
      "x": 9.824331283569336,
      "y": 0.5258227586746216,
      "z": 0.9978070259094238,
      "time_usec": 54303703048
    },
    {
      "x": 9.838688850402832,
      "y": 0.5401797294616699,
      "z": 1.00259268283844,
      "time_usec": 54303705312
    },
    {
      "x": 9.843474388122559,
      "y": 0.544965386390686,
      "z": 1.0265209674835205,
      "time_usec": 54303707568
    },
    {
      "x": 9.829116821289062,
      "y": 0.5258227586746216,
      "z": 1.0408778190612793,
      "time_usec": 54303709826
    },
    {
      "x": 9.809974670410156,
      "y": 0.5545366406440735,
      "z": 1.0977073907852173,
      "time_usec": 54303712082
    },
    {
      "x": 9.776474952697754,
      "y": 0.5742774605751038,
      "z": 1.1024930477142334,
      "time_usec": 54303714332
    },
    {
      "x": 9.747760772705078,
      "y": 0.5694918036460876,
      "z": 1.1359925270080566,
      "time_usec": 54303716586
    },
    {
      "x": 9.729216575622559,
      "y": 0.6029912829399109,
      "z": 1.1168500185012817,
      "time_usec": 54303718852
    },
    {
      "x": 9.691530227661133,
      "y": 0.617946445941925,
      "z": 1.0971091985702515,
      "time_usec": 54303721099
    },
    {
      "x": 9.677172660827637,
      "y": 0.6227321028709412,
      "z": 1.077966570854187,
      "time_usec": 54303723363
    },
    {
      "x": 9.69631576538086,
      "y": 0.6125625967979431,
      "z": 1.0307083129882812,
      "time_usec": 54303725624
    },
    {
      "x": 9.705886840820312,
      "y": 0.5790630578994751,
      "z": 1.0019944906234741,
      "time_usec": 54303727883
    },
    {
      "x": 9.705886840820312,
      "y": 0.5599204897880554,
      "z": 0.96370929479599,
      "time_usec": 54303730145
    },
    {
      "x": 9.725028991699219,
      "y": 0.5455635786056519,
      "z": 0.9445667266845703,
      "time_usec": 54303732398
    },
    {
      "x": 9.739386558532715,
      "y": 0.5216353535652161,
      "z": 0.9158528447151184,
      "time_usec": 54303734656
    },
    {
      "x": 9.753145217895508,
      "y": 0.49232324957847595,
      "z": 0.9206385016441345,
      "time_usec": 54303736915
    },
    {
      "x": 9.748359680175781,
      "y": 0.4875376224517822,
      "z": 0.9206385016441345,
      "time_usec": 54303739173
    },
    {
      "x": 9.748359680175781,
      "y": 0.47796630859375,
      "z": 0.9302098155021667,
      "time_usec": 54303741430
    },
    {
      "x": 9.729216575622559,
      "y": 0.46420758962631226,
      "z": 0.9349954724311829,
      "time_usec": 54303743685
    },
    {
      "x": 9.686744689941406,
      "y": 0.46899324655532837,
      "z": 0.9445667266845703,
      "time_usec": 54303745945
    },
    {
      "x": 9.705288887023926,
      "y": 0.46420758962631226,
      "z": 0.9397810697555542,
      "time_usec": 54303748203
    },
    {
      "x": 9.691530227661133,
      "y": 0.4737788736820221,
      "z": 0.9445667266845703,
      "time_usec": 54303750460
    },
    {
      "x": 9.677172660827637,
      "y": 0.4833501875400543,
      "z": 0.9684949517250061,
      "time_usec": 54303752713
    },
    {
      "x": 9.667601585388184,
      "y": 0.5072783827781677,
      "z": 0.9966106414794922,
      "time_usec": 54303754973
    },
    {
      "x": 9.662816047668457,
      "y": 0.5126622319221497,
      "z": 1.0396814346313477,
      "time_usec": 54303757233
    },
    {
      "x": 9.66221809387207,
      "y": 0.5318048596382141,
      "z": 1.073180913925171,
      "time_usec": 54303759492
    },
    {
      "x": 9.66221809387207,
      "y": 0.5174478888511658,
      "z": 1.140179991722107,
      "time_usec": 54303761748
    },
    {
      "x": 9.671191215515137,
      "y": 0.5222335457801819,
      "z": 1.1736794710159302,
      "time_usec": 54303764000
    },
    {
      "x": 9.65683364868164,
      "y": 0.49351966381073,
      "z": 1.2023934125900269,
      "time_usec": 54303766261
    },
    {
      "x": 9.68494987487793,
      "y": 0.47916272282600403,
      "z": 1.2263215780258179,
      "time_usec": 54303768514
    },
    {
      "x": 9.68494987487793,
      "y": 0.45523449778556824,
      "z": 1.23589289188385,
      "time_usec": 54303770779
    },
    {
      "x": 9.68494987487793,
      "y": 0.43609192967414856,
      "z": 1.2406785488128662,
      "time_usec": 54303773027
    },
    {
      "x": 9.680164337158203,
      "y": 0.4217349886894226,
      "z": 1.23589289188385,
      "time_usec": 54303775281
    },
    {
      "x": 9.675378799438477,
      "y": 0.3978067636489868,
      "z": 1.231107234954834,
      "time_usec": 54303777550
    },
    {
      "x": 9.68494987487793,
      "y": 0.3595215976238251,
      "z": 1.1880364418029785,
      "time_usec": 54303779809
    },
    {
      "x": 9.694520950317383,
      "y": 0.349352091550827,
      "z": 1.168893814086914,
      "time_usec": 54303782066
    },
    {
      "x": 9.693922996520996,
      "y": 0.3403790295124054,
      "z": 1.2023934125900269,
      "time_usec": 54303784317
    },
    {
      "x": 9.693922996520996,
      "y": 0.27756741642951965,
      "z": 1.2023934125900269,
      "time_usec": 54303786580
    },
    {
      "x": 9.68913745880127,
      "y": 0.2679961323738098,
      "z": 1.1832507848739624,
      "time_usec": 54303788839
    },
    {
      "x": 9.669994354248047,
      "y": 0.2584248483181,
      "z": 1.1736794710159302,
      "time_usec": 54303791096
    },
    {
      "x": 9.669994354248047,
      "y": 0.24885354936122894,
      "z": 1.1545369625091553,
      "time_usec": 54303793346
    },
    {
      "x": 9.660423278808594,
      "y": 0.24945175647735596,
      "z": 1.1736794710159302,
      "time_usec": 54303795593
    },
    {
      "x": 9.6466646194458,
      "y": 0.24466611444950104,
      "z": 1.140179991722107,
      "time_usec": 54303797855
    },
    {
      "x": 9.622735977172852,
      "y": 0.24945175647735596,
      "z": 1.1730812788009644,
      "time_usec": 54303800124
    },
    {
      "x": 9.646066665649414,
      "y": 0.23030917346477509,
      "z": 1.2305090427398682,
      "time_usec": 54303802380
    },
    {
      "x": 9.617352485656738,
      "y": 0.21595224738121033,
      "z": 1.2592228651046753,
      "time_usec": 54303804639
    },
    {
      "x": 9.607781410217285,
      "y": 0.20159530639648438,
      "z": 1.292722463607788,
      "time_usec": 54303806899
    },
    {
      "x": 9.593423843383789,
      "y": 0.2021935135126114,
      "z": 1.316650629043579,
      "time_usec": 54303809156
    },
    {
      "x": 9.611968994140625,
      "y": 0.17766708135604858,
      "z": 1.3262219429016113,
      "time_usec": 54303811413
    },
    {
      "x": 9.588638305664062,
      "y": 0.18783657252788544,
      "z": 1.316650629043579,
      "time_usec": 54303813667
    },
    {
      "x": 9.593423843383789,
      "y": 0.2063809484243393,
      "z": 1.3022937774658203,
      "time_usec": 54303815927
    },
    {
      "x": 9.622138023376465,
      "y": 0.2063809484243393,
      "z": 1.2352946996688843,
      "time_usec": 54303818185
    },
    {
      "x": 9.65085220336914,
      "y": 0.21595224738121033,
      "z": 1.2113664150238037,
      "time_usec": 54303820442
    },
    {
      "x": 9.626923561096191,
      "y": 0.23030917346477509,
      "z": 1.225723385810852,
      "time_usec": 54303822699
    },
    {
      "x": 9.641280174255371,
      "y": 0.22073788940906525,
      "z": 1.1922239065170288,
      "time_usec": 54303824973
    },
    {
      "x": 9.65085220336914,
      "y": 0.2111666053533554,
      "z": 1.1736794710159302,
      "time_usec": 54303827205
    },
    {
      "x": 9.678967475891113,
      "y": 0.23030917346477509,
      "z": 1.2215359210968018,
      "time_usec": 54303829474
    },
    {
      "x": 9.693324089050293,
      "y": 0.2153540402650833,
      "z": 1.211964726448059,
      "time_usec": 54303831724
    },
    {
      "x": 9.717252731323242,
      "y": 0.2153540402650833,
      "z": 1.2215359210968018,
      "time_usec": 54303833982
    },
    {
      "x": 9.716654777526855,
      "y": 0.19621145725250244,
      "z": 1.2598211765289307,
      "time_usec": 54303836233
    },
    {
      "x": 9.745368003845215,
      "y": 0.1818545162677765,
      "z": 1.2789636850357056,
      "time_usec": 54303838503
    },
    {
      "x": 9.745368003845215,
      "y": 0.1866401731967926,
      "z": 1.293320655822754,
      "time_usec": 54303840760
    },
    {
      "x": 9.725627899169922,
      "y": 0.14835500717163086,
      "z": 1.322034478187561,
      "time_usec": 54303843016
    },
    {
      "x": 9.725627899169922,
      "y": 0.12921242415905,
      "z": 1.317248821258545,
      "time_usec": 54303845274
    },
    {
      "x": 9.716654777526855,
      "y": 0.12442677468061447,
      "z": 1.2837493419647217,
      "time_usec": 54303847529
    },
    {
      "x": 9.716654777526855,
      "y": 0.11485548317432404,
      "z": 1.2646067142486572,
      "time_usec": 54303849778
    },
    {
      "x": 9.726225852966309,
      "y": 0.12442677468061447,
      "z": 1.2550355195999146,
      "time_usec": 54303852046
    },
    {
      "x": 9.731011390686035,
      "y": 0.11964113265275955,
      "z": 1.2502498626708984,
      "time_usec": 54303854300
    },
    {
      "x": 9.735796928405762,
      "y": 0.1339980661869049,
      "z": 1.2406785488128662,
      "time_usec": 54303856565
    },
    {
      "x": 9.711869239807129,
      "y": 0.14835500717163086,
      "z": 1.2550355195999146,
      "time_usec": 54303858818
    },
    {
      "x": 9.688538551330566,
      "y": 0.15314064919948578,
      "z": 1.2215359210968018,
      "time_usec": 54303861069
    },
    {
      "x": 9.702896118164062,
      "y": 0.16271193325519562,
      "z": 1.1928220987319946,
      "time_usec": 54303863330
    },
    {
      "x": 9.722038269042969,
      "y": 0.13878370821475983,
      "z": 1.1593226194381714,
      "time_usec": 54303865592
    },
    {
      "x": 9.741181373596191,
      "y": 0.12382857501506805,
      "z": 1.1168500185012817,
      "time_usec": 54303867852
    },
    {
      "x": 9.750154495239258,
      "y": 0.12861421704292297,
      "z": 1.1359925270080566,
      "time_usec": 54303870107
    },
    {
      "x": 9.77408218383789,
      "y": 0.10468599200248718,
      "z": 1.1168500185012817,
      "time_usec": 54303872357
    },
    {
      "x": 9.79801082611084,
      "y": 0.11904292553663254,
      "z": 1.1216355562210083,
      "time_usec": 54303874610
    },
    {
      "x": 9.81655502319336,
      "y": 0.11425728350877762,
      "z": 1.1359925270080566,
      "time_usec": 54303876881
    },
    {
      "x": 9.830911636352539,
      "y": 0.1094716340303421,
      "z": 1.1647064685821533,
      "time_usec": 54303879140
    },
    {
      "x": 9.868598937988281,
      "y": 0.11904292553663254,
      "z": 1.1886346340179443,
      "time_usec": 54303881400
    },
    {
      "x": 9.878170013427734,
      "y": 0.14297115802764893,
      "z": 1.2029916048049927,
      "time_usec": 54303883647
    },
    {
      "x": 9.873384475708008,
      "y": 0.14775680005550385,
      "z": 1.2221341133117676,
      "time_usec": 54303885909
    },
    {
      "x": 9.873384475708008,
      "y": 0.16689938306808472,
      "z": 1.236491084098816,
      "time_usec": 54303888163
    },
    {
      "x": 9.887741088867188,
      "y": 0.20039889216423035,
      "z": 1.2460623979568481,
      "time_usec": 54303890410
    },
    {
      "x": 9.902098655700684,
      "y": 0.20997019112110138,
      "z": 1.246660590171814,
      "time_usec": 54303892670
    },
    {
      "x": 9.916455268859863,
      "y": 0.23808585107326508,
      "z": 1.246660590171814,
      "time_usec": 54303894936
    },
    {
      "x": 9.902098655700684,
      "y": 0.21954147517681122,
      "z": 1.25144624710083,
      "time_usec": 54303897201
    },
    {
      "x": 9.892526626586914,
      "y": 0.2147558331489563,
      "z": 1.2460623979568481,
      "time_usec": 54303899457
    },
    {
      "x": 9.902098655700684,
      "y": 0.20518454909324646,
      "z": 1.2370892763137817,
      "time_usec": 54303901712
    },
    {
      "x": 9.902098655700684,
      "y": 0.1902294009923935,
      "z": 1.2323036193847656,
      "time_usec": 54303903964
    },
    {
      "x": 9.92124080657959,
      "y": 0.18065811693668365,
      "z": 1.222732424736023,
      "time_usec": 54303906227
    },
    {
      "x": 9.902098655700684,
      "y": 0.17587246000766754,
      "z": 1.2275179624557495,
      "time_usec": 54303908485
    },
    {
      "x": 9.873384475708008,
      "y": 0.14297115802764893,
      "z": 1.217348575592041,
      "time_usec": 54303910742
    },
    {
      "x": 9.854840278625488,
      "y": 0.12382857501506805,
      "z": 1.179063320159912,
      "time_usec": 54303912995
    },
    {
      "x": 9.811769485473633,
      "y": 0.11904292553663254,
      "z": 1.1599208116531372,
      "time_usec": 54303915258
    },
    {
      "x": 9.81236743927002,
      "y": 0.11904292553663254,
      "z": 1.1312068700790405,
      "time_usec": 54303917515
    },
    {
      "x": 9.783653259277344,
      "y": 0.1333998590707779,
      "z": 1.1168500185012817,
      "time_usec": 54303919773
    },
    {
      "x": 9.779465675354004,
      "y": 0.1333998590707779,
      "z": 1.0737791061401367,
      "time_usec": 54303922028
    },
    {
      "x": 9.745966911315918,
      "y": 0.1381855010986328,
      "z": 1.0307083129882812,
      "time_usec": 54303924279
    },
    {
      "x": 9.741779327392578,
      "y": 0.15254244208335876,
      "z": 0.997208833694458,
      "time_usec": 54303926532
    },
    {
      "x": 9.717850685119629,
      "y": 0.14775680005550385,
      "z": 0.9780662655830383,
      "time_usec": 54303928802
    },
    {
      "x": 9.741779327392578,
      "y": 0.16689938306808472,
      "z": 0.9302098155021667,
      "time_usec": 54303931060
    },
    {
      "x": 9.747162818908691,
      "y": 0.14775680005550385,
      "z": 0.8967102766036987,
      "time_usec": 54303933316
    },
    {
      "x": 9.766305923461914,
      "y": 0.137587308883667,
      "z": 0.8159525394439697,
      "time_usec": 54303935575
    },
    {
      "x": 9.756733894348145,
      "y": 0.12801600992679596,
      "z": 0.7728816866874695,
      "time_usec": 54303937832
    },
    {
      "x": 9.757332801818848,
      "y": 0.12323036789894104,
      "z": 0.729810893535614,
      "time_usec": 54303940091
    },
    {
      "x": 9.757332801818848,
      "y": 0.12323036789894104,
      "z": 0.6915257573127747,
      "time_usec": 54303942349
    },
    {
      "x": 9.757332801818848,
      "y": 0.11844471842050552,
      "z": 0.672383189201355,
      "time_usec": 54303944599
    },
    {
      "x": 9.762118339538574,
      "y": 0.09451649338006973,
      "z": 0.6580262184143066,
      "time_usec": 54303946862
    },
    {
      "x": 9.767501831054688,
      "y": 0.12323036789894104,
      "z": 0.6107679605484009,
      "time_usec": 54303949119
    },
    {
      "x": 9.78664493560791,
      "y": 0.1417747437953949,
      "z": 0.5964110493659973,
      "time_usec": 54303951374
    },
    {
      "x": 9.77707290649414,
      "y": 0.13698910176753998,
      "z": 0.5581258535385132,
      "time_usec": 54303953630
    },
    {
      "x": 9.805787086486816,
      "y": 0.1417747437953949,
      "z": 0.5341976284980774,
      "time_usec": 54303955892
    },
    {
      "x": 9.829715728759766,
      "y": 0.1704886108636856,
      "z": 0.49172505736351013,
      "time_usec": 54303958150
    },
    {
      "x": 9.8207426071167,
