{
  "accelerations": [
    {
      "x": 9.78843879699707,
      "y": -0.251844584941864,
      "z": 0.7872386574745178,
      "time_usec": 83360430575
    },
    {
      "x": 9.79801082611084,
      "y": -0.24227328598499298,
      "z": 0.8207381963729858,
      "time_usec": 83360432831
    },
    {
      "x": 9.79801082611084,
      "y": -0.2231307178735733,
      "z": 0.8398807644844055,
      "time_usec": 83360435088
    },
    {
      "x": 9.764511108398438,
      "y": -0.2231307178735733,
      "z": 0.849452018737793,
      "time_usec": 83360437346
    },
    {
      "x": 9.77408218383789,
      "y": -0.251844584941864,
      "z": 0.8350951075553894,
      "time_usec": 83360439603
    },
    {
      "x": 9.731011390686035,
      "y": -0.28953152894973755,
      "z": 0.8303094506263733,
      "time_usec": 83360441859
    },
    {
      "x": 9.70229721069336,
      "y": -0.32303106784820557,
      "z": 0.8249256014823914,
      "time_usec": 83360444118
    },
    {
      "x": 9.674181938171387,
      "y": -0.3517449200153351,
      "z": 0.8057830333709717,
      "time_usec": 83360446376
    },
    {
      "x": 9.635896682739258,
      "y": -0.3613162338733673,
      "z": 0.8057830333709717,
      "time_usec": 83360448635
    },
    {
      "x": 9.611968994140625,
      "y": -0.380458801984787,
      "z": 0.7818548083305359,
      "time_usec": 83360450890
    },
    {
      "x": 9.574281692504883,
      "y": -0.4085744619369507,
      "z": 0.7674978375434875,
      "time_usec": 83360453144
    },
    {
      "x": 9.573683738708496,
      "y": -0.4181457459926605,
      "z": 0.7908278703689575,
      "time_usec": 83360455406
    },
    {
      "x": 9.564111709594727,
      "y": -0.4372883439064026,
      "z": 0.8243274092674255,
      "time_usec": 83360457664
    },
    {
      "x": 9.559326171875,
      "y": -0.42771705985069275,
      "z": 0.867398202419281,
      "time_usec": 83360459922
    },
    {
      "x": 9.56889820098877,
      "y": -0.4468596279621124,
      "z": 0.8769695162773132,
      "time_usec": 83360462179
    },
    {
      "x": 9.573084831237793,
      "y": -0.45643091201782227,
      "z": 0.8913264274597168,
      "time_usec": 83360464436
    },
    {
      "x": 9.616155624389648,
      "y": -0.4612165689468384,
      "z": 0.900897741317749,
      "time_usec": 83360466695
    },
    {
      "x": 9.611370086669922,
      "y": -0.4612165689468384,
      "z": 0.900897741317749,
      "time_usec": 83360468951
    },
    {
      "x": 9.644271850585938,
      "y": -0.4905286431312561,
      "z": 0.8919246196746826,
      "time_usec": 83360471208
    },
    {
      "x": 9.663414001464844,
      "y": -0.4713860750198364,
      "z": 0.8632107973098755,
      "time_usec": 83360473466
    },
    {
      "x": 9.682557106018066,
      "y": -0.48574298620224,
      "z": 0.8297112584114075,
      "time_usec": 83360475724
    },
    {
      "x": 9.716055870056152,
      "y": -0.4815555512905121,
      "z": 0.8446664214134216,
      "time_usec": 83360477981
    },
    {
      "x": 9.730413436889648,
      "y": -0.46719861030578613,
      "z": 0.8303094506263733,
      "time_usec": 83360480238
    },
    {
      "x": 9.730413436889648,
      "y": -0.46719861030578613,
      "z": 0.8350951075553894,
      "time_usec": 83360482496
    },
    {
      "x": 9.753743171691895,
      "y": -0.4576273262500763,
      "z": 0.8685946464538574,
      "time_usec": 83360484754
    },
    {
      "x": 9.734601020812988,
      "y": -0.47198426723480225,
      "z": 0.906281590461731,
      "time_usec": 83360487011
    },
    {
      "x": 9.720243453979492,
      "y": -0.4618147611618042,
      "z": 0.9349954724311829,
      "time_usec": 83360489268
    },
    {
      "x": 9.710672378540039,
      "y": -0.4666004180908203,
      "z": 0.9302098155021667,
      "time_usec": 83360491526
    },
    {
      "x": 9.677172660827637,
      "y": -0.4905286431312561,
      "z": 0.96370929479599,
      "time_usec": 83360493784
    },
    {
      "x": 9.662816047668457,
      "y": -0.47617170214653015,
      "z": 0.9445667266845703,
      "time_usec": 83360496041
    },
    {
      "x": 9.663414001464844,
      "y": -0.4618147611618042,
      "z": 0.9541380405426025,
      "time_usec": 83360498295
    },
    {
      "x": 9.658628463745117,
      "y": -0.4618147611618042,
      "z": 0.9541380405426025,
      "time_usec": 83360500541
    },
    {
      "x": 9.677172660827637,
      "y": -0.4570291340351105,
      "z": 0.9732806086540222,
      "time_usec": 83360502798
    },
    {
      "x": 9.67238712310791,
      "y": -0.45224347710609436,
      "z": 0.9589236974716187,
      "time_usec": 83360505054
    },
    {
      "x": 9.644271850585938,
      "y": -0.4325026869773865,
      "z": 0.9541380405426025,
      "time_usec": 83360507317
    },
    {
      "x": 9.625128746032715,
      "y": -0.45643091201782227,
      "z": 0.9487541913986206,
      "time_usec": 83360509583
    },
    {
      "x": 9.658628463745117,
      "y": -0.4331009089946747,
      "z": 0.9493523836135864,
      "time_usec": 83360511847
    },
    {
      "x": 9.649057388305664,
      "y": -0.4043870270252228,
      "z": 0.9493523836135864,
      "time_usec": 83360514102
    },
    {
      "x": 9.649057388305664,
      "y": -0.3852444589138031,
      "z": 0.9493523836135864,
      "time_usec": 83360516349
    },
    {
      "x": 9.66819953918457,
      "y": -0.3852444589138031,
      "z": 0.9541380405426025,
      "time_usec": 83360518614
    },
    {
      "x": 9.66819953918457,
      "y": -0.36610186100006104,
      "z": 0.9780662655830383,
      "time_usec": 83360520880
    },
    {
      "x": 9.67777156829834,
      "y": -0.36610186100006104,
      "z": 1.0019944906234741,
      "time_usec": 83360523129
    },
    {
      "x": 9.672985076904297,
      "y": -0.355932354927063,
      "z": 1.0211371183395386,
      "time_usec": 83360525389
    },
    {
      "x": 9.69212818145752,
      "y": -0.3613162338733673,
      "z": 1.0115658044815063,
      "time_usec": 83360527641
    },
    {
      "x": 9.69212818145752,
      "y": -0.3326023519039154,
      "z": 1.0115658044815063,
      "time_usec": 83360529891
    },
    {
      "x": 9.720842361450195,
      "y": -0.3326023519039154,
      "z": 0.9876375198364258,
      "time_usec": 83360532156
    },
    {
      "x": 9.739386558532715,
      "y": -0.3326023519039154,
      "z": 0.9732806086540222,
      "time_usec": 83360534418
    },
    {
      "x": 9.739984512329102,
      "y": -0.3086741268634796,
      "z": 0.9828519225120544,
      "time_usec": 83360536679
    },
    {
      "x": 9.739984512329102,
      "y": -0.3038884699344635,
      "z": 0.9924231767654419,
      "time_usec": 83360538936
    },
    {
      "x": 9.777671813964844,
      "y": -0.28953152894973755,
      "z": 0.9643075466156006,
      "time_usec": 83360541194
    },
    {
      "x": 9.783055305480957,
      "y": -0.26141586899757385,
      "z": 0.9308080077171326,
      "time_usec": 83360543443
    },
    {
      "x": 9.783055305480957,
      "y": -0.2566302418708801,
      "z": 0.9355936646461487,
      "time_usec": 83360545705
    },
    {
      "x": 9.773484230041504,
      "y": -0.24646073579788208,
      "z": 0.9212366938591003,
      "time_usec": 83360547962
    },
    {
      "x": 9.76391315460205,
      "y": -0.23688943684101105,
      "z": 0.9499505758285522,
      "time_usec": 83360550221
    },
    {
      "x": 9.735796928405762,
      "y": -0.2512463629245758,
      "z": 0.9349954724311829,
      "time_usec": 83360552472
    },
    {
      "x": 9.721440315246582,
      "y": -0.24646073579788208,
      "z": 0.9158528447151184,
      "time_usec": 83360554734
    },
    {
      "x": 9.707681655883789,
      "y": -0.2225325107574463,
      "z": 0.8919246196746826,
      "time_usec": 83360556994
    },
    {
      "x": 9.678967475891113,
      "y": -0.2225325107574463,
      "z": 0.8919246196746826,
      "time_usec": 83360559252
    },
    {
      "x": 9.674181938171387,
      "y": -0.21774685382843018,
      "z": 0.8727820515632629,
      "time_usec": 83360561507
    },
    {
      "x": 9.664610862731934,
      "y": -0.23210379481315613,
      "z": 0.8679963946342468,
      "time_usec": 83360563760
    },
    {
      "x": 9.65503978729248,
      "y": -0.2273181527853012,
      "z": 0.8536394834518433,
      "time_usec": 83360566022
    },
    {
      "x": 9.626923561096191,
      "y": -0.22193430364131927,
      "z": 0.8249256014823914,
      "time_usec": 83360568276
    },
    {
      "x": 9.622138023376465,
      "y": -0.2027917206287384,
      "z": 0.8488538265228271,
      "time_usec": 83360570537
    },
    {
      "x": 9.598209381103516,
      "y": -0.22193430364131927,
      "z": 0.8530412912368774,
      "time_usec": 83360572791
    },
    {
      "x": 9.57906723022461,
      "y": -0.21236300468444824,
      "z": 0.867398202419281,
      "time_usec": 83360575055
    },
    {
      "x": 9.574281692504883,
      "y": -0.22193430364131927,
      "z": 0.8626125454902649,
      "time_usec": 83360577312
    },
    {
      "x": 9.550951957702637,
      "y": -0.24586252868175507,
      "z": 0.8721838593482971,
      "time_usec": 83360579569
    },
    {
      "x": 9.541379928588867,
      "y": -0.24586252868175507,
      "z": 0.8626125454902649,
      "time_usec": 83360581811
    },
    {
      "x": 9.53659439086914,
      "y": -0.24107688665390015,
      "z": 0.8434699773788452,
      "time_usec": 83360584078
    },
    {
      "x": 9.527023315429688,
      "y": -0.26500511169433594,
      "z": 0.8243274092674255,
      "time_usec": 83360586340
    },
    {
      "x": 9.527023315429688,
      "y": -0.2793620526790619,
      "z": 0.8147560954093933,
      "time_usec": 83360588597
    },
    {
      "x": 9.546165466308594,
      "y": -0.2554338276386261,
      "z": 0.7956135272979736,
      "time_usec": 83360590856
    },
    {
      "x": 9.550951957702637,
      "y": -0.2793620526790619,
      "z": 0.7860422134399414,
      "time_usec": 83360593111
    },
    {
      "x": 9.56052303314209,
      "y": -0.26979073882102966,
      "z": 0.7908278703689575,
      "time_usec": 83360595372
    },
    {
      "x": 9.565308570861816,
      "y": -0.2602194547653198,
      "z": 0.7860422134399414,
      "time_usec": 83360597628
    },
    {
      "x": 9.57487964630127,
      "y": -0.2745763957500458,
      "z": 0.7722834944725037,
      "time_usec": 83360599883
    },
    {
      "x": 9.579665184020996,
      "y": -0.26500511169433594,
      "z": 0.786640465259552,
      "time_usec": 83360602138
    },
    {
      "x": 9.57906723022461,
      "y": -0.28893333673477173,
      "z": 0.8243274092674255,
      "time_usec": 83360604398
    },
    {
      "x": 9.574281692504883,
      "y": -0.2841476798057556,
      "z": 0.8291130661964417,
      "time_usec": 83360606647
    },
    {
      "x": 9.569496154785156,
      "y": -0.32243284583091736,
      "z": 0.8817551732063293,
      "time_usec": 83360608917
    },
    {
      "x": 9.578469276428223,
      "y": -0.355932354927063,
      "z": 0.9104689955711365,
      "time_usec": 83360611173
    },
    {
      "x": 9.568299293518066,
      "y": -0.39421752095222473,
      "z": 0.9535398483276367,
      "time_usec": 83360613428
    },
    {
      "x": 9.56351375579834,
      "y": -0.4085744619369507,
      "z": 0.9822536706924438,
      "time_usec": 83360615688
    },
    {
      "x": 9.544371604919434,
      "y": -0.42293140292167664,
      "z": 0.9822536706924438,
      "time_usec": 83360617945
    },
    {
      "x": 9.54915714263916,
      "y": -0.42771705985069275,
      "z": 0.98703932762146,
      "time_usec": 83360620203
    },
    {
      "x": 9.544371604919434,
      "y": -0.43190449476242065,
      "z": 1.0342975854873657,
      "time_usec": 83360622456
    },
    {
      "x": 9.553942680358887,
      "y": -0.4468596279621124,
      "z": 0.9726824164390564,
      "time_usec": 83360624718
    },
    {
      "x": 9.572486877441406,
      "y": -0.4420739710330963,
      "z": 1.0821540355682373,
      "time_usec": 83360626976
    },
    {
      "x": 9.57787036895752,
      "y": -0.4325026869773865,
      "z": 0.9343972206115723,
      "time_usec": 83360629235
    },
    {
      "x": 9.610772132873535,
      "y": -0.4181457459926605,
      "z": 1.0875378847122192,
      "time_usec": 83360631489
    },
    {
      "x": 9.611370086669922,
      "y": -0.39900317788124084,
      "z": 0.9678967595100403,
      "time_usec": 83360633743
    },
    {
      "x": 9.66819953918457,
      "y": -0.3852444589138031,
      "z": 1.0163514614105225,
      "time_usec": 83360636005
    },
    {
      "x": 9.715457916259766,
      "y": -0.3756731450557709,
      "z": 1.0450652837753296,
      "time_usec": 83360638263
    },
    {
      "x": 9.749555587768555,
      "y": -0.3475574851036072,
      "z": 0.9068797826766968,
      "time_usec": 83360640521
    },
    {
      "x": 9.787242889404297,
      "y": -0.34277185797691345,
      "z": 1.0121639966964722,
      "time_usec": 83360642773
    },
    {
      "x": 9.81117057800293,
      "y": -0.3332005441188812,
      "z": 0.9643075466156006,
      "time_usec": 83360645032
    },
    {
      "x": 9.835099220275879,
      "y": -0.3236292600631714,
      "z": 0.9260223507881165,
      "time_usec": 83360647278
    },
    {
      "x": 9.853643417358398,
      "y": -0.2997010350227356,
      "z": 0.9834501147270203,
      "time_usec": 83360649536
    },
    {
      "x": 9.877572059631348,
      "y": -0.2997010350227356,
      "z": 0.9457631707191467,
      "time_usec": 83360651794
    },
    {
      "x": 9.896714210510254,
      "y": -0.3290131092071533,
      "z": 0.9696913957595825,
      "time_usec": 83360654063
    },
    {
      "x": 9.891928672790527,
      "y": -0.33379876613616943,
      "z": 0.97926265001297,
      "time_usec": 83360656325
    },
    {
      "x": 9.900901794433594,
      "y": -0.3242274820804596,
      "z": 1.036690354347229,
      "time_usec": 83360658580
    },
    {
      "x": 9.872187614440918,
      "y": -0.34277185797691345,
      "z": 1.0360921621322632,
      "time_usec": 83360660838
    },
    {
      "x": 9.853643417358398,
      "y": -0.3523431420326233,
      "z": 1.0217353105545044,
      "time_usec": 83360663091
    },
    {
      "x": 9.820143699645996,
      "y": -0.36670008301734924,
      "z": 1.0265209674835205,
      "time_usec": 83360665355
    },
    {
      "x": 9.80100154876709,
      "y": -0.3810569941997528,
      "z": 1.0360921621322632,
      "time_usec": 83360667613
    },
    {
      "x": 9.805787086486816,
      "y": -0.3762713670730591,
      "z": 1.031306505203247,
      "time_usec": 83360669869
    },
    {
      "x": 9.781859397888184,
      "y": -0.3858426511287689,
      "z": 1.0450652837753296,
      "time_usec": 83360672120
    },
    {
      "x": 9.772287368774414,
      "y": -0.37148571014404297,
      "z": 1.0354939699172974,
      "time_usec": 83360674383
    },
    {
      "x": 9.763314247131348,
      "y": -0.36610186100006104,
      "z": 1.0163514614105225,
      "time_usec": 83360676638
    },
    {
      "x": 9.777671813964844,
      "y": -0.3284149169921875,
      "z": 0.9978070259094238,
      "time_usec": 83360678887
    },
    {
      "x": 9.772886276245117,
      "y": -0.3284149169921875,
      "z": 0.9690931439399719,
      "time_usec": 83360681154
    },
    {
      "x": 9.79681396484375,
      "y": -0.3188436031341553,
      "z": 0.9595218896865845,
      "time_usec": 83360683408
    },
    {
      "x": 9.759127616882324,
      "y": -0.3038884699344635,
      "z": 0.9595218896865845,
      "time_usec": 83360685674
    },
    {
      "x": 9.754341125488281,
      "y": -0.2799602448940277,
      "z": 0.9547362327575684,
      "time_usec": 83360687928
    },
    {
      "x": 9.735198974609375,
      "y": -0.28953152894973755,
      "z": 0.9302098155021667,
      "time_usec": 83360690185
    },
    {
      "x": 9.745368003845215,
      "y": -0.2847459018230438,
      "z": 0.9068797826766968,
      "time_usec": 83360692438
    },
    {
      "x": 9.721440315246582,
      "y": -0.275174617767334,
      "z": 0.8967102766036987,
      "time_usec": 83360694701
    },
    {
      "x": 9.707083702087402,
      "y": -0.2847459018230438,
      "z": 0.8919246196746826,
      "time_usec": 83360696958
    },
    {
      "x": 9.716654777526855,
      "y": -0.275174617767334,
      "z": 0.8685946464538574,
      "time_usec": 83360699217
    },
    {
      "x": 9.731011390686035,
      "y": -0.2757728099822998,
      "z": 0.849452018737793,
      "time_usec": 83360701473
    },
    {
      "x": 9.717252731323242,
      "y": -0.26560330390930176,
      "z": 0.8255237936973572,
      "time_usec": 83360703723
    },
    {
      "x": 9.712467193603516,
      "y": -0.26560330390930176,
      "z": 0.8015955686569214,
      "time_usec": 83360705978
    },
    {
      "x": 9.731609344482422,
      "y": -0.2805584669113159,
      "z": 0.7920243144035339,
      "time_usec": 83360708245
    },
    {
      "x": 9.736394882202148,
      "y": -0.28534409403800964,
      "z": 0.763310432434082,
      "time_usec": 83360710503
    },
    {
      "x": 9.741181373596191,
      "y": -0.2997010350227356,
      "z": 0.7585247755050659,
      "time_usec": 83360712758
    },
    {
      "x": 9.726823806762695,
      "y": -0.3044866919517517,
      "z": 0.7489534616470337,
      "time_usec": 83360715018
    },
    {
      "x": 9.731609344482422,
      "y": -0.3284149169921875,
      "z": 0.7537391185760498,
      "time_usec": 83360717276
    },
    {
      "x": 9.712467193603516,
      "y": -0.3188436031341553,
      "z": 0.7441678643226624,
      "time_usec": 83360719534
    },
    {
      "x": 9.712467193603516,
      "y": -0.3044866919517517,
      "z": 0.7441678643226624,
      "time_usec": 83360721784
    },
    {
      "x": 9.726823806762695,
      "y": -0.3284149169921875,
      "z": 0.7345965504646301,
      "time_usec": 83360724043
    },
    {
      "x": 9.736394882202148,
      "y": -0.3332005441188812,
      "z": 0.7250252366065979,
      "time_usec": 83360726307
    },
    {
      "x": 9.717252731323242,
      "y": -0.33798620104789734,
      "z": 0.7345965504646301,
      "time_usec": 83360728570
    },
    {
      "x": 9.722038269042969,
      "y": -0.3523431420326233,
      "z": 0.7202396392822266,
      "time_usec": 83360730820
    },
    {
      "x": 9.660423278808594,
      "y": -0.37088751792907715,
      "z": 0.7202396392822266,
      "time_usec": 83360733065
    },
    {
      "x": 9.617352485656738,
      "y": -0.39481574296951294,
      "z": 0.719641387462616,
      "time_usec": 83360735333
    },
    {
      "x": 9.92124080657959,
      "y": -0.31046873331069946,
      "z": 0.7405785918235779,
      "time_usec": 83360737589
    },
    {
      "x": 9.754940032958984,
      "y": -0.37148571014404297,
      "z": 0.729810893535614,
      "time_usec": 83360739852
    },
    {
      "x": 9.678967475891113,
      "y": -0.4049852192401886,
      "z": 0.7489534616470337,
      "time_usec": 83360742103
    },
    {
      "x": 9.778867721557617,
      "y": -0.3858426511287689,
      "z": 0.7399803996086121,
      "time_usec": 83360744366
    },
    {
      "x": 9.77826976776123,
      "y": -0.4049852192401886,
      "z": 0.763310432434082,
      "time_usec": 83360746624
    },
    {
      "x": 9.721440315246582,
      "y": -0.4384847581386566,
      "z": 0.7824530005455017,
      "time_usec": 83360748887
    },
    {
      "x": 9.730413436889648,
      "y": -0.4336991012096405,
      "z": 0.8111668825149536,
      "time_usec": 83360751135
    },
    {
      "x": 9.797411918640137,
      "y": -0.42412781715393066,
      "z": 0.8111668825149536,
      "time_usec": 83360753385
    },
    {
      "x": 9.77826976776123,
      "y": -0.4336991012096405,
      "z": 0.8303094506263733,
      "time_usec": 83360755651
    },
    {
      "x": 9.777671813964844,
      "y": -0.4384847581386566,
      "z": 0.8542376756668091,
      "time_usec": 83360757905
    },
    {
      "x": 9.835099220275879,
      "y": -0.4295116662979126,
      "z": 0.8644071817398071,
      "time_usec": 83360760169
    },
    {
      "x": 9.839884757995605,
      "y": -0.4007977843284607,
      "z": 0.8883354067802429,
      "time_usec": 83360762420
    },
    {
      "x": 9.854242324829102,
      "y": -0.4055834412574768,
      "z": 0.8644071817398071,
      "time_usec": 83360764684
    },
    {
      "x": 9.877572059631348,
      "y": -0.4247260093688965,
      "z": 0.8691928386688232,
      "time_usec": 83360766942
    },
    {
      "x": 9.90149974822998,
      "y": -0.4055834412574768,
      "z": 0.8644071817398071,
      "time_usec": 83360769199
    },
    {
      "x": 9.920642852783203,
      "y": -0.41515472531318665,
      "z": 0.8691928386688232,
      "time_usec": 83360771459
    },
    {
      "x": 9.924830436706543,
      "y": -0.39601215720176697,
      "z": 0.8835497498512268,
      "time_usec": 83360773709
    },
    {
      "x": 9.94397258758545,
      "y": -0.38644084334373474,
      "z": 0.9218349456787109,
      "time_usec": 83360775970
    },
    {
      "x": 9.92961597442627,
      "y": -0.3768695592880249,
      "z": 0.9409775137901306,
      "time_usec": 83360778227
    },
    {
      "x": 9.938589096069336,
      "y": -0.3768695592880249,
      "z": 1.0031908750534058,
      "time_usec": 83360780485
    },
    {
      "x": 9.93380355834961,
      "y": -0.36729827523231506,
      "z": 1.017547845840454,
      "time_usec": 83360782738
    },
    {
      "x": 9.93380355834961,
      "y": -0.3768695592880249,
      "z": 1.0271191596984863,
      "time_usec": 83360785000
    },
    {
      "x": 9.90987491607666,
      "y": -0.381655216217041,
      "z": 1.0414760112762451,
      "time_usec": 83360787258
    },
    {
      "x": 9.886545181274414,
      "y": -0.4103690981864929,
      "z": 1.0360921621322632,
      "time_usec": 83360789516
    },
    {
      "x": 9.876974105834961,
      "y": -0.43908295035362244,
      "z": 1.0265209674835205,
      "time_usec": 83360791767
    },
    {
      "x": 9.843474388122559,
      "y": -0.4576273262500763,
      "z": 1.0360921621322632,
      "time_usec": 83360794025
    },
    {
      "x": 9.829116821289062,
      "y": -0.47198426723480225,
      "z": 1.0169496536254883,
      "time_usec": 83360796286
    },
    {
      "x": 9.833903312683105,
      "y": -0.4815555512905121,
      "z": 1.0265209674835205,
      "time_usec": 83360798536
    },
    {
      "x": 9.824331283569336,
      "y": -0.4863412082195282,
      "z": 1.0265209674835205,
      "time_usec": 83360800791
    },
    {
      "x": 9.848259925842285,
      "y": -0.47198426723480225,
      "z": 1.0408778190612793,
      "time_usec": 83360803053
    },
    {
      "x": 9.871589660644531,
      "y": -0.4630111753940582,
      "z": 1.0552347898483276,
      "time_usec": 83360805306
    },
    {
      "x": 9.885947227478027,
      "y": -0.4534398913383484,
      "z": 1.0552347898483276,
      "time_usec": 83360807577
    },
    {
      "x": 9.890732765197754,
      "y": -0.43908295035362244,
      "z": 1.0600204467773438,
      "time_usec": 83360809834
    },
    {
      "x": 9.900303840637207,
      "y": -0.41994038224220276,
      "z": 1.0271191596984863,
      "time_usec": 83360812085
    },
    {
      "x": 9.915258407592773,
      "y": -0.4055834412574768,
      "z": 1.0079765319824219,
      "time_usec": 83360814335
    },
    {
      "x": 9.915258407592773,
      "y": -0.39122650027275085,
      "z": 1.0079765319824219,
      "time_usec": 83360816598
    },
    {
      "x": 9.90568733215332,
      "y": -0.3529413342475891,
      "z": 0.9984052777290344,
      "time_usec": 83360818851
    },
    {
      "x": 9.915258407592773,
      "y": -0.36251261830329895,
      "z": 0.9936196208000183,
      "time_usec": 83360821122
    },
    {
      "x": 9.90568733215332,
      "y": -0.33858439326286316,
      "z": 0.9840483069419861,
      "time_usec": 83360823371
    },
    {
      "x": 9.910472869873047,
      "y": -0.33379876613616943,
      "z": 0.97926265001297,
      "time_usec": 83360825626
    },
    {
      "x": 9.8871431350708,
      "y": -0.33379876613616943,
      "z": 0.9744769930839539,
      "time_usec": 83360827890
    },
    {
      "x": 9.863214492797852,
      "y": -0.3481557071208954,
      "z": 0.9361918568611145,
      "time_usec": 83360830150
    },
    {
      "x": 9.853643417358398,
      "y": -0.34277185797691345,
      "z": 0.9361918568611145,
      "time_usec": 83360832406
    },
    {
      "x": 9.839884757995605,
      "y": -0.34277185797691345,
      "z": 0.9026923179626465,
      "time_usec": 83360834666
    },
    {
      "x": 9.849455833435059,
      "y": -0.3481557071208954,
      "z": 0.8787640929222107,
      "time_usec": 83360836923
    },
    {
      "x": 9.8207426071167,
      "y": -0.357128769159317,
      "z": 0.8733802437782288,
      "time_usec": 83360839182
    },
    {
      "x": 9.797411918640137,
      "y": -0.36191442608833313,
      "z": 0.8733802437782288,
      "time_usec": 83360841437
    },
    {
      "x": 9.78245735168457,
      "y": -0.3858426511287689,
      "z": 0.8877372145652771,
      "time_usec": 83360843691
    },
    {
      "x": 9.76391315460205,
      "y": -0.3762713670730591,
      "z": 0.8685946464538574,
      "time_usec": 83360845954
    },
    {
      "x": 9.749555587768555,
      "y": -0.4049852192401886,
      "z": 0.8733802437782288,
      "time_usec": 83360848210
    },
    {
      "x": 9.711270332336426,
      "y": -0.4289134442806244,
      "z": 0.8350951075553894,
      "time_usec": 83360850468
    },
    {
      "x": 9.701699256896973,
      "y": -0.42352959513664246,
      "z": 0.8727820515632629,
      "time_usec": 83360852717
    },
    {
      "x": 9.68794059753418,
      "y": -0.4331009089946747,
      "z": 0.8488538265228271,
      "time_usec": 83360854970
    },
    {
      "x": 9.654440879821777,
      "y": -0.4331009089946747,
      "z": 0.8679963946342468,
      "time_usec": 83360857237
    },
    {
      "x": 9.635298728942871,
      "y": -0.4666004180908203,
      "z": 0.8727820515632629,
      "time_usec": 83360859485
    },
    {
      "x": 9.620942115783691,
      "y": -0.4570291340351105,
      "z": 0.8536394834518433,
      "time_usec": 83360861754
    },
    {
      "x": 9.592227935791016,
      "y": -0.4666004180908203,
      "z": 0.867398202419281,
      "time_usec": 83360864009
    },
    {
      "x": 9.588040351867676,
      "y": -0.45643091201782227,
      "z": 0.8626125454902649,
      "time_usec": 83360866274
    },
    {
      "x": 9.578469276428223,
      "y": -0.4612165689468384,
      "z": 0.8482556343078613,
      "time_usec": 83360868529
    },
    {
      "x": 9.56889820098877,
      "y": -0.48574298620224,
      "z": 0.8195417523384094,
      "time_usec": 83360870785
    },
    {
      "x": 9.483354568481445,
      "y": -0.47557350993156433,
      "z": 0.8195417523384094,
      "time_usec": 83360873038
    },
    {
      "x": 9.56889820098877,
      "y": -0.48574298620224,
      "z": 0.7956135272979736,
      "time_usec": 83360875302
    },
    {
      "x": 9.55513858795166,
      "y": -0.48095735907554626,
      "z": 0.7573283910751343,
      "time_usec": 83360877559
    },
    {
      "x": 9.521639823913574,
      "y": -0.494716078042984,
      "z": 0.7621139883995056,
      "time_usec": 83360879816
    },
    {
      "x": 9.55513858795166,
      "y": -0.4713860750198364,
      "z": 0.7573283910751343,
      "time_usec": 83360882068
    },
    {
      "x": 9.588040351867676,
      "y": -0.4905286431312561,
      "z": 0.7579265832901001,
      "time_usec": 83360884329
    },
    {
      "x": 9.578469276428223,
      "y": -0.48095735907554626,
      "z": 0.7674978375434875,
      "time_usec": 83360886583
    },
    {
      "x": 9.578469276428223,
      "y": -0.4666004180908203,
      "z": 0.7722834944725037,
      "time_usec": 83360888843
    },
    {
      "x": 9.597611427307129,
      "y": -0.47617170214653015,
      "z": 0.7770691514015198,
      "time_usec": 83360891088
    },
    {
      "x": 9.616754531860352,
      "y": -0.48095735907554626,
      "z": 0.7770691514015198,
      "time_usec": 83360893356
    },
    {
      "x": 9.621540069580078,
      "y": -0.4618147611618042,
      "z": 0.7962117195129395,
      "time_usec": 83360895619
    },
    {
      "x": 9.644869804382324,
      "y": -0.4666004180908203,
      "z": 0.8009973764419556,
      "time_usec": 83360897886
    },
    {
      "x": 9.654440879821777,
      "y": -0.4713860750198364,
      "z": 0.8201399445533752,
      "time_usec": 83360900134
    },
    {
      "x": 9.625727653503418,
      "y": -0.48095735907554626,
      "z": 0.8344969153404236,
      "time_usec": 83360902382
    },
    {
      "x": 9.654440879821777,
      "y": -0.48574298620224,
      "z": 0.8057830333709717,
      "time_usec": 83360904633
    },
    {
      "x": 9.630513191223145,
      "y": -0.47617170214653015,
      "z": 0.7962117195129395,
      "time_usec": 83360906904
    },
    {
      "x": 9.640084266662598,
      "y": -0.4713860750198364,
      "z": 0.8201399445533752,
      "time_usec": 83360909164
    },
    {
      "x": 9.625727653503418,
      "y": -0.48095735907554626,
      "z": 0.8297112584114075,
      "time_usec": 83360911422
    },
    {
      "x": 9.616754531860352,
      "y": -0.4713860750198364,
      "z": 0.8201399445533752,
      "time_usec": 83360913673
    },
    {
      "x": 9.621540069580078,
      "y": -0.4426721930503845,
      "z": 0.8344969153404236,
      "time_usec": 83360915936
    },
    {
      "x": 9.631111145019531,
      "y": -0.4331009089946747,
      "z": 0.8249256014823914,
      "time_usec": 83360918192
    },
    {
      "x": 9.683155059814453,
      "y": -0.42831525206565857,
      "z": 0.8201399445533752,
      "time_usec": 83360920440
    },
    {
      "x": 9.68794059753418,
      "y": -0.39481574296951294,
      "z": 0.8488538265228271,
      "time_usec": 83360922702
    },
    {
      "x": 9.692726135253906,
      "y": -0.39481574296951294,
      "z": 0.8679963946342468,
      "time_usec": 83360924965
    },
    {
      "x": 9.711869239807129,
      "y": -0.3858426511287689,
      "z": 0.8542376756668091,
      "time_usec": 83360927225
    },
    {
      "x": 9.70229721069336,
      "y": -0.3565305769443512,
      "z": 0.8488538265228271,
      "time_usec": 83360929483
    },
    {
      "x": 9.70229721069336,
      "y": -0.33738797903060913,
      "z": 0.8488538265228271,
      "time_usec": 83360931741
    },
    {
      "x": 9.721440315246582,
      "y": -0.3332005441188812,
      "z": 0.8303094506263733,
      "time_usec": 83360933990
    },
    {
      "x": 9.750154495239258,
      "y": -0.31405797600746155,
      "z": 0.8398807644844055,
      "time_usec": 83360936254
    },
    {
      "x": 9.745368003845215,
      "y": -0.3236292600631714,
      "z": 0.8398807644844055,
      "time_usec": 83360938509
    },
    {
      "x": 9.740582466125488,
      "y": -0.3044866919517517,
      "z": 0.8542376756668091,
      "time_usec": 83360940766
    },
    {
      "x": 9.726225852966309,
      "y": -0.3038884699344635,
      "z": 0.8685946464538574,
      "time_usec": 83360943012
    },
    {
      "x": 9.726225852966309,
      "y": -0.31345975399017334,
      "z": 0.8781659007072449,
      "time_usec": 83360945283
    },
    {
      "x": 9.721440315246582,
      "y": -0.32303106784820557,
      "z": 0.8638089895248413,
      "time_usec": 83360947541
    },
    {
      "x": 9.716654777526855,
      "y": -0.32303106784820557,
      "z": 0.8638089895248413,
      "time_usec": 83360949800
    },
    {
      "x": 9.692726135253906,
      "y": -0.32303106784820557,
      "z": 0.8632107973098755,
      "time_usec": 83360952051
    },
    {
      "x": 9.673583984375,
      "y": -0.3565305769443512,
      "z": 0.8488538265228271,
      "time_usec": 83360954316
    },
    {
      "x": 9.659825325012207,
      "y": -0.3613162338733673,
      "z": 0.8488538265228271,
      "time_usec": 83360956562
    },
    {
      "x": 9.64965534210205,
      "y": -0.3613162338733673,
      "z": 0.877567708492279,
      "time_usec": 83360958824
    },
    {
      "x": 9.616754531860352,
      "y": -0.3852444589138031,
      "z": 0.877567708492279,
      "time_usec": 83360961083
    },
    {
      "x": 9.616754531860352,
      "y": -0.380458801984787,
      "z": 0.8727820515632629,
      "time_usec": 83360963338
    },
    {
      "x": 9.597611427307129,
      "y": -0.37028929591178894,
      "z": 0.8626125454902649,
      "time_usec": 83360965598
    },
    {
      "x": 9.597611427307129,
      "y": -0.3607180118560791,
      "z": 0.8488538265228271,
      "time_usec": 83360967858
    },
    {
      "x": 9.592825889587402,
      "y": -0.3607180118560791,
      "z": 0.8626125454902649,
      "time_usec": 83360970116
    },
    {
      "x": 9.588040351867676,
      "y": -0.3655036687850952,
      "z": 0.8434699773788452,
      "time_usec": 83360972370
    },
    {
      "x": 9.559925079345703,
      "y": -0.34636107087135315,
      "z": 0.8243274092674255,
      "time_usec": 83360974630
    },
    {
      "x": 9.541379928588867,
      "y": -0.32243284583091736,
      "z": 0.8147560954093933,
      "time_usec": 83360976885
    },
    {
      "x": 9.541379928588867,
      "y": -0.31764721870422363,
      "z": 0.7956135272979736,
      "time_usec": 83360979146
    },
    {
      "x": 9.513264656066895,
      "y": -0.3128615617752075,
      "z": 0.7668996453285217,
      "time_usec": 83360981402
    },
    {
      "x": 9.527023315429688,
      "y": -0.29371899366378784,
      "z": 0.7908278703689575,
      "time_usec": 83360983656
    },
    {
      "x": 9.513264656066895,
      "y": -0.2841476798057556,
      "z": 0.7621139883995056,
      "time_usec": 83360985918
    },
    {
      "x": 9.522835731506348,
      "y": -0.3032902777194977,
      "z": 0.7573283910751343,
      "time_usec": 83360988174
    },
    {
      "x": 9.531808853149414,
      "y": -0.28893333673477173,
      "z": 0.7668996453285217,
      "time_usec": 83360990427
    },
    {
      "x": 9.513264656066895,
      "y": -0.26979073882102966,
      "z": 0.776470959186554,
      "time_usec": 83360992685
    },
    {
      "x": 9.527621269226074,
      "y": -0.26979073882102966,
      "z": 0.7908278703689575,
      "time_usec": 83360994948
    },
    {
      "x": 9.546165466308594,
      "y": -0.2602194547653198,
      "z": 0.7716853022575378,
      "time_usec": 83360997207
    },
    {
      "x": 9.565308570861816,
      "y": -0.24586252868175507,
      "z": 0.7722834944725037,
      "time_usec": 83360999464
    },
    {
      "x": 9.579665184020996,
      "y": -0.26500511169433594,
      "z": 0.7722834944725037,
      "time_usec": 83361001717
    },
    {
      "x": 9.598808288574219,
      "y": -0.24586252868175507,
      "z": 0.7627122402191162,
      "time_usec": 83361003965
    },
    {
      "x": 9.617950439453125,
      "y": -0.26560330390930176,
      "z": 0.7579265832901001,
      "time_usec": 83361006236
    },
    {
      "x": 9.622735977172852,
      "y": -0.24167509377002716,
      "z": 0.7483552694320679,
      "time_usec": 83361008494
    },
    {
      "x": 9.632308006286621,
      "y": -0.23210379481315613,
      "z": 0.7579265832901001,
      "time_usec": 83361010752
    },
    {
      "x": 9.637093544006348,
      "y": -0.2512463629245758,
      "z": 0.7435696125030518,
      "time_usec": 83361013001
    },
    {
      "x": 9.613164901733398,
      "y": -0.2512463629245758,
      "z": 0.7387840151786804,
      "time_usec": 83361015257
    },
    {
      "x": 9.603593826293945,
      "y": -0.2512463629245758,
      "z": 0.7387840151786804,
      "time_usec": 83361017507
    },
    {
      "x": 9.622735977172852,
      "y": -0.27038896083831787,
      "z": 0.7483552694320679,
      "time_usec": 83361019767
    },
    {
      "x": 9.617950439453125,
      "y": -0.26081767678260803,
      "z": 0.7579265832901001,
      "time_usec": 83361022023
    },
    {
      "x": 9.613164901733398,
      "y": -0.275174617767334,
      "z": 0.753140926361084,
      "time_usec": 83361024286
    },
    {
      "x": 9.622138023376465,
      "y": -0.27038896083831787,
      "z": 0.7770691514015198,
      "time_usec": 83361026557
    },
    {
      "x": 9.617352485656738,
      "y": -0.26560330390930176,
      "z": 0.7962117195129395,
      "time_usec": 83361028813
    },
    {
      "x": 9.598808288574219,
      "y": -0.26500511169433594,
      "z": 0.7914260625839233,
      "time_usec": 83361031069
    },
    {
      "x": 9.622138023376465,
      "y": -0.26560330390930176,
      "z": 0.8057830333709717,
      "time_usec": 83361033318
    },
    {
      "x": 9.631709098815918,
      "y": -0.27038896083831787,
      "z": 0.8057830333709717,
      "time_usec": 83361035578
    },
    {
      "x": 9.678967475891113,
      "y": -0.26560330390930176,
      "z": 0.8009973764419556,
      "time_usec": 83361037840
    },
    {
      "x": 9.678967475891113,
      "y": -0.2799602448940277,
      "z": 0.8201399445533752,
      "time_usec": 83361040097
    },
    {
      "x": 9.707681655883789,
      "y": -0.29431718587875366,
      "z": 0.8207381963729858,
      "time_usec": 83361042352
    },
    {
      "x": 9.726225852966309,
      "y": -0.2847459018230438,
      "z": 0.8303094506263733,
      "time_usec": 83361044614
    },
    {
      "x": 9.745368003845215,
      "y": -0.2566302418708801,
      "z": 0.8398807644844055,
      "time_usec": 83361046872
    },
    {
      "x": 9.759725570678711,
      "y": -0.2566302418708801,
      "z": 0.8207381963729858,
      "time_usec": 83361049129
    },
    {
      "x": 9.750154495239258,
      "y": -0.24227328598499298,
      "z": 0.8446664214134216,
      "time_usec": 83361051384
    },
    {
      "x": 9.754940032958984,
      "y": -0.26141586899757385,
      "z": 0.8350951075553894,
      "time_usec": 83361053635
    },
    {
      "x": 9.764511108398438,
      "y": -0.251844584941864,
      "z": 0.8733802437782288,
      "time_usec": 83361055890
    },
    {
      "x": 9.759725570678711,
      "y": -0.2470589429140091,
      "z": 0.8925228714942932,
      "time_usec": 83361058158
    },
    {
      "x": 9.740582466125488,
      "y": -0.26081767678260803,
      "z": 0.9349954724311829,
      "time_usec": 83361060416
    },
    {
      "x": 9.711869239807129,
      "y": -0.2560320198535919,
      "z": 0.96370929479599,
      "time_usec": 83361062671
    },
    {
      "x": 9.711869239807129,
      "y": -0.26081767678260803,
      "z": 0.9684949517250061,
      "time_usec": 83361064930
    },
    {
      "x": 9.7064847946167,
      "y": -0.26560330390930176,
      "z": 0.9924231767654419,
      "time_usec": 83361067188
    },
    {
      "x": 9.701699256896973,
      "y": -0.275174617767334,
      "z": 1.0019944906234741,
      "time_usec": 83361069446
    },
    {
      "x": 9.720842361450195,
      "y": -0.27038896083831787,
      "z": 1.0115658044815063,
      "time_usec": 83361071701
    },
    {
      "x": 9.711270332336426,
      "y": -0.27038896083831787,
      "z": 1.0163514614105225,
      "time_usec": 83361073955
    },
    {
      "x": 9.701699256896973,
      "y": -0.275174617767334,
      "z": 1.0019944906234741,
      "time_usec": 83361076215
    },
    {
      "x": 9.697511672973633,
      "y": -0.26560330390930176,
      "z": 0.9876375198364258,
      "time_usec": 83361078463
    },
    {
      "x": 9.692726135253906,
      "y": -0.2512463629245758,
      "z": 0.9828519225120544,
      "time_usec": 83361080734
    },
    {
      "x": 9.697511672973633,
      "y": -0.275174617767334,
      "z": 0.9541380405426025,
      "time_usec": 83361082985
    },
    {
      "x": 9.697511672973633,
      "y": -0.2512463629245758,
      "z": 0.9493523836135864,
      "time_usec": 83361085251
    },
    {
      "x": 9.707083702087402,
      "y": -0.24646073579788208,
      "z": 0.96370929479599,
      "time_usec": 83361087504
    },
    {
      "x": 9.731011390686035,
      "y": -0.21774685382843018,
      "z": 0.9684949517250061,
      "time_usec": 83361089758
    },
    {
      "x": 9.740582466125488,
      "y": -0.20817556977272034,
      "z": 0.9589236974716187,
      "time_usec": 83361092016
    },
    {
      "x": 9.745368003845215,
      "y": -0.19381862878799438,
      "z": 0.96370929479599,
      "time_usec": 83361094278
    },
    {
      "x": 9.778867721557617,
      "y": -0.1944168359041214,
      "z": 0.9451649188995361,
      "time_usec": 83361096537
    },
    {
      "x": 9.793225288391113,
      "y": -0.1704886108636856,
      "z": 0.916451096534729,
      "time_usec": 83361098795
    },
    {
      "x": 9.826126098632812,
      "y": -0.18005990982055664,
      "z": 0.916451096534729,
      "time_usec": 83361101049
    },
    {
      "x": 9.817152976989746,
      "y": -0.17527425289154053,
      "z": 0.9020941257476807,
      "time_usec": 83361103304
    },
    {
      "x": 9.821938514709473,
      "y": -0.16091732680797577,
      "z": 0.9068797826766968,
      "time_usec": 83361105570
    },
    {
      "x": 9.821938514709473,
      "y": -0.18005990982055664,
      "z": 0.8781659007072449,
      "time_usec": 83361107823
    },
    {
      "x": 9.817152976989746,
      "y": -0.1657029688358307,
      "z": 0.8877372145652771,
      "time_usec": 83361110080
    },
    {
      "x": 9.81236743927002,
      "y": -0.15613168478012085,
      "z": 0.8925228714942932,
      "time_usec": 83361112330
    },
    {
      "x": 9.79801082611084,
      "y": -0.16091732680797577,
      "z": 0.8925228714942932,
      "time_usec": 83361114592
    },
    {
      "x": 9.769296646118164,
      "y": -0.18005990982055664,
      "z": 0.9020941257476807,
      "time_usec": 83361116855
    },
    {
      "x": 9.759725570678711,
      "y": -0.20398813486099243,
      "z": 0.8973084688186646,
      "time_usec": 83361119099
    },
    {
      "x": 9.764511108398438,
      "y": -0.18963119387626648,
      "z": 0.8781659007072449,
      "time_usec": 83361121368
    },
    {
      "x": 9.731609344482422,
      "y": -0.1986042857170105,
      "z": 0.8638089895248413,
      "time_usec": 83361123619
    },
    {
      "x": 9.731609344482422,
      "y": -0.20338992774486542,
      "z": 0.8638089895248413,
      "time_usec": 83361125887
    },
    {
      "x": 9.693324089050293,
      "y": -0.21296121180057526,
      "z": 0.8536394834518433,
      "time_usec": 83361128140
    },
    {
      "x": 9.702896118164062,
      "y": -0.21296121180057526,
      "z": 0.8584251403808594,
      "time_usec": 83361130398
    },
    {
      "x": 9.698110580444336,
      "y": -0.23210379481315613,
      "z": 0.8536394834518433,
      "time_usec": 83361132651
    },
    {
      "x": 9.702896118164062,
      "y": -0.23210379481315613,
      "z": 0.8536394834518433,
      "time_usec": 83361134915
    },
    {
      "x": 9.688538551330566,
      "y": -0.2225325107574463,
      "z": 0.8584251403808594,
      "time_usec": 83361137170
    },
    {
      "x": 9.712467193603516,
      "y": -0.23210379481315613,
      "z": 0.8350951075553894,
      "time_usec": 83361139429
    },
    {
      "x": 9.726823806762695,
      "y": -0.24227328598499298,
      "z": 0.8159525394439697,
      "time_usec": 83361141683
    },
    {
      "x": 9.717252731323242,
      "y": -0.24167509377002716,
      "z": 0.8111668825149536,
      "time_usec": 83361143937
    },
    {
      "x": 9.745966911315918,
      "y": -0.24227328598499298,
      "z": 0.8015955686569214,
      "time_usec": 83361146200
    },
    {
      "x": 9.745966911315918,
      "y": -0.26141586899757385,
      "z": 0.7968099117279053,
      "time_usec": 83361148458
    },
    {
      "x": 9.755537986755371,
      "y": -0.2566302418708801,
      "z": 0.7537391185760498,
      "time_usec": 83361150716
    },
    {
      "x": 9.760323524475098,
      "y": -0.2470589429140091,
      "z": 0.763310432434082,
      "time_usec": 83361152969
    },
    {
      "x": 9.76989459991455,
      "y": -0.23270200192928314,
      "z": 0.7441678643226624,
      "time_usec": 83361155230
    },
    {
      "x": 9.745966911315918,
      "y": -0.2231307178735733,
      "z": 0.7680960893630981,
      "time_usec": 83361157488
    },
    {
      "x": 9.760323524475098,
      "y": -0.22791635990142822,
      "z": 0.7776673436164856,
      "time_usec": 83361159745
    },
    {
      "x": 9.750154495239258,
      "y": -0.2470589429140091,
      "z": 0.8111668825149536,
      "time_usec": 83361161998
    },
    {
      "x": 9.740582466125488,
      "y": -0.26081767678260803,
      "z": 0.849452018737793,
      "time_usec": 83361164261
    },
    {
      "x": 9.707083702087402,
      "y": -0.2799602448940277,
      "z": 0.8584251403808594,
      "time_usec": 83361166518
    },
    {
      "x": 9.707083702087402,
      "y": -0.29431718587875366,
      "z": 0.8536394834518433,
      "time_usec": 83361168777
    },
    {
      "x": 9.692726135253906,
      "y": -0.31824541091918945,
      "z": 0.8392825126647949,
      "time_usec": 83361171032
    },
    {
      "x": 9.692726135253906,
      "y": -0.3613162338733673,
      "z": 0.8297112584114075,
      "time_usec": 83361173285
    },
    {
      "x": 9.697511672973633,
      "y": -0.3852444589138031,
      "z": 0.8249256014823914,
      "time_usec": 83361175547
    },
    {
      "x": 9.726225852966309,
      "y": -0.3810569941997528,
      "z": 0.8255237936973572,
      "time_usec": 83361177805
    },
    {
      "x": 9.735198974609375,
      "y": -0.39541393518447876,
      "z": 0.8255237936973572,
      "time_usec": 83361180063
    },
    {
      "x": 9.754341125488281,
      "y": -0.42412781715393066,
      "z": 0.8303094506263733,
      "time_usec": 83361182314
    },
    {
      "x": 9.744770050048828,
      "y": -0.4145565330982208,
      "z": 0.8303094506263733,
      "time_usec": 83361184573
    },
    {
      "x": 9.768698692321777,
      "y": -0.4145565330982208,
      "z": 0.8398807644844055,
      "time_usec": 83361186836
    },
    {
      "x": 9.777671813964844,
      "y": -0.39541393518447876,
      "z": 0.8638089895248413,
      "time_usec": 83361189096
    },
    {
      "x": 9.792028427124023,
      "y": -0.39062830805778503,
      "z": 0.8638089895248413,
      "time_usec": 83361191350
    },
    {
      "x": 9.792028427124023,
      "y": -0.4001995921134949,
      "z": 0.882951557636261,
      "time_usec": 83361193602
    },
    {
      "x": 9.8207426071167,
      "y": -0.3858426511287689,
      "z": 0.8733802437782288,
      "time_usec": 83361195865
    },
    {
      "x": 9.8207426071167,
      "y": -0.357128769159317,
      "z": 0.8685946464538574,
      "time_usec": 83361198119
    },
    {
      "x": 9.839884757995605,
      "y": -0.34277185797691345,
      "z": 0.8925228714942932,
      "time_usec": 83361200367
    },
    {
      "x": 9.844670295715332,
      "y": -0.3284149169921875,
      "z": 0.8739784955978394,
      "time_usec": 83361202631
    },
    {
      "x": 9.81655502319336,
      "y": -0.31405797600746155,
      "z": 0.8685946464538574,
      "time_usec": 83361204890
    },
    {
      "x": 9.830313682556152,
      "y": -0.31405797600746155,
      "z": 0.8548358678817749,
      "time_usec": 83361207157
    },
    {
      "x": 9.839884757995605,
      "y": -0.3044866919517517,
      "z": 0.8925228714942932,
      "time_usec": 83361209412
    },
    {
      "x": 9.859027862548828,
      "y": -0.2805584669113159,
      "z": 0.9122636318206787,
      "time_usec": 83361211668
    },
    {
      "x": 9.877572059631348,
      "y": -0.2709871530532837,
      "z": 0.9457631707191467,
      "time_usec": 83361213920
    },
    {
      "x": 9.8871431350708,
      "y": -0.2709871530532837,
      "z": 0.9601200819015503,
      "time_usec": 83361216180
    },
    {
      "x": 9.91107177734375,
      "y": -0.28115665912628174,
      "z": 0.9505487680435181,
      "time_usec": 83361218428
    },
    {
      "x": 9.90149974822998,
      "y": -0.28115665912628174,
      "z": 0.9649057388305664,
      "time_usec": 83361220697
    },
    {
      "x": 9.90149974822998,
      "y": -0.28594231605529785,
      "z": 0.9409775137901306,
      "time_usec": 83361222947
    },
    {
      "x": 9.915857315063477,
      "y": -0.28115665912628174,
      "z": 0.9361918568611145,
      "time_usec": 83361225201
    },
    {
      "x": 9.920642852783203,
      "y": -0.28594231605529785,
      "z": 0.9314061999320984,
      "time_usec": 83361227458
    },
    {
      "x": 9.920642852783203,
      "y": -0.2907279431819916,
      "z": 0.9409775137901306,
      "time_usec": 83361229728
    },
    {
      "x": 9.92542839050293,
      "y": -0.2907279431819916,
      "z": 0.9170492887496948,
      "time_usec": 83361231983
    },
    {
      "x": 9.93978500366211,
      "y": -0.28115665912628174,
      "z": 0.9218349456787109,
      "time_usec": 83361234247
    },
    {
      "x": 9.968499183654785,
      "y": -0.2667997181415558,
      "z": 0.9320043921470642,
      "time_usec": 83361236498
    },
    {
      "x": 9.968499183654785,
      "y": -0.25244277715682983,
      "z": 0.9415757060050964,
      "time_usec": 83361238746
    },
    {
      "x": 9.972686767578125,
      "y": -0.2667997181415558,
      "z": 0.9559326171875,
      "time_usec": 83361241014
    },
    {
      "x": 9.972686767578125,
      "y": -0.2667997181415558,
      "z": 0.9696913957595825,
      "time_usec": 83361243265
    },
    {
      "x": 9.958329200744629,
      "y": -0.2907279431819916,
      "z": 0.97926265001297,
      "time_usec": 83361245521
    },
    {
      "x": 9.948758125305176,
      "y": -0.2955136001110077,
      "z": 0.9936196208000183,
      "time_usec": 83361247785
    },
    {
      "x": 9.934401512145996,
      "y": -0.3194418251514435,
      "z": 0.9936196208000183,
      "time_usec": 83361250032
    },
    {
      "x": 9.94397258758545,
      "y": -0.31465616822242737,
      "z": 0.9984052777290344,
      "time_usec": 83361252296
    },
    {
      "x": 9.920044898986816,
      "y": -0.33379876613616943,
      "z": 0.9744769930839539,
      "time_usec": 83361254545
    },
    {
      "x": 9.939187049865723,
      "y": -0.36251261830329895,
      "z": 0.9744769930839539,
      "time_usec": 83361256807
    },
    {
      "x": 9.924830436706543,
      "y": -0.381655216217041,
      "z": 0.9457631707191467,
      "time_usec": 83361259070
    },
    {
      "x": 9.92961597442627,
      "y": -0.36729827523231506,
      "z": 0.9266205430030823,
      "time_usec": 83361261322
    },
    {
      "x": 9.920044898986816,
      "y": -0.3720839321613312,
      "z": 0.9266205430030823,
      "time_usec": 83361263581
    },
    {
      "x": 9.934401512145996,
      "y": -0.3768695592880249,
      "z": 0.9170492887496948,
      "time_usec": 83361265849
    },
    {
      "x": 9.91107177734375,
      "y": -0.381655216217041,
      "z": 0.9122636318206787,
      "time_usec": 83361268105
    },
    {
      "x": 9.906285285949707,
      "y": -0.3768695592880249,
      "z": 0.9218349456787109,
      "time_usec": 83361270352
    },
    {
      "x": 9.8871431350708,
      "y": -0.38644084334373474,
      "z": 0.9170492887496948,
      "time_usec": 83361272612
    },
    {
      "x": 9.882357597351074,
      "y": -0.39122650027275085,
      "z": 0.9074779748916626,
      "time_usec": 83361274862
    },
    {
      "x": 9.868000984191895,
      "y": -0.3768695592880249,
      "z": 0.8739784955978394,
      "time_usec": 83361277122
    },
    {
      "x": 9.854242324829102,
      "y": -0.36729827523231506,
      "z": 0.8644071817398071,
      "time_usec": 83361279379
    },
    {
      "x": 9.863214492797852,
      "y": -0.4007977843284607,
      "z": 0.8644071817398071,
      "time_usec": 83361281638
    },
    {
      "x": 9.863813400268555,
      "y": -0.381655216217041,
      "z": 0.8404789566993713,
      "time_usec": 83361283897
    },
    {
      "x": 9.854242324829102,
      "y": -0.38644084334373474,
      "z": 0.802193820476532,
      "time_usec": 83361286156
    },
    {
      "x": 9.826126098632812,
      "y": -0.4103690981864929,
      "z": 0.7734799385070801,
      "time_usec": 83361288426
    },
    {
      "x": 9.806983947753906,
      "y": -0.4247260093688965,
      "z": 0.7256234884262085,
      "time_usec": 83361290683
    },
    {
      "x": 9.77408218383789,
      "y": -0.41515472531318665,
      "z": 0.7112665176391602,
      "time_usec": 83361292936
    },
    {
      "x": 9.754940032958984,
      "y": -0.42412781715393066,
      "z": 0.6915257573127747,
      "time_usec": 83361295195
    },
    {
      "x": 9.754940032958984,
      "y": -0.4336991012096405,
      "z": 0.6963114142417908,
      "time_usec": 83361297450
    },
    {
      "x": 9.750154495239258,
      "y": -0.45284169912338257,
      "z": 0.6915257573127747,
      "time_usec": 83361299697
    },
    {
      "x": 9.735796928405762,
      "y": -0.46719861030578613,
      "z": 0.672383189201355,
      "time_usec": 83361301960
    },
    {
      "x": 9.731011390686035,
      "y": -0.47676992416381836,
      "z": 0.6963114142417908,
      "time_usec": 83361304220
    },
    {
      "x": 9.707083702087402,
      "y": -0.4911268353462219,
      "z": 0.7154539823532104,
      "time_usec": 83361306483
    },
    {
      "x": 9.678369522094727,
      "y": -0.5102694034576416,
      "z": 0.7010970115661621,
      "time_usec": 83361308730
    },
    {
      "x": 9.683155059814453,
      "y": -0.5198407173156738,
      "z": 0.7058826684951782,
      "time_usec": 83361310996
    },
    {
      "x": 9.673583984375,
      "y": -0.5437689423561096,
      "z": 0.7250252366065979,
      "time_usec": 83361313240
    },
    {
      "x": 9.673583984375,
      "y": -0.5724828243255615,
      "z": 0.7106683254241943,
      "time_usec": 83361315501
    },
    {
      "x": 9.668798446655273,
      "y": -0.5724828243255615,
      "z": 0.7106683254241943,
      "time_usec": 83361317754
    },
    {
      "x": 9.678369522094727,
      "y": -0.5724828243255615,
      "z": 0.6963114142417908,
      "time_usec": 83361320015
    },
    {
      "x": 9.701699256896973,
      "y": -0.5868397355079651,
      "z": 0.6867401003837585,
      "time_usec": 83361322272
    },
    {
      "x": 9.701699256896973,
      "y": -0.582054078578949,
      "z": 0.6963114142417908,
      "time_usec": 83361324533
    },
    {
      "x": 9.68794059753418,
      "y": -0.5868397355079651,
      "z": 0.6819544434547424,
      "time_usec": 83361326804
    },
    {
      "x": 9.697511672973633,
      "y": -0.5868397355079651,
      "z": 0.6771687865257263,
      "time_usec": 83361329061
    },
    {
      "x": 9.701699256896973,
      "y": -0.5868397355079651,
      "z": 0.6915257573127747,
      "time_usec": 83361331318
    },
    {
      "x": 9.673583984375,
      "y": -0.5916253924369812,
      "z": 0.672383189201355,
      "time_usec": 83361333569
    },
    {
      "x": 9.673583984375,
      "y": -0.5772684812545776,
      "z": 0.6963114142417908,
      "time_usec": 83361335830
    },
    {
      "x": 9.668798446655273,
      "y": -0.5964110493659973,
      "z": 0.7202396392822266,
      "time_usec": 83361338088
    },
    {
      "x": 9.672985076904297,
      "y": -0.6059823632240295,
      "z": 0.7441678643226624,
      "time_usec": 83361340346
    },
    {
      "x": 9.66819953918457,
      "y": -0.6203392744064331,
      "z": 0.7393822073936462,
      "time_usec": 83361342600
    },
    {
      "x": 9.672985076904297,
      "y": -0.6203392744064331,
      "z": 0.7393822073936462,
      "time_usec": 83361344860
    },
    {
      "x": 9.682557106018066,
      "y": -0.6059823632240295,
      "z": 0.7489534616470337,
      "time_usec": 83361347117
    },
    {
      "x": 9.66819953918457,
      "y": -0.6059823632240295,
      "z": 0.7627122402191162,
      "time_usec": 83361349376
    },
    {
      "x": 9.67777156829834,
      "y": -0.6203392744064331,
      "z": 0.7722834944725037,
      "time_usec": 83361351635
    },
    {
      "x": 9.672985076904297,
      "y": -0.6299105882644653,
      "z": 0.7770691514015198,
      "time_usec": 83361353894
    },
    {
      "x": 9.67777156829834,
      "y": -0.6346961855888367,
      "z": 0.7818548083305359,
      "time_usec": 83361356147
    },
    {
      "x": 9.691530227661133,
      "y": -0.6586244106292725,
      "z": 0.8015955686569214,
      "time_usec": 83361358405
    },
    {
      "x": 9.705886840820312,
      "y": -0.6394818425178528,
      "z": 0.7872386574745178,
      "time_usec": 83361360660
    },
    {
      "x": 9.729815483093262,
      "y": -0.6442674994468689,
      "z": 0.8015955686569214,
      "time_usec": 83361362915
    },
    {
      "x": 9.748359680175781,
      "y": -0.649053156375885,
      "z": 0.7968099117279053,
      "time_usec": 83361365178
    },
    {
      "x": 9.772287368774414,
      "y": -0.6496513485908508,
      "z": 0.7824530005455017,
      "time_usec": 83361367436
    },
    {
      "x": 9.77707290649414,
      "y": -0.6496513485908508,
      "z": 0.7872386574745178,
      "time_usec": 83361369694
    },
    {
      "x": 9.80100154876709,
      "y": -0.6305087804794312,
      "z": 0.7974081635475159,
      "time_usec": 83361371943
    },
    {
      "x": 9.829715728759766,
      "y": -0.625723123550415,
      "z": 0.802193820476532,
      "time_usec": 83361374201
    },
    {
      "x": 9.843474388122559,
      "y": -0.625723123550415,
      "z": 0.8261220455169678,
      "time_usec": 83361376465
    },
    {
      "x": 9.843474388122559,
      "y": -0.6209374666213989,
      "z": 0.8404789566993713,
      "time_usec": 83361378724
    },
    {
      "x": 9.862616539001465,
      "y": -0.6161518096923828,
      "z": 0.8309076428413391,
      "time_usec": 83361380982
    },
    {
      "x": 9.867402076721191,
      "y": -0.6065805554389954,
      "z": 0.8261220455169678,
      "time_usec": 83361383231
    },
    {
      "x": 9.886545181274414,
      "y": -0.5880361795425415,
      "z": 0.8069794178009033,
      "time_usec": 83361385483
    },
    {
      "x": 9.900901794433594,
      "y": -0.5832505226135254,
      "z": 0.7878368496894836,
      "time_usec": 83361387752
    },
    {
      "x": 9.924830436706543,
      "y": -0.5880361795425415,
      "z": 0.7932206988334656,
      "time_usec": 83361390001
    },
    {
      "x": 9.924830436706543,
      "y": -0.5784648656845093,
      "z": 0.7740781307220459,
      "time_usec": 83361392266
    },
    {
      "x": 9.924830436706543,
      "y": -0.5880361795425415,
      "z": 0.7549355626106262,
      "time_usec": 83361394525
    },
    {
      "x": 9.934401512145996,
      "y": -0.5832505226135254,
      "z": 0.745364248752594,
      "time_usec": 83361396785
    },
    {
      "x": 9.92961597442627,
      "y": -0.5688936114311218,
      "z": 0.7597211599349976,
      "time_usec": 83361399041
    },
    {
      "x": 9.896714210510254,
      "y": -0.5784648656845093,
      "z": 0.745364248752594,
      "time_usec": 83361401296
    },
    {
      "x": 9.90568733215332,
      "y": -0.5641079545021057,
      "z": 0.7501499056816101,
      "time_usec": 83361403551
    },
    {
      "x": 9.872187614440918,
      "y": -0.5928218364715576,
      "z": 0.7734799385070801,
      "time_usec": 83361405814
    },
    {
      "x": 9.863214492797852,
      "y": -0.5874379873275757,
      "z": 0.7782655358314514,
      "time_usec": 83361408070
    },
    {
      "x": 9.853643417358398,
      "y": -0.5970092415809631,
      "z": 0.768694281578064,
      "time_usec": 83361410328
    },
    {
      "x": 9.810572624206543,
      "y": -0.6400800347328186,
      "z": 0.7591229677200317,
      "time_usec": 83361412580
    },
    {
      "x": 9.810572624206543,
      "y": -0.6448656916618347,
      "z": 0.7639086246490479,
      "time_usec": 83361414840
    },
    {
      "x": 9.78245735168457,
      "y": -0.6400800347328186,
      "z": 0.7399803996086121,
