{
  "accelerations": [
    {
      "x": 10.102497100830078,
      "y": 0.243469700217247,
      "z": 0.8249256014823914,
      "time_usec": 67479475355
    },
    {
      "x": 10.04566764831543,
      "y": 0.25304099917411804,
      "z": 0.7818548083305359,
      "time_usec": 67479477613
    },
    {
      "x": 9.999007225036621,
      "y": 0.28175488114356995,
      "z": 0.7334001660346985,
      "time_usec": 67479479869
    },
    {
      "x": 9.93260669708252,
      "y": 0.2679961323738098,
      "z": 0.6999006271362305,
      "time_usec": 67479482126
    },
    {
      "x": 9.866206169128418,
      "y": 0.25363919138908386,
      "z": 0.6562315821647644,
      "time_usec": 67479484383
    },
    {
      "x": 9.7998046875,
      "y": 0.22552353143692017,
      "z": 0.617946445941925,
      "time_usec": 67479486640
    },
    {
      "x": 9.738189697265625,
      "y": 0.21595224738121033,
      "z": 0.5892325639724731,
      "time_usec": 67479488897
    },
    {
      "x": 9.723833084106445,
      "y": 0.18723836541175842,
      "z": 0.5365904569625854,
      "time_usec": 67479491155
    },
    {
      "x": 9.699904441833496,
      "y": 0.17288143932819366,
      "z": 0.5030909776687622,
      "time_usec": 67479493412
    },
    {
      "x": 9.675976753234863,
      "y": 0.14416755735874176,
      "z": 0.5072783827781677,
      "time_usec": 67479495670
    },
    {
      "x": 9.671191215515137,
      "y": 0.13040883839130402,
      "z": 0.5647061467170715,
      "time_usec": 67479497923
    },
    {
      "x": 9.689735412597656,
      "y": 0.1010967567563057,
      "z": 0.607776939868927,
      "time_usec": 67479500171
    },
    {
      "x": 9.670592308044434,
      "y": 0.07776673883199692,
      "z": 0.6508477330207825,
      "time_usec": 67479502439
    },
    {
      "x": 9.70349407196045,
      "y": 0.04366901144385338,
      "z": 0.6939185857772827,
      "time_usec": 67479504694
    },
    {
      "x": 9.707681655883789,
      "y": 0.014955141581594944,
      "z": 0.727418065071106,
      "time_usec": 67479506944
    },
    {
      "x": 9.745368003845215,
      "y": -0.03768695518374443,
      "z": 0.7369893789291382,
      "time_usec": 67479509212
    },
    {
      "x": 9.783653259277344,
      "y": -0.028115665540099144,
      "z": 0.7704889178276062,
      "time_usec": 67479511469
    },
    {
      "x": 9.81655502319336,
      "y": -0.0526420995593071,
      "z": 0.7950153350830078,
      "time_usec": 67479513731
    },
    {
      "x": 9.873384475708008,
      "y": -0.07657032459974289,
      "z": 0.8428717851638794,
      "time_usec": 67479515983
    },
    {
      "x": 9.906285285949707,
      "y": -0.07657032459974289,
      "z": 0.8524430394172668,
      "time_usec": 67479518240
    },
    {
      "x": 9.930213928222656,
      "y": -0.03349951654672623,
      "z": 0.857228696346283,
      "time_usec": 67479520497
    },
    {
      "x": 9.953543663024902,
      "y": -0.019142581149935722,
      "z": 0.9050851464271545,
      "time_usec": 67479522754
    },
    {
      "x": 9.958329200744629,
      "y": -0.019142581149935722,
      "z": 0.9337990283966064,
      "time_usec": 67479525008
    },
    {
      "x": 9.963115692138672,
      "y": -0.004785645287483931,
      "z": 0.9433703422546387,
      "time_usec": 67479527255
    },
    {
      "x": 9.953543663024902,
      "y": 0.014356935396790504,
      "z": 0.9433703422546387,
      "time_usec": 67479529526
    },
    {
      "x": 9.949356079101562,
      "y": 0.03349951654672623,
      "z": 0.9194421172142029,
      "time_usec": 67479531784
    },
    {
      "x": 9.916455268859863,
      "y": 0.04307080805301666,
      "z": 0.8955138921737671,
      "time_usec": 67479534042
    },
    {
      "x": 9.92124080657959,
      "y": 0.07178468257188797,
      "z": 0.8620143532752991,
      "time_usec": 67479536291
    },
    {
      "x": 9.873982429504395,
      "y": 0.1052841991186142,
      "z": 0.828514814376831,
      "time_usec": 67479538538
    },
    {
      "x": 9.88833999633789,
      "y": 0.12442677468061447,
      "z": 0.7998009920120239,
      "time_usec": 67479540796
    },
    {
      "x": 9.88415241241455,
      "y": 0.15314064919948578,
      "z": 0.8045865893363953,
      "time_usec": 67479543063
    },
    {
      "x": 9.89850902557373,
      "y": 0.2153540402650833,
      "z": 0.828514814376831,
      "time_usec": 67479545328
    },
    {
      "x": 9.907482147216797,
      "y": 0.22492532432079315,
      "z": 0.8620143532752991,
      "time_usec": 67479547585
    },
    {
      "x": 9.893723487854004,
      "y": 0.22013968229293823,
      "z": 0.8668000102043152,
      "time_usec": 67479549841
    },
    {
      "x": 9.869794845581055,
      "y": 0.2105683982372284,
      "z": 0.8380861282348633,
      "time_usec": 67479552096
    },
    {
      "x": 9.841081619262695,
      "y": 0.1824527233839035,
      "z": 0.8476574420928955,
      "time_usec": 67479554353
    },
    {
      "x": 9.817152976989746,
      "y": 0.17288143932819366,
      "z": 0.851844847202301,
      "time_usec": 67479556610
    },
    {
      "x": 9.821938514709473,
      "y": 0.16331014037132263,
      "z": 0.851844847202301,
      "time_usec": 67479558867
    },
    {
      "x": 9.817152976989746,
      "y": 0.1585244983434677,
      "z": 0.8566305041313171,
      "time_usec": 67479561125
    },
    {
      "x": 9.865009307861328,
      "y": 0.17288143932819366,
      "z": 0.8620143532752991,
      "time_usec": 67479563382
    },
    {
      "x": 9.878767967224121,
      "y": 0.1818545162677765,
      "z": 0.8668000102043152,
      "time_usec": 67479565636
    },
    {
      "x": 9.912267684936523,
      "y": 0.19142581522464752,
      "z": 0.8763712644577026,
      "time_usec": 67479567883
    },
    {
      "x": 9.931410789489746,
      "y": 0.19621145725250244,
      "z": 0.8668000102043152,
      "time_usec": 67479570148
    },
    {
      "x": 9.959526062011719,
      "y": 0.20099709928035736,
      "z": 0.8721838593482971,
      "time_usec": 67479572410
    },
    {
      "x": 9.964311599731445,
      "y": 0.1818545162677765,
      "z": 0.8769695162773132,
      "time_usec": 67479574670
    },
    {
      "x": 9.964311599731445,
      "y": 0.1866401731967926,
      "z": 0.8913264274597168,
      "time_usec": 67479576924
    },
    {
      "x": 9.926624298095703,
      "y": 0.17228323221206665,
      "z": 0.8859425783157349,
      "time_usec": 67479579176
    },
    {
      "x": 9.883553504943848,
      "y": 0.1866401731967926,
      "z": 0.8811569213867188,
      "time_usec": 67479581438
    },
    {
      "x": 9.869196891784668,
      "y": 0.1585244983434677,
      "z": 0.890728235244751,
      "time_usec": 67479583696
    },
    {
      "x": 9.859625816345215,
      "y": 0.13459627330303192,
      "z": 0.9002995491027832,
      "time_usec": 67479585954
    },
    {
      "x": 9.81236743927002,
      "y": 0.12502498924732208,
      "z": 0.8949156403541565,
      "time_usec": 67479588197
    },
    {
      "x": 9.78843879699707,
      "y": 0.10588239878416061,
      "z": 0.8805587291717529,
      "time_usec": 67479590463
    },
    {
      "x": 9.764511108398438,
      "y": 0.1010967567563057,
      "z": 0.8901300430297852,
      "time_usec": 67479592730
    },
    {
      "x": 9.754940032958984,
      "y": 0.11066804826259613,
      "z": 0.8757730722427368,
      "time_usec": 67479594971
    },
    {
      "x": 9.745368003845215,
      "y": 0.09690931439399719,
      "z": 0.8614161610603333,
      "time_usec": 67479597236
    },
    {
      "x": 9.755537986755371,
      "y": 0.11066804826259613,
      "z": 0.851844847202301,
      "time_usec": 67479599478
    },
    {
      "x": 9.736394882202148,
      "y": 0.11126625537872314,
      "z": 0.8566305041313171,
      "time_usec": 67479601751
    },
    {
      "x": 9.731609344482422,
      "y": 0.09690931439399719,
      "z": 0.8470591902732849,
      "time_usec": 67479604011
    },
    {
      "x": 9.731609344482422,
      "y": 0.1256231814622879,
      "z": 0.8470591902732849,
      "time_usec": 67479606269
    },
    {
      "x": 9.745966911315918,
      "y": 0.14895321428775787,
      "z": 0.8231309652328491,
      "time_usec": 67479608518
    },
    {
      "x": 9.765109062194824,
      "y": 0.14895321428775787,
      "z": 0.7992027401924133,
      "time_usec": 67479610772
    },
    {
      "x": 9.765109062194824,
      "y": 0.17288143932819366,
      "z": 0.7896314859390259,
      "time_usec": 67479613026
    },
    {
      "x": 9.780064582824707,
      "y": 0.19202402234077454,
      "z": 0.7561319470405579,
      "time_usec": 67479615296
    },
    {
      "x": 9.780064582824707,
      "y": 0.19680966436862946,
      "z": 0.7465606927871704,
      "time_usec": 67479617552
    },
    {
      "x": 9.761520385742188,
      "y": 0.22073788940906525,
      "z": 0.7130611538887024,
      "time_usec": 67479619808
    },
    {
      "x": 9.751948356628418,
      "y": 0.2350948303937912,
      "z": 0.7178468108177185,
      "time_usec": 67479622070
    },
    {
      "x": 9.723235130310059,
      "y": 0.259621262550354,
      "z": 0.6939185857772827,
      "time_usec": 67479624321
    },
    {
      "x": 9.704689979553223,
      "y": 0.259621262550354,
      "z": 0.6843472719192505,
      "time_usec": 67479626569
    },
    {
      "x": 9.690333366394043,
      "y": 0.27397820353507996,
      "z": 0.7082754969596863,
      "time_usec": 67479628828
    },
    {
      "x": 9.675976753234863,
      "y": 0.27397820353507996,
      "z": 0.6939185857772827,
      "time_usec": 67479631082
    },
    {
      "x": 9.66640567779541,
      "y": 0.26919254660606384,
      "z": 0.698704183101654,
      "time_usec": 67479633353
    },
    {
      "x": 9.675976753234863,
      "y": 0.26440688967704773,
      "z": 0.6891329288482666,
      "time_usec": 67479635601
    },
    {
      "x": 9.699904441833496,
      "y": 0.2835494875907898,
      "z": 0.6795616149902344,
      "time_usec": 67479637855
    },
    {
      "x": 9.733404159545898,
      "y": 0.2877369225025177,
      "z": 0.6795616149902344,
      "time_usec": 67479640114
    },
    {
      "x": 9.728618621826172,
      "y": 0.2638086974620819,
      "z": 0.6604190468788147,
      "time_usec": 67479642369
    },
    {
      "x": 9.742377281188965,
      "y": 0.268594354391098,
      "z": 0.6843472719192505,
      "time_usec": 67479644638
    },
    {
      "x": 9.747162818908691,
      "y": 0.2350948303937912,
      "z": 0.6939185857772827,
      "time_usec": 67479646883
    },
    {
      "x": 9.732806205749512,
      "y": 0.2548356056213379,
      "z": 0.7322037220001221,
      "time_usec": 67479649155
    },
    {
      "x": 9.728020668029785,
      "y": 0.22612173855304718,
      "z": 0.727418065071106,
      "time_usec": 67479651409
    },
    {
      "x": 9.69930648803711,
      "y": 0.19262222945690155,
      "z": 0.7226324677467346,
      "time_usec": 67479653666
    },
    {
      "x": 9.68494987487793,
      "y": 0.18305093050003052,
      "z": 0.7130611538887024,
      "time_usec": 67479655907
    },
    {
      "x": 9.68494987487793,
      "y": 0.1495514214038849,
      "z": 0.7034898400306702,
      "time_usec": 67479658166
    },
    {
      "x": 9.66102123260498,
      "y": 0.13998012244701385,
      "z": 0.6939185857772827,
      "time_usec": 67479660423
    },
    {
      "x": 9.618548393249512,
      "y": 0.13519448041915894,
      "z": 0.6789634227752686,
      "time_usec": 67479662691
    },
    {
      "x": 9.599406242370605,
      "y": 0.11605189740657806,
      "z": 0.7028916478157043,
      "time_usec": 67479664951
    },
    {
      "x": 9.561120986938477,
      "y": 0.10707881301641464,
      "z": 0.7172485589981079,
      "time_usec": 67479667197
    },
    {
      "x": 9.551549911499023,
      "y": 0.11186445504426956,
      "z": 0.7357929348945618,
      "time_usec": 67479669458
    },
    {
      "x": 9.513862609863281,
      "y": 0.0975075215101242,
      "z": 0.7549355626106262,
      "time_usec": 67479671707
    },
    {
      "x": 9.513264656066895,
      "y": 0.09272187948226929,
      "z": 0.7836494445800781,
      "time_usec": 67479673967
    },
    {
      "x": 9.522835731506348,
      "y": 0.10229317098855972,
      "z": 0.7645068168640137,
      "time_usec": 67479676223
    },
    {
      "x": 9.527621269226074,
      "y": 0.11186445504426956,
      "z": 0.7884350419044495,
      "time_usec": 67479678482
    },
    {
      "x": 9.518648147583008,
      "y": 0.10707881301641464,
      "z": 0.6927221417427063,
      "time_usec": 67479680741
    },
    {
      "x": 9.513264656066895,
      "y": 0.08793623000383377,
      "z": 0.7740781307220459,
      "time_usec": 67479682999
    },
    {
      "x": 9.476176261901855,
      "y": 0.07836493849754333,
      "z": 0.6065805554389954,
      "time_usec": 67479685268
    },
    {
      "x": 9.480362892150879,
      "y": 0.07836493849754333,
      "z": 0.7166503667831421,
      "time_usec": 67479687524
    },
    {
      "x": 9.495318412780762,
      "y": 0.07357929646968842,
      "z": 0.5970092415809631,
      "time_usec": 67479689778
    },
    {
      "x": 9.495318412780762,
      "y": 0.07357929646968842,
      "z": 0.5778666734695435,
      "time_usec": 67479692045
    },
    {
      "x": 9.551549911499023,
      "y": 0.07836493849754333,
      "z": 0.6837490797042847,
      "time_usec": 67479694295
    },
    {
      "x": 9.57607650756836,
      "y": 0.08733802288770676,
      "z": 0.5928218364715576,
      "time_usec": 67479696551
    },
    {
      "x": 9.613762855529785,
      "y": 0.10648060590028763,
      "z": 0.7316055297851562,
      "time_usec": 67479698798
    },
    {
      "x": 9.632905960083008,
      "y": 0.13040883839130402,
      "z": 0.722034215927124,
      "time_usec": 67479701052
    },
    {
      "x": 9.665806770324707,
      "y": 0.1543370634317398,
      "z": 0.7363911867141724,
      "time_usec": 67479703322
    },
    {
      "x": 9.674779891967773,
      "y": 0.16390834748744965,
      "z": 0.8273184299468994,
      "time_usec": 67479705577
    },
    {
      "x": 9.693922996520996,
      "y": 0.18783657252788544,
      "z": 0.8177471160888672,
      "time_usec": 67479707826
    },
    {
      "x": 9.717850685119629,
      "y": 0.21655045449733734,
      "z": 0.8327022790908813,
      "time_usec": 67479710088
    },
    {
      "x": 9.736993789672852,
      "y": 0.24047867953777313,
      "z": 0.8566305041313171,
      "time_usec": 67479712352
    },
    {
      "x": 9.780064582824707,
      "y": 0.25423741340637207,
      "z": 0.8327022790908813,
      "time_usec": 67479714611
    },
    {
      "x": 9.78963565826416,
      "y": 0.2590230405330658,
      "z": 0.8422735929489136,
      "time_usec": 67479716865
    },
    {
      "x": 9.77527904510498,
      "y": 0.27337998151779175,
      "z": 0.8279166221618652,
      "time_usec": 67479719116
    },
    {
      "x": 9.78963565826416,
      "y": 0.29730820655822754,
      "z": 0.8231309652328491,
      "time_usec": 67479721379
    },
    {
      "x": 9.765707015991211,
      "y": 0.3068794906139374,
      "z": 0.8231309652328491,
      "time_usec": 67479723633
    },
    {
      "x": 9.77527904510498,
      "y": 0.29730820655822754,
      "z": 0.8279166221618652,
      "time_usec": 67479725880
    },
    {
      "x": 9.770493507385254,
      "y": 0.29790642857551575,
      "z": 0.8470591902732849,
      "time_usec": 67479728145
    },
    {
      "x": 9.760921478271484,
      "y": 0.3074777126312256,
      "z": 0.8279166221618652,
      "time_usec": 67479730406
    },
    {
      "x": 9.741779327392578,
      "y": 0.29790642857551575,
      "z": 0.8231309652328491,
      "time_usec": 67479732668
    },
    {
      "x": 9.741779327392578,
      "y": 0.27397820353507996,
      "z": 0.8374879360198975,
      "time_usec": 67479734923
    },
    {
      "x": 9.717850685119629,
      "y": 0.2548356056213379,
      "z": 0.8374879360198975,
      "time_usec": 67479737178
    },
    {
      "x": 9.69930648803711,
      "y": 0.2309073805809021,
      "z": 0.7992027401924133,
      "time_usec": 67479739430
    },
    {
      "x": 9.670592308044434,
      "y": 0.2069791555404663,
      "z": 0.8033902049064636,
      "time_usec": 67479741690
    },
    {
      "x": 9.651450157165527,
      "y": 0.18783657252788544,
      "z": 0.8129615187644958,
      "time_usec": 67479743937
    },
    {
      "x": 9.622735977172852,
      "y": 0.16929219663143158,
      "z": 0.8177471160888672,
      "time_usec": 67479746207
    },
    {
      "x": 9.598808288574219,
      "y": 0.15972091257572174,
      "z": 0.8315058946609497,
      "time_usec": 67479748461
    },
    {
      "x": 9.56052303314209,
      "y": 0.12622138857841492,
      "z": 0.8171489238739014,
      "time_usec": 67479750726
    },
    {
      "x": 9.565308570861816,
      "y": 0.13100704550743103,
      "z": 0.8027920126914978,
      "time_usec": 67479752965
    },
    {
      "x": 9.537193298339844,
      "y": 0.13100704550743103,
      "z": 0.7740781307220459,
      "time_usec": 67479755236
    },
    {
      "x": 9.522835731506348,
      "y": 0.12143574655056,
      "z": 0.745364248752594,
      "time_usec": 67479757490
    },
    {
      "x": 9.485149383544922,
      "y": 0.12681959569454193,
      "z": 0.7549355626106262,
      "time_usec": 67479759749
    },
    {
      "x": 9.461220741271973,
      "y": 0.12681959569454193,
      "z": 0.7639086246490479,
      "time_usec": 67479762007
    },
    {
      "x": 9.442078590393066,
      "y": 0.11724831163883209,
      "z": 0.7447660565376282,
      "time_usec": 67479764264
    },
    {
      "x": 9.413962364196777,
      "y": 0.1459621787071228,
      "z": 0.7447660565376282,
      "time_usec": 67479766522
    },
    {
      "x": 9.428318977355957,
      "y": 0.13160525262355804,
      "z": 0.7208378314971924,
      "time_usec": 67479768770
    },
    {
      "x": 9.409774780273438,
      "y": 0.16031911969184875,
      "z": 0.6825526356697083,
      "time_usec": 67479771019
    },
    {
      "x": 9.400203704833984,
      "y": 0.18903298676013947,
      "z": 0.6538388133049011,
      "time_usec": 67479773279
    },
    {
      "x": 9.438488960266113,
      "y": 0.1986042857170105,
      "z": 0.6305087804794312,
      "time_usec": 67479775551
    },
    {
      "x": 9.415159225463867,
      "y": 0.20338992774486542,
      "z": 0.6113662123680115,
      "time_usec": 67479777808
    },
    {
      "x": 9.41037368774414,
      "y": 0.23688943684101105,
      "z": 0.5874379873275757,
      "time_usec": 67479780060
    },
    {
      "x": 9.391828536987305,
      "y": 0.24167509377002716,
      "z": 0.5826523303985596,
      "time_usec": 67479782321
    },
    {
      "x": 9.415159225463867,
      "y": 0.24646073579788208,
      "z": 0.592223584651947,
      "time_usec": 67479784577
    },
    {
      "x": 9.41037368774414,
      "y": 0.23688943684101105,
      "z": 0.592223584651947,
      "time_usec": 67479786827
    },
    {
      "x": 9.42473030090332,
      "y": 0.2512463629245758,
      "z": 0.6161518096923828,
      "time_usec": 67479789085
    },
    {
      "x": 9.438488960266113,
      "y": 0.2512463629245758,
      "z": 0.6496513485908508,
      "time_usec": 67479791343
    },
    {
      "x": 9.45763111114502,
      "y": 0.23210379481315613,
      "z": 0.6831508874893188,
      "time_usec": 67479793608
    },
    {
      "x": 9.485747337341309,
      "y": 0.21774685382843018,
      "z": 0.7166503667831421,
      "time_usec": 67479795864
    },
    {
      "x": 9.518648147583008,
      "y": 0.2225325107574463,
      "z": 0.745364248752594,
      "time_usec": 67479798116
    },
    {
      "x": 9.55633544921875,
      "y": 0.22193430364131927,
      "z": 0.8027920126914978,
      "time_usec": 67479800375
    },
    {
      "x": 9.585049629211426,
      "y": 0.23629122972488403,
      "z": 0.8315058946609497,
      "time_usec": 67479802637
    },
    {
      "x": 9.632308006286621,
      "y": 0.22193430364131927,
      "z": 0.8081758618354797,
      "time_usec": 67479804893
    },
    {
      "x": 9.641879081726074,
      "y": 0.2315055876970291,
      "z": 0.7986045479774475,
      "time_usec": 67479807145
    },
    {
      "x": 9.665806770324707,
      "y": 0.25004997849464417,
      "z": 0.8033902049064636,
      "time_usec": 67479809401
    },
    {
      "x": 9.652048110961914,
      "y": 0.25004997849464417,
      "z": 0.7746763229370117,
      "time_usec": 67479811663
    },
    {
      "x": 9.652048110961914,
      "y": 0.25004997849464417,
      "z": 0.7363911867141724,
      "time_usec": 67479813921
    },
    {
      "x": 9.628120422363281,
      "y": 0.25004997849464417,
      "z": 0.7172485589981079,
      "time_usec": 67479816175
    },
    {
      "x": 9.628718376159668,
      "y": 0.24526432156562805,
      "z": 0.6933203339576721,
      "time_usec": 67479818419
    },
    {
      "x": 9.633503913879395,
      "y": 0.259621262550354,
      "z": 0.6789634227752686,
      "time_usec": 67479820680
    },
    {
      "x": 9.619147300720215,
      "y": 0.259621262550354,
      "z": 0.6933203339576721,
      "time_usec": 67479822949
    },
    {
      "x": 9.609575271606445,
      "y": 0.25064817070961,
      "z": 0.7268198728561401,
      "time_usec": 67479825209
    },
    {
      "x": 9.632905960083008,
      "y": 0.22133609652519226,
      "z": 0.755533754825592,
      "time_usec": 67479827465
    },
    {
      "x": 9.551549911499023,
      "y": 0.19800607860088348,
      "z": 0.7932206988334656,
      "time_usec": 67479829716
    },
    {
      "x": 9.589237213134766,
      "y": 0.1788634955883026,
      "z": 0.8219345808029175,
      "time_usec": 67479831977
    },
    {
      "x": 9.832108497619629,
      "y": 0.24945175647735596,
      "z": 0.8237292170524597,
      "time_usec": 67479834234
    },
    {
      "x": 9.608379364013672,
      "y": 0.1501496136188507,
      "z": 0.865005373954773,
      "time_usec": 67479836492
    },
    {
      "x": 9.57487964630127,
      "y": 0.10707881301641464,
      "z": 0.8841479420661926,
      "time_usec": 67479838745
    },
    {
      "x": 9.66520881652832,
      "y": 0.12083754688501358,
      "z": 0.8512466549873352,
      "time_usec": 67479841006
    },
    {
      "x": 9.646066665649414,
      "y": 0.08255238085985184,
      "z": 0.8273184299468994,
      "time_usec": 67479843263
    },
    {
      "x": 9.617352485656738,
      "y": 0.054436713457107544,
      "z": 0.8512466549873352,
      "time_usec": 67479845522
    },
    {
      "x": 9.659825325012207,
      "y": 0.05383851006627083,
      "z": 0.8560323119163513,
      "time_usec": 67479847783
    },
    {
      "x": 9.735796928405762,
      "y": 0.07776673883199692,
      "z": 0.8805587291717529,
      "time_usec": 67479850030
    },
    {
      "x": 9.735796928405762,
      "y": 0.06340979784727097,
      "z": 0.8901300430297852,
      "time_usec": 67479852291
    },
    {
      "x": 9.76391315460205,
      "y": 0.05802594870328903,
      "z": 0.9188438653945923,
      "time_usec": 67479854539
    },
    {
      "x": 9.792028427124023,
      "y": 0.03409772366285324,
      "z": 0.9571290612220764,
      "time_usec": 67479856805
    },
    {
      "x": 9.797411918640137,
      "y": 0.048454657196998596,
      "z": 0.9571290612220764,
      "time_usec": 67479859055
    },
    {
      "x": 9.825528144836426,
      "y": 0.03888336941599846,
      "z": 0.9762716293334961,
      "time_usec": 67479861322
    },
    {
      "x": 9.859027862548828,
      "y": 0.03888336941599846,
      "z": 0.9571290612220764,
      "time_usec": 67479863576
    },
    {
      "x": 9.844670295715332,
      "y": 0.05802594870328903,
      "z": 0.97148597240448,
      "time_usec": 67479865836
    },
    {
      "x": 9.854242324829102,
      "y": 0.06281159073114395,
      "z": 0.9667003750801086,
      "time_usec": 67479868086
    },
    {
      "x": 9.878170013427734,
      "y": 0.06281159073114395,
      "z": 0.9577272534370422,
      "time_usec": 67479870350
    },
    {
      "x": 9.863813400268555,
      "y": 0.09631111472845078,
      "z": 0.9433703422546387,
      "time_usec": 67479872605
    },
    {
      "x": 9.859625816345215,
      "y": 0.10588239878416061,
      "z": 0.9427721500396729,
      "time_usec": 67479874866
    },
    {
      "x": 9.830911636352539,
      "y": 0.12502498924732208,
      "z": 0.9284151792526245,
      "time_usec": 67479877117
    },
    {
      "x": 9.859625816345215,
      "y": 0.129810631275177,
      "z": 0.8859425783157349,
      "time_usec": 67479879368
    },
    {
      "x": 9.873982429504395,
      "y": 0.1339980661869049,
      "z": 0.8715856671333313,
      "time_usec": 67479881617
    },
    {
      "x": 9.883553504943848,
      "y": 0.13878370821475983,
      "z": 0.8380861282348633,
      "time_usec": 67479883877
    },
    {
      "x": 9.888937950134277,
      "y": 0.1579262912273407,
      "z": 0.8141579031944275,
      "time_usec": 67479886146
    },
    {
      "x": 9.90269660949707,
      "y": 0.14835500717163086,
      "z": 0.8189435601234436,
      "time_usec": 67479888403
    },
    {
      "x": 9.897911071777344,
      "y": 0.1579262912273407,
      "z": 0.8189435601234436,
      "time_usec": 67479890665
    },
    {
      "x": 9.879366874694824,
      "y": 0.14356936514377594,
      "z": 0.8237292170524597,
      "time_usec": 67479892921
    },
    {
      "x": 9.879366874694824,
      "y": 0.17228323221206665,
      "z": 0.828514814376831,
      "time_usec": 67479895177
    },
    {
      "x": 9.865009307861328,
      "y": 0.17228323221206665,
      "z": 0.828514814376831,
      "time_usec": 67479897432
    },
    {
      "x": 9.841081619262695,
      "y": 0.16749759018421173,
      "z": 0.7950153350830078,
      "time_usec": 67479899685
    },
    {
      "x": 9.846465110778809,
      "y": 0.16749759018421173,
      "z": 0.7567301392555237,
      "time_usec": 67479901947
    },
    {
      "x": 9.846465110778809,
      "y": 0.17228323221206665,
      "z": 0.7232306599617004,
      "time_usec": 67479904201
    },
    {
      "x": 9.822537422180176,
      "y": 0.15314064919948578,
      "z": 0.7040880918502808,
      "time_usec": 67479906450
    },
    {
      "x": 9.827322959899902,
      "y": 0.15314064919948578,
      "z": 0.7040880918502808,
      "time_usec": 67479908715
    },
    {
      "x": 9.827322959899902,
      "y": 0.14356936514377594,
      "z": 0.7040880918502808,
      "time_usec": 67479910977
    },
    {
      "x": 9.80817985534668,
      "y": 0.12921242415905,
      "z": 0.7184450030326843,
      "time_usec": 67479913233
    },
    {
      "x": 9.812965393066406,
      "y": 0.10588239878416061,
      "z": 0.7519445419311523,
      "time_usec": 67479915479
    },
    {
      "x": 9.7938232421875,
      "y": 0.1010967567563057,
      "z": 0.7615157961845398,
      "time_usec": 67479917741
    },
    {
      "x": 9.803394317626953,
      "y": 0.09631111472845078,
      "z": 0.737587571144104,
      "time_usec": 67479920000
    },
    {
      "x": 9.779465675354004,
      "y": 0.08195417374372482,
      "z": 0.7328019142150879,
      "time_usec": 67479922264
    },
    {
      "x": 9.7938232421875,
      "y": 0.07657032459974289,
      "z": 0.7088736891746521,
      "time_usec": 67479924521
    },
    {
      "x": 9.789037704467773,
      "y": 0.08135596662759781,
      "z": 0.6849454641342163,
      "time_usec": 67479926780
    },
    {
      "x": 9.808777809143066,
      "y": 0.09092725813388824,
      "z": 0.646660327911377,
      "time_usec": 67479929033
    },
    {
      "x": 9.837491989135742,
      "y": 0.1339980661869049,
      "z": 0.6323033571243286,
      "time_usec": 67479931287
    },
    {
      "x": 9.823135375976562,
      "y": 0.1579262912273407,
      "z": 0.6514459848403931,
      "time_usec": 67479933533
    },
    {
      "x": 9.818349838256836,
      "y": 0.16749759018421173,
      "z": 0.6562315821647644,
      "time_usec": 67479935803
    },
    {
      "x": 9.823135375976562,
      "y": 0.1866401731967926,
      "z": 0.6705885529518127,
      "time_usec": 67479938057
    },
    {
      "x": 9.823135375976562,
      "y": 0.20578274130821228,
      "z": 0.6849454641342163,
      "time_usec": 67479940321
    },
    {
      "x": 9.808777809143066,
      "y": 0.2111666053533554,
      "z": 0.6849454641342163,
      "time_usec": 67479942575
    },
    {
      "x": 9.81356430053711,
      "y": 0.2153540402650833,
      "z": 0.6753742098808289,
      "time_usec": 67479944834
    },
    {
      "x": 9.818349838256836,
      "y": 0.2105683982372284,
      "z": 0.6370890140533447,
      "time_usec": 67479947091
    },
    {
      "x": 9.89013385772705,
      "y": 0.2632105052471161,
      "z": 0.6281159520149231,
      "time_usec": 67479949342
    },
    {
      "x": 9.937392234802246,
      "y": 0.27696922421455383,
      "z": 0.6759724020957947,
      "time_usec": 67479951605
    },
    {
      "x": 9.975677490234375,
      "y": 0.3152543902397156,
      "z": 0.714257538318634,
      "time_usec": 67479953860
    },
    {
      "x": 9.975079536437988,
      "y": 0.2961117923259735,
      "z": 0.7238288521766663,
      "time_usec": 67479956118
    },
    {
      "x": 9.999007225036621,
      "y": 0.3200400173664093,
      "z": 0.7286145091056824,
      "time_usec": 67479958370
    },
    {
      "x": 9.984650611877441,
      "y": 0.3008974492549896,
      "z": 0.7381857633590698,
      "time_usec": 67479960632
    },
    {
      "x": 9.960722923278809,
      "y": 0.267397940158844,
      "z": 0.7334001660346985,
      "time_usec": 67479962890
    },
    {
      "x": 9.975079536437988,
      "y": 0.25304099917411804,
      "z": 0.7334001660346985,
      "time_usec": 67479965149
    },
    {
      "x": 9.861420631408691,
      "y": 0.2632105052471161,
      "z": 0.7328019142150879,
      "time_usec": 67479967403
    },
    {
      "x": 9.941579818725586,
      "y": 0.2632105052471161,
      "z": 0.7286145091056824,
      "time_usec": 67479969659
    },
    {
      "x": 9.93679428100586,
      "y": 0.2584248483181,
      "z": 0.7381857633590698,
      "time_usec": 67479971918
    },
    {
      "x": 9.908080101013184,
      "y": 0.22492532432079315,
      "z": 0.7573283910751343,
      "time_usec": 67479974175
    },
    {
      "x": 9.888937950134277,
      "y": 0.22013968229293823,
      "z": 0.771087110042572,
      "time_usec": 67479976431
    },
    {
      "x": 9.89850902557373,
      "y": 0.22013968229293823,
      "z": 0.7998009920120239,
      "time_usec": 67479978684
    },
    {
      "x": 9.88415241241455,
      "y": 0.19142581522464752,
      "z": 0.828514814376831,
      "time_usec": 67479980946
    },
    {
      "x": 9.874580383300781,
      "y": 0.14835500717163086,
      "z": 0.828514814376831,
      "time_usec": 67479983204
    },
    {
      "x": 9.855438232421875,
      "y": 0.1537388563156128,
      "z": 0.8620143532752991,
      "time_usec": 67479985463
    },
    {
      "x": 9.850652694702148,
      "y": 0.14356936514377594,
      "z": 0.8428717851638794,
      "time_usec": 67479987719
    },
    {
      "x": 9.845269203186035,
      "y": 0.11066804826259613,
      "z": 0.8715856671333313,
      "time_usec": 67479989969
    },
    {
      "x": 9.845269203186035,
      "y": 0.11066804826259613,
      "z": 0.8524430394172668,
      "time_usec": 67479992232
    },
    {
      "x": 9.817152976989746,
      "y": 0.1010967567563057,
      "z": 0.8374879360198975,
      "time_usec": 67479994485
    },
    {
      "x": 9.79801082611084,
      "y": 0.09631111472845078,
      "z": 0.8374879360198975,
      "time_usec": 67479996734
    },
    {
      "x": 9.79801082611084,
      "y": 0.08195417374372482,
      "z": 0.8231309652328491,
      "time_usec": 67479998998
    },
    {
      "x": 9.765109062194824,
      "y": 0.1010967567563057,
      "z": 0.8135597109794617,
      "time_usec": 67480001261
    },
    {
      "x": 9.76989459991455,
      "y": 0.129810631275177,
      "z": 0.7752745151519775,
      "time_usec": 67480003520
    },
    {
      "x": 9.789037704467773,
      "y": 0.16331014037132263,
      "z": 0.7752745151519775,
      "time_usec": 67480005775
    },
    {
      "x": 9.77527904510498,
      "y": 0.17288143932819366,
      "z": 0.727418065071106,
      "time_usec": 67480008027
    },
    {
      "x": 9.799206733703613,
      "y": 0.19680966436862946,
      "z": 0.7088736891746521,
      "time_usec": 67480010286
    },
    {
      "x": 9.799206733703613,
      "y": 0.2111666053533554,
      "z": 0.6993024349212646,
      "time_usec": 67480012546
    },
    {
      "x": 9.799206733703613,
      "y": 0.2111666053533554,
      "z": 0.6801598072052002,
      "time_usec": 67480014803
    },
    {
      "x": 9.795019149780273,
      "y": 0.22073788940906525,
      "z": 0.6562315821647644,
      "time_usec": 67480017057
    },
    {
      "x": 9.80937671661377,
      "y": 0.23988047242164612,
      "z": 0.6514459848403931,
      "time_usec": 67480019314
    },
    {
      "x": 9.814162254333496,
      "y": 0.25423741340637207,
      "z": 0.6610172390937805,
      "time_usec": 67480021571
    },
    {
      "x": 9.828518867492676,
      "y": 0.2679961323738098,
      "z": 0.646660327911377,
      "time_usec": 67480023819
    },
    {
      "x": 9.852447509765625,
      "y": 0.30149564146995544,
      "z": 0.6562315821647644,
      "time_usec": 67480026088
    },
    {
      "x": 9.857233047485352,
      "y": 0.3206382393836975,
      "z": 0.6329016089439392,
      "time_usec": 67480028341
    },
    {
      "x": 9.852447509765625,
      "y": 0.3206382393836975,
      "z": 0.6562315821647644,
      "time_usec": 67480030603
    },
    {
      "x": 9.838089942932129,
      "y": 0.3206382393836975,
      "z": 0.6658028960227966,
      "time_usec": 67480032850
    },
    {
      "x": 9.828518867492676,
      "y": 0.32123643159866333,
      "z": 0.6705885529518127,
      "time_usec": 67480035118
    },
    {
      "x": 9.790233612060547,
      "y": 0.3068794906139374,
      "z": 0.6753742098808289,
      "time_usec": 67480037374
    },
    {
      "x": 9.78544807434082,
      "y": 0.27816563844680786,
      "z": 0.6562315821647644,
      "time_usec": 67480039628
    },
    {
      "x": 9.766305923461914,
      "y": 0.268594354391098,
      "z": 0.6610172390937805,
      "time_usec": 67480041888
    },
    {
      "x": 9.757332801818848,
      "y": 0.2638086974620819,
      "z": 0.6514459848403931,
      "time_usec": 67480044145
    },
    {
      "x": 9.762118339538574,
      "y": 0.2877369225025177,
      "z": 0.6514459848403931,
      "time_usec": 67480046402
    },
    {
      "x": 9.7669038772583,
      "y": 0.3068794906139374,
      "z": 0.6753742098808289,
      "time_usec": 67480048653
    },
    {
      "x": 9.78544807434082,
      "y": 0.3116651475429535,
      "z": 0.6658028960227966,
      "time_usec": 67480050911
    },
    {
      "x": 9.82373332977295,
      "y": 0.34995031356811523,
      "z": 0.6418746709823608,
      "time_usec": 67480053174
    },
    {
      "x": 9.829116821289062,
      "y": 0.3684946894645691,
      "z": 0.5988038778305054,
      "time_usec": 67480055433
    },
    {
      "x": 9.810572624206543,
      "y": 0.363709032535553,
      "z": 0.5461617708206177,
      "time_usec": 67480057688
    },
    {
      "x": 9.77707290649414,
      "y": 0.3595215976238251,
      "z": 0.49351966381073,
      "time_usec": 67480059940
    },
    {
      "x": 9.753743171691895,
      "y": 0.3595215976238251,
      "z": 0.46480581164360046,
      "time_usec": 67480062202
    },
    {
      "x": 9.701101303100586,
      "y": 0.3403790295124054,
      "z": 0.46480581164360046,
      "time_usec": 67480064456
    },
    {
      "x": 9.663414001464844,
      "y": 0.32662028074264526,
      "z": 0.49292147159576416,
      "time_usec": 67480066704
    },
    {
      "x": 9.65803050994873,
      "y": 0.2787638306617737,
      "z": 0.5216353535652161,
      "time_usec": 67480068968
    },
    {
      "x": 9.65803050994873,
      "y": 0.2883351147174835,
      "z": 0.5934200286865234,
      "time_usec": 67480071231
    },
    {
      "x": 9.657432556152344,
      "y": 0.3026920557022095,
      "z": 0.6508477330207825,
      "time_usec": 67480073491
    },
    {
      "x": 9.66640567779541,
      "y": 0.2787638306617737,
      "z": 0.7034898400306702,
      "time_usec": 67480075739
    },
    {
      "x": 9.675976753234863,
      "y": 0.26919254660606384,
      "z": 0.727418065071106,
      "time_usec": 67480077996
    },
    {
      "x": 9.685547828674316,
      "y": 0.24047867953777313,
      "z": 0.7130611538887024,
      "time_usec": 67480080254
    },
    {
      "x": 9.690333366394043,
      "y": 0.21655045449733734,
      "z": 0.6843472719192505,
      "time_usec": 67480082517
    },
    {
      "x": 9.68076229095459,
      "y": 0.18305093050003052,
      "z": 0.6652047038078308,
      "time_usec": 67480084776
    },
    {
      "x": 9.671191215515137,
      "y": 0.18305093050003052,
      "z": 0.641276478767395,
      "time_usec": 67480087036
    },
    {
      "x": 9.66640567779541,
      "y": 0.13459627330303192,
      "z": 0.607776939868927,
      "time_usec": 67480089283
    },
    {
      "x": 9.671191215515137,
      "y": 0.129810631275177,
      "z": 0.6125625967979431,
      "time_usec": 67480091547
    },
    {
      "x": 9.652048110961914,
      "y": 0.14476576447486877,
      "z": 0.6173482537269592,
      "time_usec": 67480093798
    },
    {
      "x": 9.661619186401367,
      "y": 0.1543370634317398,
      "z": 0.6604190468788147,
      "time_usec": 67480096049
    },
    {
      "x": 9.647262573242188,
      "y": 0.17347964644432068,
      "z": 0.7124629616737366,
      "time_usec": 67480098310
    },
    {
      "x": 9.6466646194458,
      "y": 0.21655045449733734,
      "z": 0.8081758618354797,
      "time_usec": 67480100573
    },
    {
      "x": 9.627521514892578,
      "y": 0.3320041298866272,
      "z": 0.9798609018325806,
      "time_usec": 67480102833
    },
    {
      "x": 9.617950439453125,
      "y": 0.21714866161346436,
      "z": 0.8656035661697388,
      "time_usec": 67480105086
    },
    {
      "x": 9.623334884643555,
      "y": 0.06340979784727097,
      "z": 0.5599204897880554,
      "time_usec": 67480107330
    },
    {
      "x": 9.623932838439941,
      "y": -0.047258246690034866,
      "z": 0.349352091550827,
      "time_usec": 67480109597
    },
    {
      "x": 9.647860527038574,
      "y": -0.0526420995593071,
      "z": 0.32123643159866333,
      "time_usec": 67480111859
    },
    {
      "x": 9.652647018432617,
      "y": 0.019740786403417587,
      "z": 0.4307080805301666,
      "time_usec": 67480114119
    },
    {
      "x": 9.675976753234863,
      "y": 0.13938191533088684,
      "z": 0.6125625967979431,
      "time_usec": 67480116372
    },
    {
      "x": 9.718449592590332,
      "y": 0.22133609652519226,
      "z": 0.7465606927871704,
      "time_usec": 67480118623
    },
    {
      "x": 9.746564865112305,
      "y": 0.2883351147174835,
      "z": 0.8231309652328491,
      "time_usec": 67480120882
    },
    {
      "x": 9.765707015991211,
      "y": 0.27397820353507996,
      "z": 0.8470591902732849,
      "time_usec": 67480123144
    },
    {
      "x": 9.756135940551758,
      "y": 0.26440688967704773,
      "z": 0.851844847202301,
      "time_usec": 67480125403
    },
    {
      "x": 9.756135940551758,
      "y": 0.22552353143692017,
      "z": 0.8087740540504456,
      "time_usec": 67480127658
    },
    {
      "x": 9.746564865112305,
      "y": 0.19680966436862946,
      "z": 0.7848458290100098,
      "time_usec": 67480129899
    },
    {
      "x": 9.732806205749512,
      "y": 0.18723836541175842,
      "z": 0.727418065071106,
      "time_usec": 67480132160
    },
    {
      "x": 9.747162818908691,
      "y": 0.16331014037132263,
      "z": 0.6843472719192505,
      "time_usec": 67480134426
    },
    {
      "x": 9.780662536621094,
      "y": 0.17766708135604858,
      "z": 0.646660327911377,
      "time_usec": 67480136676
    },
    {
      "x": 9.7998046875,
      "y": 0.20099709928035736,
      "z": 0.6323033571243286,
      "time_usec": 67480138942
    },
    {
      "x": 9.795019149780273,
      "y": 0.24466611444950104,
      "z": 0.6323033571243286,
      "time_usec": 67480141201
    },
    {
      "x": 9.79083251953125,
      "y": 0.2877369225025177,
      "z": 0.617946445941925,
      "time_usec": 67480143462
    },
    {
      "x": 9.762118339538574,
      "y": 0.2877369225025177,
      "z": 0.6418746709823608,
      "time_usec": 67480145718
    },
    {
      "x": 9.738189697265625,
      "y": 0.3068794906139374,
      "z": 0.641276478767395,
      "time_usec": 67480147966
    },
    {
      "x": 9.686145782470703,
      "y": 0.3026920557022095,
      "z": 0.6364908218383789,
      "time_usec": 67480150224
    },
    {
      "x": 9.662816047668457,
      "y": 0.2835494875907898,
      "z": 0.5790630578994751,
      "time_usec": 67480152485
    },
    {
      "x": 9.653244972229004,
      "y": 0.26440688967704773,
      "z": 0.5359922647476196,
      "time_usec": 67480154740
    },
    {
      "x": 9.620343208312988,
      "y": 0.2356930375099182,
      "z": 0.4546363055706024,
      "time_usec": 67480157001
    },
    {
      "x": 9.610772132873535,
      "y": 0.2021935135126114,
      "z": 0.41156548261642456,
      "time_usec": 67480159253
    },
    {
      "x": 9.601201057434082,
      "y": 0.19740787148475647,
      "z": 0.4163511395454407,
      "time_usec": 67480161517
    },
    {
      "x": 9.586843490600586,
      "y": 0.21176479756832123,
      "z": 0.41156548261642456,
      "time_usec": 67480163776
    },
    {
      "x": 9.572486877441406,
      "y": 0.2069791555404663,
      "z": 0.4307080805301666,
      "time_usec": 67480166034
    },
    {
      "x": 9.548559188842773,
      "y": 0.1782652884721756,
      "z": 0.4588237404823303,
      "time_usec": 67480168279
    },
    {
      "x": 9.548559188842773,
      "y": 0.2021935135126114,
      "z": 0.4731806814670563,
      "time_usec": 67480170532
    },
    {
      "x": 9.5533447265625,
      "y": 0.19740787148475647,
      "z": 0.47796630859375,
      "time_usec": 67480172799
    },
    {
      "x": 9.54377269744873,
      "y": 0.2069791555404663,
      "z": 0.4588237404823303,
      "time_usec": 67480175058
    },
    {
      "x": 9.558130264282227,
      "y": 0.16390834748744965,
      "z": 0.46839502453804016,
      "time_usec": 67480177316
    },
    {
      "x": 9.56770133972168,
      "y": 0.14476576447486877,
      "z": 0.4498506486415863,
      "time_usec": 67480179567
    },
    {
      "x": 9.600603103637695,
      "y": 0.12083754688501358,
      "z": 0.4737788736820221,
      "time_usec": 67480181830
    },
    {
      "x": 9.604789733886719,
      "y": 0.09212367236614227,
      "z": 0.4977070987224579,
      "time_usec": 67480184086
    },
    {
      "x": 9.600004196166992,
      "y": 0.08255238085985184,
      "z": 0.4977070987224579,
      "time_usec": 67480186343
    },
    {
      "x": 9.604789733886719,
      "y": 0.07776673883199692,
      "z": 0.550349235534668,
      "time_usec": 67480188595
    },
    {
      "x": 9.600004196166992,
      "y": 0.0729810893535614,
      "z": 0.5784648656845093,
      "time_usec": 67480190858
    },
    {
      "x": 9.618548393249512,
      "y": 0.0729810893535614,
      "z": 0.6119644045829773,
      "time_usec": 67480193115
    },
    {
      "x": 9.613762855529785,
      "y": 0.08255238085985184,
      "z": 0.6358926296234131,
      "time_usec": 67480195375
    },
    {
      "x": 9.632905960083008,
      "y": 0.08733802288770676,
      "z": 0.6317051649093628,
      "time_usec": 67480197632
    },
    {
      "x": 9.604191780090332,
      "y": 0.09690931439399719,
      "z": 0.6167500615119934,
      "time_usec": 67480199882
    },
    {
      "x": 9.623334884643555,
      "y": 0.10648060590028763,
      "z": 0.5982056856155396,
      "time_usec": 67480202142
    },
    {
      "x": 9.590433120727539,
      "y": 0.13998012244701385,
      "z": 0.5688936114311218,
      "time_usec": 67480204399
    },
    {
      "x": 9.600603103637695,
      "y": 0.16869398951530457,
      "z": 0.5359922647476196,
      "time_usec": 67480206657
    },
    {
      "x": 9.576674461364746,
      "y": 0.14476576447486877,
      "z": 0.5162515044212341,
      "time_usec": 67480208909
    },
    {
      "x": 9.591031074523926,
      "y": 0.1782652884721756,
      "z": 0.5072783827781677,
      "time_usec": 67480211171
    },
    {
      "x": 9.586843490600586,
      "y": 0.19262222945690155,
      "z": 0.4785645306110382,
      "time_usec": 67480213428
    },
    {
      "x": 9.610772132873535,
      "y": 0.21655045449733734,
      "z": 0.4737788736820221,
      "time_usec": 67480215686
    },
    {
      "x": 9.624530792236328,
      "y": 0.22612173855304718,
      "z": 0.4737788736820221,
      "time_usec": 67480217938
    },
    {
      "x": 9.634101867675781,
      "y": 0.2356930375099182,
      "z": 0.46420758962631226,
      "time_usec": 67480220195
    },
    {
      "x": 9.639486312866211,
      "y": 0.24466611444950104,
      "z": 0.4546363055706024,
      "time_usec": 67480222457
    },
    {
      "x": 9.662816047668457,
      "y": 0.24466611444950104,
      "z": 0.4737788736820221,
      "time_usec": 67480224717
    },
    {
      "x": 9.638887405395508,
      "y": 0.22133609652519226,
      "z": 0.5072783827781677,
      "time_usec": 67480226975
    },
    {
      "x": 9.64367389678955,
      "y": 0.21655045449733734,
      "z": 0.5312066078186035,
      "time_usec": 67480229223
    },
    {
      "x": 9.643074989318848,
      "y": 0.19740787148475647,
      "z": 0.550349235534668,
      "time_usec": 67480231482
    },
    {
      "x": 9.647860527038574,
      "y": 0.18305093050003052,
      "z": 0.5647061467170715,
      "time_usec": 67480233729
    },
    {
      "x": 9.652647018432617,
      "y": 0.1585244983434677,
      "z": 0.5838487148284912,
      "time_usec": 67480236001
    },
    {
      "x": 9.647860527038574,
      "y": 0.16331014037132263,
      "z": 0.550349235534668,
      "time_usec": 67480238251
    },
    {
      "x": 9.69093132019043,
      "y": 0.1585244983434677,
      "z": 0.5455635786056519,
      "time_usec": 67480240517
    },
    {
      "x": 9.686145782470703,
      "y": 0.17288143932819366,
      "z": 0.5264210104942322,
      "time_usec": 67480242771
    },
    {
      "x": 9.686145782470703,
      "y": 0.1585244983434677,
      "z": 0.5024927258491516,
      "time_usec": 67480245028
    },
    {
      "x": 9.695717811584473,
      "y": 0.1537388563156128,
      "z": 0.4983053207397461,
      "time_usec": 67480247271
    },
    {
      "x": 9.69093132019043,
      "y": 0.16809579730033875,
      "z": 0.4695914387702942,
      "time_usec": 67480249537
    },
    {
      "x": 9.667003631591797,
      "y": 0.1585244983434677,
      "z": 0.5024927258491516,
      "time_usec": 67480251799
    },
    {
      "x": 9.66221809387207,
      "y": 0.13938191533088684,
      "z": 0.5647061467170715,
      "time_usec": 67480254060
    },
    {
      "x": 9.661619186401367,
      "y": 0.129810631275177,
      "z": 0.6029912829399109,
      "time_usec": 67480256313
    },
    {
      "x": 9.65683364868164,
      "y": 0.15912270545959473,
      "z": 0.6269195079803467,
      "time_usec": 67480258565
    },
    {
      "x": 9.652048110961914,
      "y": 0.1256231814622879,
      "z": 0.6317051649093628,
      "time_usec": 67480260827
    },
    {
      "x": 9.661619186401367,
      "y": 0.11066804826259613,
      "z": 0.6221339106559753,
      "time_usec": 67480263085
    },
    {
      "x": 9.661619186401367,
      "y": 0.08673982322216034,
      "z": 0.5694918036460876,
      "time_usec": 67480265340
    },
    {
      "x": 9.675976753234863,
      "y": 0.053240302950143814,
      "z": 0.550349235534668,
      "time_usec": 67480267585
    },
    {
      "x": 9.685547828674316,
      "y": 0.03888336941599846,
      "z": 0.5359922647476196,
      "time_usec": 67480269855
    },
    {
      "x": 9.68076229095459,
      "y": 0.029312077909708023,
      "z": 0.5551348328590393,
      "time_usec": 67480272114
    },
    {
      "x": 9.689735412597656,
      "y": 0.04366901144385338,
      "z": 0.6221339106559753,
      "time_usec": 67480274374
    },
    {
      "x": 9.713065147399902,
      "y": 0.04366901144385338,
      "z": 0.6460621356964111,
      "time_usec": 67480276625
    },
    {
      "x": 9.723235130310059,
      "y": 0.06759724020957947,
      "z": 0.6460621356964111,
      "time_usec": 67480278871
    },
    {
      "x": 9.760921478271484,
      "y": 0.07178468257188797,
      "z": 0.6275177597999573,
      "time_usec": 67480281142
    },
    {
      "x": 9.761520385742188,
      "y": 0.08135596662759781,
      "z": 0.5940182209014893,
      "time_usec": 67480283399
    },
    {
      "x": 9.775876998901367,
      "y": 0.09092725813388824,
      "z": 0.5461617708206177,
      "time_usec": 67480285658
    },
    {
      "x": 9.790233612060547,
      "y": 0.1052841991186142,
      "z": 0.48873403668403625,
      "time_usec": 67480287908
    },
    {
      "x": 9.814760208129883,
      "y": 0.14835500717163086,
      "z": 0.45104706287384033,
      "time_usec": 67480290166
    },
    {
      "x": 9.80518913269043,
      "y": 0.1579262912273407,
      "z": 0.4462614357471466,
      "time_usec": 67480292427
    },
    {
      "x": 9.809974670410156,
      "y": 0.17706887423992157,
      "z": 0.4366901218891144,
      "time_usec": 67480294685
    },
    {
      "x": 9.791430473327637,
      "y": 0.20099709928035736,
      "z": 0.40319061279296875,
      "time_usec": 67480296941
    },
    {
      "x": 9.78664493560791,
      "y": 0.2153540402650833,
      "z": 0.4127618968486786,
      "time_usec": 67480299193
    },
    {
      "x": 9.762716293334961,
      "y": 0.2105683982372284,
      "z": 0.3936193287372589,
      "time_usec": 67480301456
    },
    {
      "x": 9.739386558532715,
      "y": 0.17228323221206665,
      "z": 0.34576287865638733,
      "time_usec": 67480303714
    },
    {
      "x": 9.69631576538086,
      "y": 0.14356936514377594,
      "z": 0.34995031356811523,
      "time_usec": 67480305970
    },
    {
      "x": 9.653244972229004,
      "y": 0.11066804826259613,
      "z": 0.34995031356811523,
      "time_usec": 67480308223
    },
    {
      "x": 9.615557670593262,
      "y": 0.11545369029045105,
      "z": 0.37806597352027893,
      "time_usec": 67480310478
    },
    {
      "x": 9.605388641357422,
      "y": 0.08195417374372482,
      "z": 0.3684946894645691,
      "time_usec": 67480312737
    },
    {
      "x": 9.5862455368042,
      "y": 0.05802594870328903,
      "z": 0.38763725757598877,
      "time_usec": 67480315001
    },
    {
      "x": 9.54377269744873,
      "y": 0.039481572806835175,
      "z": 0.38763725757598877,
      "time_usec": 67480317256
    },
    {
      "x": 9.538987159729004,
      "y": 0.039481572806835175,
      "z": 0.4061816334724426,
      "time_usec": 67480319509
    },
    {
      "x": 9.519845008850098,
      "y": 0.06819544732570648,
      "z": 0.41575294733047485,
      "time_usec": 67480321770
    },
    {
      "x": 9.548559188842773,
      "y": 0.08733802288770676,
      "z": 0.4307080805301666,
      "time_usec": 67480324028
    },
    {
      "x": 9.57188892364502,
      "y": 0.10169496387243271,
      "z": 0.4546363055706024,
      "time_usec": 67480326285
    },
    {
      "x": 9.591031074523926,
      "y": 0.09690931439399719,
      "z": 0.46420758962631226,
      "time_usec": 67480328536
    },
    {
      "x": 9.604789733886719,
      "y": 0.06759724020957947,
      "z": 0.4833501875400543,
      "time_usec": 67480330796
    },
    {
      "x": 9.595218658447266,
      "y": 0.03409772366285324,
      "z": 0.4785645306110382,
      "time_usec": 67480333047
    },
    {
      "x": 9.619147300720215,
      "y": 0.010169495828449726,
      "z": 0.4833501875400543,
      "time_usec": 67480335313
    },
    {
      "x": 9.623932838439941,
      "y": 0.03409772366285324,
      "z": 0.5216353535652161,
      "time_usec": 67480337568
    },
    {
      "x": 9.642477035522461,
      "y": 0.05802594870328903,
      "z": 0.5264210104942322,
      "time_usec": 67480339824
    },
    {
      "x": 9.685547828674316,
      "y": 0.03409772366285324,
      "z": 0.5168496966362,
      "time_usec": 67480342084
    },
    {
      "x": 9.709476470947266,
      "y": 0.053240302950143814,
      "z": 0.5078766345977783,
      "time_usec": 67480344338
    },
    {
      "x": 9.742377281188965,
      "y": 0.04307080805301666,
      "z": 0.5078766345977783,
      "time_usec": 67480346585
    },
    {
      "x": 9.77109146118164,
      "y": 0.06699903309345245,
      "z": 0.527019202709198,
      "time_usec": 67480348850
    },
    {
      "x": 9.794421195983887,
      "y": 0.09571290761232376,
      "z": 0.5700899958610535,
      "time_usec": 67480351112
    },
    {
      "x": 9.827920913696289,
      "y": 0.11964113265275955,
      "z": 0.6035895347595215,
      "time_usec": 67480353372
    },
    {
      "x": 9.875777244567871,
      "y": 0.16749759018421173,
      "z": 0.6185446381568909,
      "time_usec": 67480355627
    },
    {
      "x": 9.913464546203613,
      "y": 0.17647066712379456,
      "z": 0.6041877269744873,
      "time_usec": 67480357882
    },
    {
      "x": 9.908679008483887,
      "y": 0.17647066712379456,
      "z": 0.6089733839035034,
      "time_usec": 67480360135
    },
    {
      "x": 9.942177772521973,
      "y": 0.16689938306808472,
      "z": 0.5808576941490173,
      "time_usec": 67480362399
    },
    {
      "x": 9.927821159362793,
      "y": 0.14297115802764893,
      "z": 0.5850451588630676,
      "time_usec": 67480364652
    },
    {
      "x": 9.923035621643066,
      "y": 0.12861421704292297,
      "z": 0.5994020700454712,
      "time_usec": 67480366899
    },
    {
      "x": 9.91825008392334,
      "y": 0.12382857501506805,
      "z": 0.6329016089439392,
      "time_usec": 67480369163
    },
    {
      "x": 9.92243766784668,
      "y": 0.09511470049619675,
      "z": 0.656829833984375,
      "time_usec": 67480371426
    },
    {
      "x": 9.93679428100586,
      "y": 0.09990034252405167,
      "z": 0.6664010882377625,
      "time_usec": 67480373686
    },
    {
      "x": 9.945767402648926,
      "y": 0.08075776696205139,
      "z": 0.6711867451667786,
      "time_usec": 67480375940
    },
    {
      "x": 9.92243766784668,
      "y": 0.07118647545576096,
      "z": 0.6664010882377625,
      "time_usec": 67480378190
    },
    {
      "x": 9.912267684936523,
      "y": 0.052043892443180084,
      "z": 0.6855437159538269,
      "time_usec": 67480380443
    },
    {
      "x": 9.893723487854004,
      "y": 0.05742774158716202,
      "z": 0.6951149702072144,
      "time_usec": 67480382696
    },
    {
      "x": 9.88415241241455,
      "y": 0.07178468257188797,
      "z": 0.737587571144104,
      "time_usec": 67480384954
    },
    {
      "x": 9.874580383300781,
      "y": 0.06699903309345245,
      "z": 0.7232306599617004,
      "time_usec": 67480387214
    },
    {
      "x": 9.879366874694824,
      "y": 0.07657032459974289,
      "z": 0.6999006271362305,
      "time_usec": 67480389480
    },
    {
      "x": 9.88415241241455,
      "y": 0.05742774158716202,
      "z": 0.6664010882377625,
      "time_usec": 67480391738
    },
    {
      "x": 9.903294563293457,
      "y": 0.0568295381963253,
      "z": 0.6711867451667786,
      "time_usec": 67480393998
    },
    {
      "x": 9.931410789489746,
      "y": 0.07597211748361588,
      "z": 0.6855437159538269,
      "time_usec": 67480396243
    },
    {
      "x": 9.969695091247559,
      "y": 0.14775680005550385,
      "z": 0.714257538318634,
      "time_usec": 67480398509
    },
    {
      "x": 10.003194808959961,
      "y": 0.1908276081085205,
      "z": 0.7621139883995056,
      "time_usec": 67480400771
    },
    {
      "x": 10.022337913513184,
      "y": 0.22911277413368225,
      "z": 0.8003991842269897,
      "time_usec": 67480403029
    },
    {
      "x": 10.04566764831543,
      "y": 0.25782662630081177,
      "z": 0.8344969153404236,
      "time_usec": 67480405284
    },
    {
      "x": 10.055238723754883,
      "y": 0.23389841616153717,
      "z": 0.8153542876243591,
      "time_usec": 67480407538
    },
    {
      "x": 10.026525497436523,
      "y": 0.20518454909324646,
      "z": 0.8147560954093933,
      "time_usec": 67480409789
    },
    {
      "x": 10.012167930603027,
      "y": 0.14775680005550385,
      "z": 0.8003991842269897,
      "time_usec": 67480412043
    },
    {
      "x": 9.997811317443848,
      "y": 0.07597211748361588,
      "z": 0.7956135272979736,
      "time_usec": 67480414311
    },
    {
      "x": 9.973882675170898,
      "y": 0.03290131315588951,
      "z": 0.7716853022575378,
      "time_usec": 67480416569
    },
    {
      "x": 9.973882675170898,
      "y": 0.004187439568340778,
      "z": 0.747757077217102,
      "time_usec": 67480418823
    },
    {
      "x": 9.987641334533691,
      "y": -0.005383851006627083,
      "z": 0.7525427341461182,
      "time_usec": 67480421083
    },
    {
      "x": 10.016355514526367,
      "y": 0.02751746028661728,
      "z": 0.7387840151786804,
      "time_usec": 67480423339
    },
    {
      "x": 10.04985523223877,
      "y": 0.04666004329919815,
      "z": 0.7387840151786804,
      "time_usec": 67480425598
    },
    {
      "x": 10.059426307678223,
      "y": 0.08973085135221481,
      "z": 0.7292127013206482,
      "time_usec": 67480427853
    },
    {
      "x": 10.055238723754883,
      "y": 0.12323036789894104,
      "z": 0.7148557901382446,
      "time_usec": 67480430102
    },
    {
      "x": 10.064809799194336,
      "y": 0.15194423496723175,
      "z": 0.7148557901382446,
      "time_usec": 67480432356
    },
    {
      "x": 10.04148006439209,
      "y": 0.15672987699508667,
      "z": 0.6957131624221802,
      "time_usec": 67480434626
    },
    {
      "x": 10.046265602111816,
      "y": 0.20458634197711945,
      "z": 0.6526423692703247,
      "time_usec": 67480436882
    },
    {
      "x": 10.027721405029297,
      "y": 0.25244277715682983,
      "z": 0.6143572330474854,
      "time_usec": 67480439137
    },
    {
      "x": 10.01874828338623,
      "y": 0.30568310618400574,
      "z": 0.5904290080070496,
      "time_usec": 67480441396
    },
    {
      "x": 9.995418548583984,
      "y": 0.3774677813053131,
      "z": 0.5186443328857422,
      "time_usec": 67480443653
    },
    {
      "x": 9.972686767578125,
      "y": 0.43968117237091064,
      "z": 0.45164528489112854,
      "time_usec": 67480445911
    },
    {
      "x": 9.958329200744629,
      "y": 0.4540380835533142,
      "z": 0.42293140292167664,
      "time_usec": 67480448162
    },
    {
      "x": 9.92542839050293,
      "y": 0.4875376224517822,
      "z": 0.3846462368965149,
      "time_usec": 67480450425
    },
    {
      "x": 9.902098655700684,
      "y": 0.511465847492218,
      "z": 0.355932354927063,
      "time_usec": 67480452684
    },
    {
      "x": 9.878767967224121,
      "y": 0.5210371017456055,
      "z": 0.3320041298866272,
      "time_usec": 67480454941
    },
    {
      "x": 9.859625816345215,
      "y": 0.5024927258491516,
      "z": 0.32721850275993347,
      "time_usec": 67480457195
    },
    {
      "x": 9.850054740905762,
      "y": 0.4977070987224579,
      "z": 0.32243284583091736,
      "time_usec": 67480459448
    },
    {
      "x": 9.835697174072266,
      "y": 0.4785645306110382,
      "z": 0.3170489966869354,
      "time_usec": 67480461708
    },
    {
      "x": 9.826126098632812,
      "y": 0.45942193269729614,
      "z": 0.3122633695602417,
      "time_usec": 67480463955
    },
    {
      "x": 9.826126098632812,
      "y": 0.46899324655532837,
