{
  "frames": [
    {
      "frame_id": 0,
      "sensor_timestamp": 83360849370245,
      "time_usec": 83360849370
    },
    {
      "frame_id": 1,
      "sensor_timestamp": 83360915863165,
      "time_usec": 83360915863
    },
    {
      "frame_id": 2,
      "sensor_timestamp": 83360949109503,
      "time_usec": 83360949109
    },
    {
      "frame_id": 3,
      "sensor_timestamp": 83360982355841,
      "time_usec": 83360982355
    },
    {
      "frame_id": 4,
      "sensor_timestamp": 83361015602179,
      "time_usec": 83361015602
    },
    {
      "frame_id": 5,
      "sensor_timestamp": 83361048848761,
      "time_usec": 83361048848
    },
    {
      "frame_id": 6,
      "sensor_timestamp": 83361082095099,
      "time_usec": 83361082095
    },
    {
      "frame_id": 7,
      "sensor_timestamp": 83361115341437,
      "time_usec": 83361115341
    },
    {
      "frame_id": 8,
      "sensor_timestamp": 83361148587775,
      "time_usec": 83361148587
    },
    {
      "frame_id": 9,
      "sensor_timestamp": 83361181834357,
      "time_usec": 83361181834
    },
    {
      "frame_id": 10,
      "sensor_timestamp": 83361215080694,
      "time_usec": 83361215080
    },
    {
      "frame_id": 11,
      "sensor_timestamp": 83361248327032,
      "time_usec": 83361248327
    },
    {
      "frame_id": 12,
      "sensor_timestamp": 83361281573370,
      "time_usec": 83361281573
    },
    {
      "frame_id": 13,
      "sensor_timestamp": 83361314819952,
      "time_usec": 83361314819
    },
    {
      "frame_id": 14,
      "sensor_timestamp": 83361348066290,
      "time_usec": 83361348066
    },
    {
      "frame_id": 15,
      "sensor_timestamp": 83361381312628,
      "time_usec": 83361381312
    },
    {
      "frame_id": 16,
      "sensor_timestamp": 83361414558966,
      "time_usec": 83361414558
    },
    {
      "frame_id": 17,
      "sensor_timestamp": 83361447805548,
      "time_usec": 83361447805
    },
    {
      "frame_id": 18,
      "sensor_timestamp": 83361481051886,
      "time_usec": 83361481051
    },
    {
      "frame_id": 19,
      "sensor_timestamp": 83361514298224,
      "time_usec": 83361514298
    },
    {
      "frame_id": 20,
      "sensor_timestamp": 83361547544562,
      "time_usec": 83361547544
    },
    {
      "frame_id": 21,
      "sensor_timestamp": 83361580791144,
      "time_usec": 83361580791
    },
    {
      "frame_id": 22,
      "sensor_timestamp": 83361614037482,
      "time_usec": 83361614037
    },
    {
      "frame_id": 23,
      "sensor_timestamp": 83361647283819,
      "time_usec": 83361647283
    },
    {
      "frame_id": 24,
      "sensor_timestamp": 83361680530157,
      "time_usec": 83361680530
    },
    {
      "frame_id": 25,
      "sensor_timestamp": 83361713776739,
      "time_usec": 83361713776
    },
    {
      "frame_id": 26,
      "sensor_timestamp": 83361747023077,
      "time_usec": 83361747023
    },
    {
      "frame_id": 27,
      "sensor_timestamp": 83361780269415,
      "time_usec": 83361780269
    },
    {
      "frame_id": 28,
      "sensor_timestamp": 83361813515753,
      "time_usec": 83361813515
    },
    {
      "frame_id": 29,
      "sensor_timestamp": 83361846762335,
      "time_usec": 83361846762
    },
    {
      "frame_id": 30,
      "sensor_timestamp": 83361880008673,
      "time_usec": 83361880008
    },
    {
      "frame_id": 31,
      "sensor_timestamp": 83361913255011,
      "time_usec": 83361913255
    },
    {
      "frame_id": 32,
      "sensor_timestamp": 83361946501349,
      "time_usec": 83361946501
    },
    {
      "frame_id": 33,
      "sensor_timestamp": 83361979747687,
      "time_usec": 83361979747
    },
    {
      "frame_id": 34,
      "sensor_timestamp": 83362012994269,
      "time_usec": 83362012994
    },
    {
      "frame_id": 35,
      "sensor_timestamp": 83362046240607,
      "time_usec": 83362046240
    },
    {
      "frame_id": 36,
      "sensor_timestamp": 83362079486944,
      "time_usec": 83362079486
    },
    {
      "frame_id": 37,
      "sensor_timestamp": 83362112733282,
      "time_usec": 83362112733
    },
    {
      "frame_id": 38,
      "sensor_timestamp": 83362145979864,
      "time_usec": 83362145979
    },
    {
      "frame_id": 39,
      "sensor_timestamp": 83362179226202,
      "time_usec": 83362179226
    },
    {
      "frame_id": 40,
      "sensor_timestamp": 83362212472540,
      "time_usec": 83362212472
    },
    {
      "frame_id": 41,
      "sensor_timestamp": 83362245718878,
      "time_usec": 83362245718
    },
    {
      "frame_id": 42,
      "sensor_timestamp": 83362278965460,
      "time_usec": 83362278965
    },
    {
      "frame_id": 43,
      "sensor_timestamp": 83362312211798,
      "time_usec": 83362312211
    },
    {
      "frame_id": 44,
      "sensor_timestamp": 83362345458136,
      "time_usec": 83362345458
    },
    {
      "frame_id": 45,
      "sensor_timestamp": 83362378704474,
      "time_usec": 83362378704
    },
    {
      "frame_id": 46,
      "sensor_timestamp": 83362411951056,
      "time_usec": 83362411951
    },
    {
      "frame_id": 47,
      "sensor_timestamp": 83362445197394,
      "time_usec": 83362445197
    },
    {
      "frame_id": 48,
      "sensor_timestamp": 83362478443732,
      "time_usec": 83362478443
    },
    {
      "frame_id": 49,
      "sensor_timestamp": 83362511690069,
      "time_usec": 83362511690
    },
    {
      "frame_id": 50,
      "sensor_timestamp": 83362544936652,
      "time_usec": 83362544936
    },
    {
      "frame_id": 51,
      "sensor_timestamp": 83362578182989,
      "time_usec": 83362578182
    },
    {
      "frame_id": 52,
      "sensor_timestamp": 83362611429327,
      "time_usec": 83362611429
    },
    {
      "frame_id": 53,
      "sensor_timestamp": 83362644675665,
      "time_usec": 83362644675
    },
    {
      "frame_id": 54,
      "sensor_timestamp": 83362677922247,
      "time_usec": 83362677922
    },
    {
      "frame_id": 55,
      "sensor_timestamp": 83362711168585,
      "time_usec": 83362711168
    },
    {
      "frame_id": 56,
      "sensor_timestamp": 83362744414923,
      "time_usec": 83362744414
    },
    {
      "frame_id": 57,
      "sensor_timestamp": 83362777661261,
      "time_usec": 83362777661
    },
    {
      "frame_id": 58,
      "sensor_timestamp": 83362810907843,
      "time_usec": 83362810907
    },
    {
      "frame_id": 59,
      "sensor_timestamp": 83362844154181,
      "time_usec": 83362844154
    },
    {
      "frame_id": 60,
      "sensor_timestamp": 83362877400519,
      "time_usec": 83362877400
    },
    {
      "frame_id": 61,
      "sensor_timestamp": 83362910646857,
      "time_usec": 83362910646
    },
    {
      "frame_id": 62,
      "sensor_timestamp": 83362943893439,
      "time_usec": 83362943893
    },
    {
      "frame_id": 63,
      "sensor_timestamp": 83362977139777,
      "time_usec": 83362977139
    },
    {
      "frame_id": 64,
      "sensor_timestamp": 83363010386114,
      "time_usec": 83363010386
    },
    {
      "frame_id": 65,
      "sensor_timestamp": 83363043632452,
      "time_usec": 83363043632
    },
    {
      "frame_id": 66,
      "sensor_timestamp": 83363076879034,
      "time_usec": 83363076879
    },
    {
      "frame_id": 67,
      "sensor_timestamp": 83363110125372,
      "time_usec": 83363110125
    },
    {
      "frame_id": 68,
      "sensor_timestamp": 83363143371710,
      "time_usec": 83363143371
    },
    {
      "frame_id": 69,
      "sensor_timestamp": 83363176618048,
      "time_usec": 83363176618
    },
    {
      "frame_id": 70,
      "sensor_timestamp": 83363209864386,
      "time_usec": 83363209864
    },
    {
      "frame_id": 71,
      "sensor_timestamp": 83363243110968,
      "time_usec": 83363243110
    },
    {
      "frame_id": 72,
      "sensor_timestamp": 83363276357306,
      "time_usec": 83363276357
    },
    {
      "frame_id": 73,
      "sensor_timestamp": 83363309603644,
      "time_usec": 83363309603
    },
    {
      "frame_id": 74,
      "sensor_timestamp": 83363342849982,
      "time_usec": 83363342849
    },
    {
      "frame_id": 75,
      "sensor_timestamp": 83363376096564,
      "time_usec": 83363376096
    },
    {
      "frame_id": 76,
      "sensor_timestamp": 83363409342902,
      "time_usec": 83363409342
    },
    {
      "frame_id": 77,
      "sensor_timestamp": 83363442589239,
      "time_usec": 83363442589
    },
    {
      "frame_id": 78,
      "sensor_timestamp": 83363475835577,
      "time_usec": 83363475835
    },
    {
      "frame_id": 79,
      "sensor_timestamp": 83363509082159,
      "time_usec": 83363509082
    },
    {
      "frame_id": 80,
      "sensor_timestamp": 83363542328497,
      "time_usec": 83363542328
    },
    {
      "frame_id": 81,
      "sensor_timestamp": 83363575574835,
      "time_usec": 83363575574
    },
    {
      "frame_id": 82,
      "sensor_timestamp": 83363608821173,
      "time_usec": 83363608821
    },
    {
      "frame_id": 83,
      "sensor_timestamp": 83363642067755,
      "time_usec": 83363642067
    },
    {
      "frame_id": 84,
      "sensor_timestamp": 83363675314093,
      "time_usec": 83363675314
    },
    {
      "frame_id": 85,
      "sensor_timestamp": 83363708560431,
      "time_usec": 83363708560
    },
    {
      "frame_id": 86,
      "sensor_timestamp": 83363741806769,
      "time_usec": 83363741806
    },
    {
      "frame_id": 87,
      "sensor_timestamp": 83363775053351,
      "time_usec": 83363775053
    },
    {
      "frame_id": 88,
      "sensor_timestamp": 83363808299689,
      "time_usec": 83363808299
    },
    {
      "frame_id": 89,
      "sensor_timestamp": 83363841546027,
      "time_usec": 83363841546
    },
    {
      "frame_id": 90,
      "sensor_timestamp": 83363874792364,
      "time_usec": 83363874792
    },
    {
      "frame_id": 91,
      "sensor_timestamp": 83363908038946,
      "time_usec": 83363908038
    },
    {
      "frame_id": 92,
      "sensor_timestamp": 83363941285284,
      "time_usec": 83363941285
    },
    {
      "frame_id": 93,
      "sensor_timestamp": 83363974531622,
      "time_usec": 83363974531
    },
    {
      "frame_id": 94,
      "sensor_timestamp": 83364007777960,
      "time_usec": 83364007777
    },
    {
      "frame_id": 95,
      "sensor_timestamp": 83364041024542,
      "time_usec": 83364041024
    },
    {
      "frame_id": 96,
      "sensor_timestamp": 83364074270880,
      "time_usec": 83364074270
    },
    {
      "frame_id": 97,
      "sensor_timestamp": 83364107517218,
      "time_usec": 83364107517
    },
    {
      "frame_id": 98,
      "sensor_timestamp": 83364140763556,
      "time_usec": 83364140763
    },
    {
      "frame_id": 99,
      "sensor_timestamp": 83364174010138,
      "time_usec": 83364174010
    },
    {
      "frame_id": 100,
      "sensor_timestamp": 83364207256476,
      "time_usec": 83364207256
    },
    {
      "frame_id": 101,
      "sensor_timestamp": 83364240502814,
      "time_usec": 83364240502
    },
    {
      "frame_id": 102,
      "sensor_timestamp": 83364273749152,
      "time_usec": 83364273749
    },
    {
      "frame_id": 103,
      "sensor_timestamp": 83364306995734,
      "time_usec": 83364306995
    },
    {
      "frame_id": 104,
      "sensor_timestamp": 83364340242071,
      "time_usec": 83364340242
    },
    {
      "frame_id": 105,
      "sensor_timestamp": 83364373488409,
      "time_usec": 83364373488
    },
    {
      "frame_id": 106,
      "sensor_timestamp": 83364406734747,
      "time_usec": 83364406734
    },
    {
      "frame_id": 107,
      "sensor_timestamp": 83364439981085,
      "time_usec": 83364439981
    },
    {
      "frame_id": 108,
      "sensor_timestamp": 83364473227667,
      "time_usec": 83364473227
    },
    {
      "frame_id": 109,
      "sensor_timestamp": 83364506474005,
      "time_usec": 83364506474
    },
    {
      "frame_id": 110,
      "sensor_timestamp": 83364539720343,
      "time_usec": 83364539720
    },
    {
      "frame_id": 111,
      "sensor_timestamp": 83364572966681,
      "time_usec": 83364572966
    },
    {
      "frame_id": 112,
      "sensor_timestamp": 83364606213263,
      "time_usec": 83364606213
    },
    {
      "frame_id": 113,
      "sensor_timestamp": 83364639459601,
      "time_usec": 83364639459
    },
    {
      "frame_id": 114,
      "sensor_timestamp": 83364672705939,
      "time_usec": 83364672705
    },
    {
      "frame_id": 115,
      "sensor_timestamp": 83364705952277,
      "time_usec": 83364705952
    },
    {
      "frame_id": 116,
      "sensor_timestamp": 83364739198859,
      "time_usec": 83364739198
    },
    {
      "frame_id": 117,
      "sensor_timestamp": 83364772445196,
      "time_usec": 83364772445
    },
    {
      "frame_id": 118,
      "sensor_timestamp": 83364805691534,
      "time_usec": 83364805691
    },
    {
      "frame_id": 119,
      "sensor_timestamp": 83364838937872,
      "time_usec": 83364838937
    },
    {
      "frame_id": 120,
      "sensor_timestamp": 83364872184454,
      "time_usec": 83364872184
    },
    {
      "frame_id": 121,
      "sensor_timestamp": 83364905430792,
      "time_usec": 83364905430
    },
    {
      "frame_id": 122,
      "sensor_timestamp": 83364938677130,
      "time_usec": 83364938677
    },
    {
      "frame_id": 123,
      "sensor_timestamp": 83364971923468,
      "time_usec": 83364971923
    },
    {
      "frame_id": 124,
      "sensor_timestamp": 83365005170050,
      "time_usec": 83365005170
    },
    {
      "frame_id": 125,
      "sensor_timestamp": 83365038416388,
      "time_usec": 83365038416
    },
    {
      "frame_id": 126,
      "sensor_timestamp": 83365071662726,
      "time_usec": 83365071662
    },
    {
      "frame_id": 127,
      "sensor_timestamp": 83365104909064,
      "time_usec": 83365104909
    },
    {
      "frame_id": 128,
      "sensor_timestamp": 83365138155646,
      "time_usec": 83365138155
    },
    {
      "frame_id": 129,
      "sensor_timestamp": 83365171401984,
      "time_usec": 83365171401
    },
    {
      "frame_id": 130,
      "sensor_timestamp": 83365204648321,
      "time_usec": 83365204648
    },
    {
      "frame_id": 131,
      "sensor_timestamp": 83365237894659,
      "time_usec": 83365237894
    },
    {
      "frame_id": 132,
      "sensor_timestamp": 83365271141241,
      "time_usec": 83365271141
    },
    {
      "frame_id": 133,
      "sensor_timestamp": 83365304387579,
      "time_usec": 83365304387
    },
    {
      "frame_id": 134,
      "sensor_timestamp": 83365337633917,
      "time_usec": 83365337633
    },
    {
      "frame_id": 135,
      "sensor_timestamp": 83365370880255,
      "time_usec": 83365370880
    },
    {
      "frame_id": 136,
      "sensor_timestamp": 83365404126837,
      "time_usec": 83365404126
    },
    {
      "frame_id": 137,
      "sensor_timestamp": 83365437373175,
      "time_usec": 83365437373
    },
    {
      "frame_id": 138,
      "sensor_timestamp": 83365470619513,
      "time_usec": 83365470619
    },
    {
      "frame_id": 139,
      "sensor_timestamp": 83365503865851,
      "time_usec": 83365503865
    },
    {
      "frame_id": 140,
      "sensor_timestamp": 83365537112189,
      "time_usec": 83365537112
    },
    {
      "frame_id": 141,
      "sensor_timestamp": 83365570358771,
      "time_usec": 83365570358
    },
    {
      "frame_id": 142,
      "sensor_timestamp": 83365603605109,
      "time_usec": 83365603605
    },
    {
      "frame_id": 143,
      "sensor_timestamp": 83365636851446,
      "time_usec": 83365636851
    },
    {
      "frame_id": 144,
      "sensor_timestamp": 83365670097784,
      "time_usec": 83365670097
    },
    {
      "frame_id": 145,
      "sensor_timestamp": 83365703344366,
      "time_usec": 83365703344
    },
    {
      "frame_id": 146,
      "sensor_timestamp": 83365736590704,
      "time_usec": 83365736590
    },
    {
      "frame_id": 147,
      "sensor_timestamp": 83365769837042,
      "time_usec": 83365769837
    },
    {
      "frame_id": 148,
      "sensor_timestamp": 83365803083380,
      "time_usec": 83365803083
    },
    {
      "frame_id": 149,
      "sensor_timestamp": 83365836329962,
      "time_usec": 83365836329
    },
    {
      "frame_id": 150,
      "sensor_timestamp": 83365869576300,
      "time_usec": 83365869576
    },
    {
      "frame_id": 151,
      "sensor_timestamp": 83365902822638,
      "time_usec": 83365902822
    },
    {
      "frame_id": 152,
      "sensor_timestamp": 83365936068976,
      "time_usec": 83365936068
    },
    {
      "frame_id": 153,
      "sensor_timestamp": 83365969315558,
      "time_usec": 83365969315
    },
    {
      "frame_id": 154,
      "sensor_timestamp": 83366002561896,
      "time_usec": 83366002561
    },
    {
      "frame_id": 155,
      "sensor_timestamp": 83366035808234,
      "time_usec": 83366035808
    },
    {
      "frame_id": 156,
      "sensor_timestamp": 83366069054571,
      "time_usec": 83366069054
    },
    {
      "frame_id": 157,
      "sensor_timestamp": 83366102301153,
      "time_usec": 83366102301
    },
    {
      "frame_id": 158,
      "sensor_timestamp": 83366135547491,
      "time_usec": 83366135547
    },
    {
      "frame_id": 159,
      "sensor_timestamp": 83366168793829,
      "time_usec": 83366168793
    },
    {
      "frame_id": 160,
      "sensor_timestamp": 83366202040167,
      "time_usec": 83366202040
    },
    {
      "frame_id": 161,
      "sensor_timestamp": 83366235286749,
      "time_usec": 83366235286
    },
    {
      "frame_id": 162,
      "sensor_timestamp": 83366268533087,
      "time_usec": 83366268533
    },
    {
      "frame_id": 163,
      "sensor_timestamp": 83366301779425,
      "time_usec": 83366301779
    },
    {
      "frame_id": 164,
      "sensor_timestamp": 83366335025763,
      "time_usec": 83366335025
    },
    {
      "frame_id": 165,
      "sensor_timestamp": 83366368272345,
      "time_usec": 83366368272
    },
    {
      "frame_id": 166,
      "sensor_timestamp": 83366401518683,
      "time_usec": 83366401518
    },
    {
      "frame_id": 167,
      "sensor_timestamp": 83366434765021,
      "time_usec": 83366434765
    },
    {
      "frame_id": 168,
      "sensor_timestamp": 83366468011359,
      "time_usec": 83366468011
    },
    {
      "frame_id": 169,
      "sensor_timestamp": 83366501257941,
      "time_usec": 83366501257
    },
    {
      "frame_id": 170,
      "sensor_timestamp": 83366534504278,
      "time_usec": 83366534504
    },
    {
      "frame_id": 171,
      "sensor_timestamp": 83366567750616,
      "time_usec": 83366567750
    },
    {
      "frame_id": 172,
      "sensor_timestamp": 83366600996954,
      "time_usec": 83366600996
    },
    {
      "frame_id": 173,
      "sensor_timestamp": 83366634243536,
      "time_usec": 83366634243
    },
    {
      "frame_id": 174,
      "sensor_timestamp": 83366667489874,
      "time_usec": 83366667489
    },
    {
      "frame_id": 175,
      "sensor_timestamp": 83366700736212,
      "time_usec": 83366700736
    },
    {
      "frame_id": 176,
      "sensor_timestamp": 83366733982550,
      "time_usec": 83366733982
    },
    {
      "frame_id": 177,
      "sensor_timestamp": 83366767228888,
      "time_usec": 83366767228
    },
    {
      "frame_id": 178,
      "sensor_timestamp": 83366800475470,
      "time_usec": 83366800475
    },
    {
      "frame_id": 179,
      "sensor_timestamp": 83366833721808,
      "time_usec": 83366833721
    },
    {
      "frame_id": 180,
      "sensor_timestamp": 83366866968146,
      "time_usec": 83366866968
    },
    {
      "frame_id": 181,
      "sensor_timestamp": 83366900214484,
      "time_usec": 83366900214
    },
    {
      "frame_id": 182,
      "sensor_timestamp": 83366933461066,
      "time_usec": 83366933461
    },
    {
      "frame_id": 183,
      "sensor_timestamp": 83366966707403,
      "time_usec": 83366966707
    },
    {
      "frame_id": 184,
      "sensor_timestamp": 83366999953741,
      "time_usec": 83366999953
    },
    {
      "frame_id": 185,
      "sensor_timestamp": 83367033200079,
      "time_usec": 83367033200
    },
    {
      "frame_id": 186,
      "sensor_timestamp": 83367066446661,
      "time_usec": 83367066446
    },
    {
      "frame_id": 187,
      "sensor_timestamp": 83367099692999,
      "time_usec": 83367099692
    },
    {
      "frame_id": 188,
      "sensor_timestamp": 83367132939337,
      "time_usec": 83367132939
    },
    {
      "frame_id": 189,
      "sensor_timestamp": 83367166185675,
      "time_usec": 83367166185
    },
    {
      "frame_id": 190,
      "sensor_timestamp": 83367199432257,
      "time_usec": 83367199432
    },
    {
      "frame_id": 191,
      "sensor_timestamp": 83367232678595,
      "time_usec": 83367232678
    },
    {
      "frame_id": 192,
      "sensor_timestamp": 83367265924933,
      "time_usec": 83367265924
    },
    {
      "frame_id": 193,
      "sensor_timestamp": 83367299171271,
      "time_usec": 83367299171
    },
    {
      "frame_id": 194,
      "sensor_timestamp": 83367332417853,
      "time_usec": 83367332417
    },
    {
      "frame_id": 195,
      "sensor_timestamp": 83367365664191,
      "time_usec": 83367365664
    },
    {
      "frame_id": 196,
      "sensor_timestamp": 83367398910528,
      "time_usec": 83367398910
    },
    {
      "frame_id": 197,
      "sensor_timestamp": 83367432156866,
      "time_usec": 83367432156
    },
    {
      "frame_id": 198,
      "sensor_timestamp": 83367465403448,
      "time_usec": 83367465403
    },
    {
      "frame_id": 199,
      "sensor_timestamp": 83367498649786,
      "time_usec": 83367498649
    },
    {
      "frame_id": 200,
      "sensor_timestamp": 83367531896124,
      "time_usec": 83367531896
    },
    {
      "frame_id": 201,
      "sensor_timestamp": 83367565142462,
      "time_usec": 83367565142
    },
    {
      "frame_id": 202,
      "sensor_timestamp": 83367598389044,
      "time_usec": 83367598389
    },
    {
      "frame_id": 203,
      "sensor_timestamp": 83367631591475,
      "time_usec": 83367631591
    },
    {
      "frame_id": 204,
      "sensor_timestamp": 83367664881720,
      "time_usec": 83367664881
    },
    {
      "frame_id": 205,
      "sensor_timestamp": 83367698128058,
      "time_usec": 83367698128
    },
    {
      "frame_id": 206,
      "sensor_timestamp": 83367731374640,
      "time_usec": 83367731374
    },
    {
      "frame_id": 207,
      "sensor_timestamp": 83367764620978,
      "time_usec": 83367764620
    },
    {
      "frame_id": 208,
      "sensor_timestamp": 83367797867316,
      "time_usec": 83367797867
    },
    {
      "frame_id": 209,
      "sensor_timestamp": 83367831113653,
      "time_usec": 83367831113
    },
    {
      "frame_id": 210,
      "sensor_timestamp": 83367864360236,
      "time_usec": 83367864360
    },
    {
      "frame_id": 211,
      "sensor_timestamp": 83367897606573,
      "time_usec": 83367897606
    },
    {
      "frame_id": 212,
      "sensor_timestamp": 83367930852911,
      "time_usec": 83367930852
    },
    {
      "frame_id": 213,
      "sensor_timestamp": 83367964099249,
      "time_usec": 83367964099
    },
    {
      "frame_id": 214,
      "sensor_timestamp": 83367997291711,
      "time_usec": 83367997291
    },
    {
      "frame_id": 215,
      "sensor_timestamp": 83368030592169,
      "time_usec": 83368030592
    },
    {
      "frame_id": 216,
      "sensor_timestamp": 83368063838507,
      "time_usec": 83368063838
    },
    {
      "frame_id": 217,
      "sensor_timestamp": 83368097084845,
      "time_usec": 83368097084
    },
    {
      "frame_id": 218,
      "sensor_timestamp": 83368130331183,
      "time_usec": 83368130331
    },
    {
      "frame_id": 219,
      "sensor_timestamp": 83368163577765,
      "time_usec": 83368163577
    },
    {
      "frame_id": 220,
      "sensor_timestamp": 83368196824103,
      "time_usec": 83368196824
    },
    {
      "frame_id": 221,
      "sensor_timestamp": 83368230070441,
      "time_usec": 83368230070
    },
    {
      "frame_id": 222,
      "sensor_timestamp": 83368263316778,
      "time_usec": 83368263316
    },
    {
      "frame_id": 223,
      "sensor_timestamp": 83368296563361,
      "time_usec": 83368296563
    },
    {
      "frame_id": 224,
      "sensor_timestamp": 83368329809698,
      "time_usec": 83368329809
    },
    {
      "frame_id": 225,
      "sensor_timestamp": 83368363056036,
      "time_usec": 83368363056
    },
    {
      "frame_id": 226,
      "sensor_timestamp": 83368396302374,
      "time_usec": 83368396302
    },
    {
      "frame_id": 227,
      "sensor_timestamp": 83368429548956,
      "time_usec": 83368429548
    },
    {
      "frame_id": 228,
      "sensor_timestamp": 83368462795294,
      "time_usec": 83368462795
    },
    {
      "frame_id": 229,
      "sensor_timestamp": 83368496041632,
      "time_usec": 83368496041
    },
    {
      "frame_id": 230,
      "sensor_timestamp": 83368529287970,
      "time_usec": 83368529287
    },
    {
      "frame_id": 231,
      "sensor_timestamp": 83368562534552,
      "time_usec": 83368562534
    },
    {
      "frame_id": 232,
      "sensor_timestamp": 83368595780890,
      "time_usec": 83368595780
    },
    {
      "frame_id": 233,
      "sensor_timestamp": 83368629027228,
      "time_usec": 83368629027
    },
    {
      "frame_id": 234,
      "sensor_timestamp": 83368662273566,
      "time_usec": 83368662273
    },
    {
      "frame_id": 235,
      "sensor_timestamp": 83368695520148,
      "time_usec": 83368695520
    },
    {
      "frame_id": 236,
      "sensor_timestamp": 83368728766486,
      "time_usec": 83368728766
    },
    {
      "frame_id": 237,
      "sensor_timestamp": 83368762165206,
      "time_usec": 83368762165
    },
    {
      "frame_id": 238,
      "sensor_timestamp": 83368795259161,
      "time_usec": 83368795259
    },
    {
      "frame_id": 239,
      "sensor_timestamp": 83368828505743,
      "time_usec": 83368828505
    },
    {
      "frame_id": 240,
      "sensor_timestamp": 83368861752081,
      "time_usec": 83368861752
    },
    {
      "frame_id": 241,
      "sensor_timestamp": 83368894998419,
      "time_usec": 83368894998
    },
    {
      "frame_id": 242,
      "sensor_timestamp": 83368928244757,
      "time_usec": 83368928244
    },
    {
      "frame_id": 243,
      "sensor_timestamp": 83368961491339,
      "time_usec": 83368961491
    },
    {
      "frame_id": 244,
      "sensor_timestamp": 83368994737677,
      "time_usec": 83368994737
    },
    {
      "frame_id": 245,
      "sensor_timestamp": 83369027984015,
      "time_usec": 83369027984
    },
    {
      "frame_id": 246,
      "sensor_timestamp": 83369061230353,
      "time_usec": 83369061230
    },
    {
      "frame_id": 247,
      "sensor_timestamp": 83369094476935,
      "time_usec": 83369094476
    },
    {
      "frame_id": 248,
      "sensor_timestamp": 83369127723273,
      "time_usec": 83369127723
    },
    {
      "frame_id": 249,
      "sensor_timestamp": 83369160969611,
      "time_usec": 83369160969
    },
    {
      "frame_id": 250,
      "sensor_timestamp": 83369194215948,
      "time_usec": 83369194215
    },
    {
      "frame_id": 251,
      "sensor_timestamp": 83369227462286,
      "time_usec": 83369227462
    },
    {
      "frame_id": 252,
      "sensor_timestamp": 83369260708868,
      "time_usec": 83369260708
    },
    {
      "frame_id": 253,
      "sensor_timestamp": 83369293955206,
      "time_usec": 83369293955
    },
    {
      "frame_id": 254,
      "sensor_timestamp": 83369327201544,
      "time_usec": 83369327201
    },
    {
      "frame_id": 255,
      "sensor_timestamp": 83369360447882,
      "time_usec": 83369360447
    },
    {
      "frame_id": 256,
      "sensor_timestamp": 83369393694464,
      "time_usec": 83369393694
    },
    {
      "frame_id": 257,
      "sensor_timestamp": 83369426940802,
      "time_usec": 83369426940
    },
    {
      "frame_id": 258,
      "sensor_timestamp": 83369460187140,
      "time_usec": 83369460187
    },
    {
      "frame_id": 259,
      "sensor_timestamp": 83369493433478,
      "time_usec": 83369493433
    },
    {
      "frame_id": 260,
      "sensor_timestamp": 83369526680060,
      "time_usec": 83369526680
    },
    {
      "frame_id": 261,
      "sensor_timestamp": 83369559926398,
      "time_usec": 83369559926
    },
    {
      "frame_id": 262,
      "sensor_timestamp": 83369593172736,
      "time_usec": 83369593172
    },
    {
      "frame_id": 263,
      "sensor_timestamp": 83369626419073,
      "time_usec": 83369626419
    },
    {
      "frame_id": 264,
      "sensor_timestamp": 83369659665655,
      "time_usec": 83369659665
    },
    {
      "frame_id": 265,
      "sensor_timestamp": 83369692911993,
      "time_usec": 83369692911
    },
    {
      "frame_id": 266,
      "sensor_timestamp": 83369726158331,
      "time_usec": 83369726158
    },
    {
      "frame_id": 267,
      "sensor_timestamp": 83369759404669,
      "time_usec": 83369759404
    },
    {
      "frame_id": 268,
      "sensor_timestamp": 83369792651251,
      "time_usec": 83369792651
    },
    {
      "frame_id": 269,
      "sensor_timestamp": 83369825897589,
      "time_usec": 83369825897
    },
    {
      "frame_id": 270,
      "sensor_timestamp": 83369859143927,
      "time_usec": 83369859143
    },
    {
      "frame_id": 271,
      "sensor_timestamp": 83369892390265,
      "time_usec": 83369892390
    },
    {
      "frame_id": 272,
      "sensor_timestamp": 83369925636847,
      "time_usec": 83369925636
    },
    {
      "frame_id": 273,
      "sensor_timestamp": 83369958883185,
      "time_usec": 83369958883
    },
    {
      "frame_id": 274,
      "sensor_timestamp": 83369992129523,
      "time_usec": 83369992129
    },
    {
      "frame_id": 275,
      "sensor_timestamp": 83370025375861,
      "time_usec": 83370025375
    },
    {
      "frame_id": 276,
      "sensor_timestamp": 83370058622443,
      "time_usec": 83370058622
    },
    {
      "frame_id": 277,
      "sensor_timestamp": 83370091868780,
      "time_usec": 83370091868
    },
    {
      "frame_id": 278,
      "sensor_timestamp": 83370125115118,
      "time_usec": 83370125115
    },
    {
      "frame_id": 279,
      "sensor_timestamp": 83370158361456,
      "time_usec": 83370158361
    },
    {
      "frame_id": 280,
      "sensor_timestamp": 83370191608038,
      "time_usec": 83370191608
    },
    {
      "frame_id": 281,
      "sensor_timestamp": 83370224854376,
      "time_usec": 83370224854
    },
    {
      "frame_id": 282,
      "sensor_timestamp": 83370258100714,
      "time_usec": 83370258100
    },
    {
      "frame_id": 283,
      "sensor_timestamp": 83370291347052,
      "time_usec": 83370291347
    },
    {
      "frame_id": 284,
      "sensor_timestamp": 83370324593634,
      "time_usec": 83370324593
    },
    {
      "frame_id": 285,
      "sensor_timestamp": 83370357839972,
      "time_usec": 83370357839
    },
    {
      "frame_id": 286,
      "sensor_timestamp": 83370391086310,
      "time_usec": 83370391086
    },
    {
      "frame_id": 287,
      "sensor_timestamp": 83370424332648,
      "time_usec": 83370424332
    },
    {
      "frame_id": 288,
      "sensor_timestamp": 83370457578986,
      "time_usec": 83370457578
    },
    {
      "frame_id": 289,
      "sensor_timestamp": 83370490825568,
      "time_usec": 83370490825
    },
    {
      "frame_id": 290,
      "sensor_timestamp": 83370524071905,
      "time_usec": 83370524071
    },
    {
      "frame_id": 291,
      "sensor_timestamp": 83370557318243,
      "time_usec": 83370557318
    },
    {
      "frame_id": 292,
      "sensor_timestamp": 83370590564581,
      "time_usec": 83370590564
    },
    {
      "frame_id": 293,
      "sensor_timestamp": 83370623811163,
      "time_usec": 83370623811
    },
    {
      "frame_id": 294,
      "sensor_timestamp": 83370657057501,
      "time_usec": 83370657057
    },
    {
      "frame_id": 295,
      "sensor_timestamp": 83370690303839,
      "time_usec": 83370690303
    },
    {
      "frame_id": 296,
      "sensor_timestamp": 83370723550177,
      "time_usec": 83370723550
    },
    {
      "frame_id": 297,
      "sensor_timestamp": 83370756796759,
      "time_usec": 83370756796
    },
    {
      "frame_id": 298,
      "sensor_timestamp": 83370790043097,
      "time_usec": 83370790043
    },
    {
      "frame_id": 299,
      "sensor_timestamp": 83370823289435,
      "time_usec": 83370823289
    },
    {
      "frame_id": 300,
      "sensor_timestamp": 83370856535773,
      "time_usec": 83370856535
    },
    {
      "frame_id": 301,
      "sensor_timestamp": 83370889782355,
      "time_usec": 83370889782
    },
    {
      "frame_id": 302,
      "sensor_timestamp": 83370923028693,
      "time_usec": 83370923028
    },
    {
      "frame_id": 303,
      "sensor_timestamp": 83370956275030,
      "time_usec": 83370956275
    },
    {
      "frame_id": 304,
      "sensor_timestamp": 83370989521368,
      "time_usec": 83370989521
    },
    {
      "frame_id": 305,
      "sensor_timestamp": 83371022767950,
      "time_usec": 83371022767
    },
    {
      "frame_id": 306,
      "sensor_timestamp": 83371056014288,
      "time_usec": 83371056014
    },
    {
      "frame_id": 307,
      "sensor_timestamp": 83371089260626,
      "time_usec": 83371089260
    },
    {
      "frame_id": 308,
      "sensor_timestamp": 83371122506964,
      "time_usec": 83371122506
    },
    {
      "frame_id": 309,
      "sensor_timestamp": 83371155753546,
      "time_usec": 83371155753
    },
    {
      "frame_id": 310,
      "sensor_timestamp": 83371188999884,
      "time_usec": 83371188999
    },
    {
      "frame_id": 311,
      "sensor_timestamp": 83371222246222,
      "time_usec": 83371222246
    },
    {
      "frame_id": 312,
      "sensor_timestamp": 83371255492560,
      "time_usec": 83371255492
    },
    {
      "frame_id": 313,
      "sensor_timestamp": 83371288739142,
      "time_usec": 83371288739
    },
    {
      "frame_id": 314,
      "sensor_timestamp": 83371321985480,
      "time_usec": 83371321985
    },
    {
      "frame_id": 315,
      "sensor_timestamp": 83371355231818,
      "time_usec": 83371355231
    },
    {
      "frame_id": 316,
      "sensor_timestamp": 83371388478155,
      "time_usec": 83371388478
    },
    {
      "frame_id": 317,
      "sensor_timestamp": 83371421724737,
      "time_usec": 83371421724
    },
    {
      "frame_id": 318,
      "sensor_timestamp": 83371454971075,
      "time_usec": 83371454971
    },
    {
      "frame_id": 319,
      "sensor_timestamp": 83371488217413,
      "time_usec": 83371488217
    },
    {
      "frame_id": 320,
      "sensor_timestamp": 83371521463751,
      "time_usec": 83371521463
    },
    {
      "frame_id": 321,
      "sensor_timestamp": 83371554710333,
      "time_usec": 83371554710
    },
    {
      "frame_id": 322,
      "sensor_timestamp": 83371587956671,
      "time_usec": 83371587956
    },
    {
      "frame_id": 323,
      "sensor_timestamp": 83371621203009,
      "time_usec": 83371621203
    },
    {
      "frame_id": 324,
      "sensor_timestamp": 83371654449347,
      "time_usec": 83371654449
    },
    {
      "frame_id": 325,
      "sensor_timestamp": 83371687695685,
      "time_usec": 83371687695
    },
    {
      "frame_id": 326,
      "sensor_timestamp": 83371720942267,
      "time_usec": 83371720942
    },
    {
      "frame_id": 327,
      "sensor_timestamp": 83371754188605,
      "time_usec": 83371754188
    },
    {
      "frame_id": 328,
      "sensor_timestamp": 83371787434943,
      "time_usec": 83371787434
    },
    {
      "frame_id": 329,
      "sensor_timestamp": 83371820681280,
      "time_usec": 83371820681
    },
    {
      "frame_id": 330,
      "sensor_timestamp": 83371853927862,
      "time_usec": 83371853927
    },
    {
      "frame_id": 331,
      "sensor_timestamp": 83371887174200,
      "time_usec": 83371887174
    },
    {
      "frame_id": 332,
      "sensor_timestamp": 83371920420538,
      "time_usec": 83371920420
    },
    {
      "frame_id": 333,
      "sensor_timestamp": 83371953666876,
      "time_usec": 83371953666
    },
    {
      "frame_id": 334,
      "sensor_timestamp": 83371986913458,
      "time_usec": 83371986913
    },
    {
      "frame_id": 335,
      "sensor_timestamp": 83372020159796,
      "time_usec": 83372020159
    },
    {
      "frame_id": 336,
      "sensor_timestamp": 83372053406134,
      "time_usec": 83372053406
    },
    {
      "frame_id": 337,
      "sensor_timestamp": 83372086652472,
      "time_usec": 83372086652
    },
    {
      "frame_id": 338,
      "sensor_timestamp": 83372119899054,
      "time_usec": 83372119899
    },
    {
      "frame_id": 339,
      "sensor_timestamp": 83372153145392,
      "time_usec": 83372153145
    },
    {
      "frame_id": 340,
      "sensor_timestamp": 83372186391730,
      "time_usec": 83372186391
    },
    {
      "frame_id": 341,
      "sensor_timestamp": 83372219638068,
      "time_usec": 83372219638
    },
    {
      "frame_id": 342,
      "sensor_timestamp": 83372252884650,
      "time_usec": 83372252884
    },
    {
      "frame_id": 343,
      "sensor_timestamp": 83372286130987,
      "time_usec": 83372286130
    },
    {
      "frame_id": 344,
      "sensor_timestamp": 83372319377325,
      "time_usec": 83372319377
    },
    {
      "frame_id": 345,
      "sensor_timestamp": 83372352623663,
      "time_usec": 83372352623
    },
    {
      "frame_id": 346,
      "sensor_timestamp": 83372385870245,
      "time_usec": 83372385870
    },
    {
      "frame_id": 347,
      "sensor_timestamp": 83372419116583,
      "time_usec": 83372419116
    },
    {
      "frame_id": 348,
      "sensor_timestamp": 83372452362921,
      "time_usec": 83372452362
    },
    {
      "frame_id": 349,
      "sensor_timestamp": 83372485609259,
      "time_usec": 83372485609
    },
    {
      "frame_id": 350,
      "sensor_timestamp": 83372518855841,
      "time_usec": 83372518855
    },
    {
      "frame_id": 351,
      "sensor_timestamp": 83372552102179,
      "time_usec": 83372552102
    },
    {
      "frame_id": 352,
      "sensor_timestamp": 83372585348517,
      "time_usec": 83372585348
    },
    {
      "frame_id": 353,
      "sensor_timestamp": 83372618594855,
      "time_usec": 83372618594
    },
    {
      "frame_id": 354,
      "sensor_timestamp": 83372651841437,
      "time_usec": 83372651841
    },
    {
      "frame_id": 355,
      "sensor_timestamp": 83372685087775,
      "time_usec": 83372685087
    },
    {
      "frame_id": 356,
      "sensor_timestamp": 83372718334112,
      "time_usec": 83372718334
    },
    {
      "frame_id": 357,
      "sensor_timestamp": 83372751580450,
      "time_usec": 83372751580
    },
    {
      "frame_id": 358,
      "sensor_timestamp": 83372784826788,
      "time_usec": 83372784826
    },
    {
      "frame_id": 359,
      "sensor_timestamp": 83372818073370,
      "time_usec": 83372818073
    },
    {
      "frame_id": 360,
      "sensor_timestamp": 83372851319708,
      "time_usec": 83372851319
    },
    {
      "frame_id": 361,
      "sensor_timestamp": 83372884566046,
      "time_usec": 83372884566
    },
    {
      "frame_id": 362,
      "sensor_timestamp": 83372917812384,
      "time_usec": 83372917812
    },
    {
      "frame_id": 363,
      "sensor_timestamp": 83372951058966,
      "time_usec": 83372951058
    },
    {
      "frame_id": 364,
      "sensor_timestamp": 83372984305304,
      "time_usec": 83372984305
    },
    {
      "frame_id": 365,
      "sensor_timestamp": 83373017551642,
      "time_usec": 83373017551
    },
    {
      "frame_id": 366,
      "sensor_timestamp": 83373050797980,
      "time_usec": 83373050797
    },
    {
      "frame_id": 367,
      "sensor_timestamp": 83373084044562,
      "time_usec": 83373084044
    },
    {
      "frame_id": 368,
      "sensor_timestamp": 83373117290900,
      "time_usec": 83373117290
    },
    {
      "frame_id": 369,
      "sensor_timestamp": 83373150537237,
      "time_usec": 83373150537
    },
    {
      "frame_id": 370,
      "sensor_timestamp": 83373183783575,
      "time_usec": 83373183783
    },
    {
      "frame_id": 371,
      "sensor_timestamp": 83373217030157,
      "time_usec": 83373217030
    },
    {
      "frame_id": 372,
      "sensor_timestamp": 83373250276495,
      "time_usec": 83373250276
    },
    {
      "frame_id": 373,
      "sensor_timestamp": 83373283522833,
      "time_usec": 83373283522
    },
    {
      "frame_id": 374,
      "sensor_timestamp": 83373316769171,
      "time_usec": 83373316769
    },
    {
      "frame_id": 375,
      "sensor_timestamp": 83373350015753,
      "time_usec": 83373350015
    },
    {
      "frame_id": 376,
      "sensor_timestamp": 83373383262091,
      "time_usec": 83373383262
    },
    {
      "frame_id": 377,
      "sensor_timestamp": 83373416508429,
      "time_usec": 83373416508
    },
    {
      "frame_id": 378,
      "sensor_timestamp": 83373449754767,
      "time_usec": 83373449754
    },
    {
      "frame_id": 379,
      "sensor_timestamp": 83373483001349,
      "time_usec": 83373483001
    },
    {
      "frame_id": 380,
      "sensor_timestamp": 83373516247687,
      "time_usec": 83373516247
    },
    {
      "frame_id": 381,
      "sensor_timestamp": 83373549494025,
      "time_usec": 83373549494
    },
    {
      "frame_id": 382,
      "sensor_timestamp": 83373582740362,
      "time_usec": 83373582740
    },
    {
      "frame_id": 383,
      "sensor_timestamp": 83373615986944,
      "time_usec": 83373615986
    },
    {
      "frame_id": 384,
      "sensor_timestamp": 83373649233282,
      "time_usec": 83373649233
    },
    {
      "frame_id": 385,
      "sensor_timestamp": 83373682479620,
      "time_usec": 83373682479
    },
    {
      "frame_id": 386,
      "sensor_timestamp": 83373715725958,
      "time_usec": 83373715725
    },
    {
      "frame_id": 387,
      "sensor_timestamp": 83373748972540,
      "time_usec": 83373748972
    },
    {
      "frame_id": 388,
      "sensor_timestamp": 83373782218878,
      "time_usec": 83373782218
    },
    {
      "frame_id": 389,
      "sensor_timestamp": 83373815465216,
      "time_usec": 83373815465
    },
    {
      "frame_id": 390,
      "sensor_timestamp": 83373848711554,
      "time_usec": 83373848711
    },
    {
      "frame_id": 391,
      "sensor_timestamp": 83373881958136,
      "time_usec": 83373881958
    },
    {
      "frame_id": 392,
      "sensor_timestamp": 83373915204474,
      "time_usec": 83373915204
    },
    {
      "frame_id": 393,
      "sensor_timestamp": 83373948450812,
      "time_usec": 83373948450
    },
    {
      "frame_id": 394,
      "sensor_timestamp": 83373981697150,
      "time_usec": 83373981697
    },
    {
      "frame_id": 395,
      "sensor_timestamp": 83374014943487,
      "time_usec": 83374014943
    },
    {
      "frame_id": 396,
      "sensor_timestamp": 83374048190069,
      "time_usec": 83374048190
    },
    {
      "frame_id": 397,
      "sensor_timestamp": 83374081436407,
      "time_usec": 83374081436
    },
    {
      "frame_id": 398,
      "sensor_timestamp": 83374114809903,
      "time_usec": 83374114809
    },
    {
      "frame_id": 399,
      "sensor_timestamp": 83374147929083,
      "time_usec": 83374147929
    },
    {
      "frame_id": 400,
      "sensor_timestamp": 83374181175665,
      "time_usec": 83374181175
    },
    {
      "frame_id": 401,
      "sensor_timestamp": 83374214422003,
      "time_usec": 83374214422
    },
    {
      "frame_id": 402,
      "sensor_timestamp": 83374247668341,
      "time_usec": 83374247668
    },
    {
      "frame_id": 403,
      "sensor_timestamp": 83374280914679,
      "time_usec": 83374280914
    },
    {
      "frame_id": 404,
      "sensor_timestamp": 83374314161261,
      "time_usec": 83374314161
    },
    {
      "frame_id": 405,
      "sensor_timestamp": 83374347407599,
      "time_usec": 83374347407
    },
    {
      "frame_id": 406,
      "sensor_timestamp": 83374380653937,
      "time_usec": 83374380653
    },
    {
      "frame_id": 407,
      "sensor_timestamp": 83374413900275,
      "time_usec": 83374413900
    },
    {
      "frame_id": 408,
      "sensor_timestamp": 83374447146857,
      "time_usec": 83374447146
    },
    {
      "frame_id": 409,
      "sensor_timestamp": 83374480393194,
      "time_usec": 83374480393
    },
    {
      "frame_id": 410,
      "sensor_timestamp": 83374513639532,
      "time_usec": 83374513639
    },
    {
      "frame_id": 411,
      "sensor_timestamp": 83374546885870,
      "time_usec": 83374546885
    },
    {
      "frame_id": 412,
      "sensor_timestamp": 83374580132452,
      "time_usec": 83374580132
    },
    {
      "frame_id": 413,
      "sensor_timestamp": 83374613378790,
      "time_usec": 83374613378
    },
    {
      "frame_id": 414,
      "sensor_timestamp": 83374646625128,
      "time_usec": 83374646625
    },
    {
      "frame_id": 415,
      "sensor_timestamp": 83374679871466,
      "time_usec": 83374679871
    },
    {
      "frame_id": 416,
      "sensor_timestamp": 83374713118048,
      "time_usec": 83374713118
    },
    {
      "frame_id": 417,
      "sensor_timestamp": 83374746364386,
      "time_usec": 83374746364
    },
    {
      "frame_id": 418,
      "sensor_timestamp": 83374779610724,
      "time_usec": 83374779610
    },
    {
      "frame_id": 419,
      "sensor_timestamp": 83374812857062,
      "time_usec": 83374812857
    },
    {
      "frame_id": 420,
      "sensor_timestamp": 83374846136034,
      "time_usec": 83374846136
    },
    {
      "frame_id": 421,
      "sensor_timestamp": 83374879349982,
      "time_usec": 83374879349
    },
    {
      "frame_id": 422,
      "sensor_timestamp": 83374912596319,
      "time_usec": 83374912596
    },
    {
      "frame_id": 423,
      "sensor_timestamp": 83374945842657,
      "time_usec": 83374945842
    },
    {
      "frame_id": 424,
      "sensor_timestamp": 83374979089239,
      "time_usec": 83374979089
    },
    {
      "frame_id": 425,
      "sensor_timestamp": 83375012335577,
      "time_usec": 83375012335
    },
    {
      "frame_id": 426,
      "sensor_timestamp": 83375045581915,
      "time_usec": 83375045581
    },
    {
      "frame_id": 427,
      "sensor_timestamp": 83375078828253,
      "time_usec": 83375078828
    },
    {
      "frame_id": 428,
      "sensor_timestamp": 83375112074835,
      "time_usec": 83375112074
    },
    {
      "frame_id": 429,
      "sensor_timestamp": 83375145321173,
      "time_usec": 83375145321
    },
    {
      "frame_id": 430,
      "sensor_timestamp": 83375178567511,
      "time_usec": 83375178567
    },
    {
      "frame_id": 431,
      "sensor_timestamp": 83375211813849,
      "time_usec": 83375211813
    },
    {
      "frame_id": 432,
      "sensor_timestamp": 83375245060187,
      "time_usec": 83375245060
    },
    {
      "frame_id": 433,
      "sensor_timestamp": 83375278306769,
      "time_usec": 83375278306
    },
    {
      "frame_id": 434,
      "sensor_timestamp": 83375311553107,
      "time_usec": 83375311553
    },
    {
      "frame_id": 435,
      "sensor_timestamp": 83375344799444,
      "time_usec": 83375344799
    },
    {
      "frame_id": 436,
      "sensor_timestamp": 83375378045782,
      "time_usec": 83375378045
    },
    {
      "frame_id": 437,
      "sensor_timestamp": 83375411292364,
      "time_usec": 83375411292
    },
    {
      "frame_id": 438,
      "sensor_timestamp": 83375444538702,
      "time_usec": 83375444538
    },
    {
      "frame_id": 439,
      "sensor_timestamp": 83375477785040,
      "time_usec": 83375477785
    },
    {
      "frame_id": 440,
      "sensor_timestamp": 83375511031378,
      "time_usec": 83375511031
    },
    {
      "frame_id": 441,
      "sensor_timestamp": 83375544277960,
      "time_usec": 83375544277
    },
    {
      "frame_id": 442,
      "sensor_timestamp": 83375577524298,
      "time_usec": 83375577524
    },
    {
      "frame_id": 443,
      "sensor_timestamp": 83375610770636,
      "time_usec": 83375610770
    },
    {
      "frame_id": 444,
      "sensor_timestamp": 83375644016974,
      "time_usec": 83375644016
    },
    {
      "frame_id": 445,
      "sensor_timestamp": 83375677263556,
      "time_usec": 83375677263
    },
    {
      "frame_id": 446,
      "sensor_timestamp": 83375710509894,
      "time_usec": 83375710509
    },
    {
      "frame_id": 447,
      "sensor_timestamp": 83375743756232,
      "time_usec": 83375743756
    },
    {
      "frame_id": 448,
      "sensor_timestamp": 83375777002569,
      "time_usec": 83375777002
    },
    {
      "frame_id": 449,
      "sensor_timestamp": 83375810249152,
      "time_usec": 83375810249
    },
    {
      "frame_id": 450,
      "sensor_timestamp": 83375843495489,
      "time_usec": 83375843495
    },
    {
      "frame_id": 451,
      "sensor_timestamp": 83375876741827,
      "time_usec": 83375876741
    },
    {
      "frame_id": 452,
      "sensor_timestamp": 83375909988165,
      "time_usec": 83375909988
    },
    {
      "frame_id": 453,
      "sensor_timestamp": 83375943234747,
      "time_usec": 83375943234
    },
    {
      "frame_id": 454,
      "sensor_timestamp": 83375976481085,
      "time_usec": 83375976481
    },
    {
      "frame_id": 455,
      "sensor_timestamp": 83376009727423,
      "time_usec": 83376009727
    },
    {
      "frame_id": 456,
      "sensor_timestamp": 83376042973761,
      "time_usec": 83376042973
    },
    {
      "frame_id": 457,
      "sensor_timestamp": 83376076220343,
      "time_usec": 83376076220
    },
    {
      "frame_id": 458,
      "sensor_timestamp": 83376109466681,
      "time_usec": 83376109466
    },
    {
      "frame_id": 459,
      "sensor_timestamp": 83376142713019,
      "time_usec": 83376142713
    },
    {
      "frame_id": 460,
      "sensor_timestamp": 83376175959357,
      "time_usec": 83376175959
    },
    {
      "frame_id": 461,
      "sensor_timestamp": 83376209205939,
      "time_usec": 83376209205
    },
    {
      "frame_id": 462,
      "sensor_timestamp": 83376242452277,
      "time_usec": 83376242452
    },
    {
      "frame_id": 463,
      "sensor_timestamp": 83376275698614,
      "time_usec": 83376275698
    },
    {
      "frame_id": 464,
      "sensor_timestamp": 83376308944952,
      "time_usec": 83376308944
    },
    {
      "frame_id": 465,
      "sensor_timestamp": 83376342191534,
      "time_usec": 83376342191
    },
    {
      "frame_id": 466,
      "sensor_timestamp": 83376375437872,
      "time_usec": 83376375437
    },
    {
      "frame_id": 467,
      "sensor_timestamp": 83376408684210,
      "time_usec": 83376408684
    },
    {
      "frame_id": 468,
      "sensor_timestamp": 83376441930548,
      "time_usec": 83376441930
    },
    {
      "frame_id": 469,
      "sensor_timestamp": 83376475176886,
      "time_usec": 83376475176
    },
    {
      "frame_id": 470,
      "sensor_timestamp": 83376508423468,
      "time_usec": 83376508423
    },
    {
      "frame_id": 471,
      "sensor_timestamp": 83376541669806,
      "time_usec": 83376541669
    },
    {
      "frame_id": 472,
      "sensor_timestamp": 83376574916144,
      "time_usec": 83376574916
    },
    {
      "frame_id": 473,
      "sensor_timestamp": 83376608162482,
      "time_usec": 83376608162
    },
    {
      "frame_id": 474,
      "sensor_timestamp": 83376641409064,
      "time_usec": 83376641409
    },
    {
      "frame_id": 475,
      "sensor_timestamp": 83376674655402,
      "time_usec": 83376674655
    },
    {
      "frame_id": 476,
      "sensor_timestamp": 83376707901739,
      "time_usec": 83376707901
    },
    {
      "frame_id": 477,
      "sensor_timestamp": 83376741148077,
      "time_usec": 83376741148
    },
    {
      "frame_id": 478,
      "sensor_timestamp": 83376774394659,
      "time_usec": 83376774394
    },
    {
      "frame_id": 479,
      "sensor_timestamp": 83376807640997,
      "time_usec": 83376807640
    },
    {
      "frame_id": 480,
      "sensor_timestamp": 83376840887335,
      "time_usec": 83376840887
    },
    {
      "frame_id": 481,
      "sensor_timestamp": 83376874133673,
      "time_usec": 83376874133
    },
    {
      "frame_id": 482,
      "sensor_timestamp": 83376907380255,
      "time_usec": 83376907380
    },
    {
      "frame_id": 483,
      "sensor_timestamp": 83376940626593,
      "time_usec": 83376940626
    },
    {
      "frame_id": 484,
      "sensor_timestamp": 83376973872931,
      "time_usec": 83376973872
    },
    {
      "frame_id": 485,
      "sensor_timestamp": 83377007119269,
      "time_usec": 83377007119
    },
    {
      "frame_id": 486,
      "sensor_timestamp": 83377040365851,
      "time_usec": 83377040365
    },
    {
      "frame_id": 487,
      "sensor_timestamp": 83377073612189,
      "time_usec": 83377073612
    },
    {
      "frame_id": 488,
      "sensor_timestamp": 83377106858527,
      "time_usec": 83377106858
    },
    {
      "frame_id": 489,
      "sensor_timestamp": 83377140104864,
      "time_usec": 83377140104
    },
    {
      "frame_id": 490,
      "sensor_timestamp": 83377173351446,
      "time_usec": 83377173351
    },
    {
      "frame_id": 491,
      "sensor_timestamp": 83377206597784,
      "time_usec": 83377206597
    },
    {
      "frame_id": 492,
      "sensor_timestamp": 83377239844122,
      "time_usec": 83377239844
    },
    {
      "frame_id": 493,
      "sensor_timestamp": 83377273090460,
      "time_usec": 83377273090
    },
    {
      "frame_id": 494,
      "sensor_timestamp": 83377306337042,
      "time_usec": 83377306337
    },
    {
      "frame_id": 495,
      "sensor_timestamp": 83377339583380,
      "time_usec": 83377339583
    },
    {
      "frame_id": 496,
      "sensor_timestamp": 83377372829718,
      "time_usec": 83377372829
    },
    {
      "frame_id": 497,
      "sensor_timestamp": 83377406076056,
      "time_usec": 83377406076
    },
    {
      "frame_id": 498,
      "sensor_timestamp": 83377439322638,
      "time_usec": 83377439322
    },
    {
      "frame_id": 499,
      "sensor_timestamp": 83377475349607,
      "time_usec": 83377475349
    },
    {
      "frame_id": 500,
      "sensor_timestamp": 83377508595945,
      "time_usec": 83377508595
    },
    {
      "frame_id": 501,
      "sensor_timestamp": 83377541842283,
      "time_usec": 83377541842
    },
    {
      "frame_id": 502,
      "sensor_timestamp": 83377575088865,
      "time_usec": 83377575088
    },
    {
      "frame_id": 503,
      "sensor_timestamp": 83377608335202,
      "time_usec": 83377608335
    },
    {
      "frame_id": 504,
      "sensor_timestamp": 83377641581540,
      "time_usec": 83377641581
    },
    {
      "frame_id": 505,
      "sensor_timestamp": 83377674827878,
      "time_usec": 83377674827
    },
    {
      "frame_id": 506,
      "sensor_timestamp": 83377708074216,
      "time_usec": 83377708074
    },
    {
      "frame_id": 507,
      "sensor_timestamp": 83377741320798,
      "time_usec": 83377741320
    },
    {
      "frame_id": 508,
      "sensor_timestamp": 83377774567136,
      "time_usec": 83377774567
    },
    {
      "frame_id": 509,
      "sensor_timestamp": 83377807813474,
      "time_usec": 83377807813
    },
    {
      "frame_id": 510,
      "sensor_timestamp": 83377841059812,
      "time_usec": 83377841059
    },
    {
      "frame_id": 511,
      "sensor_timestamp": 83377874306394,
      "time_usec": 83377874306
    },
    {
      "frame_id": 512,
      "sensor_timestamp": 83377907552732,
      "time_usec": 83377907552
    },
    {
      "frame_id": 513,
      "sensor_timestamp": 83377940799070,
      "time_usec": 83377940799
    },
    {
      "frame_id": 514,
      "sensor_timestamp": 83377974045408,
      "time_usec": 83377974045
    },
    {
      "frame_id": 515,
      "sensor_timestamp": 83378007291990,
      "time_usec": 83378007291
    },
    {
      "frame_id": 516,
      "sensor_timestamp": 83378040538327,
      "time_usec": 83378040538
    },
    {
      "frame_id": 517,
      "sensor_timestamp": 83378073784665,
      "time_usec": 83378073784
    },
    {
      "frame_id": 518,
      "sensor_timestamp": 83378107031003,
      "time_usec": 83378107031
    },
    {
      "frame_id": 519,
      "sensor_timestamp": 83378140277585,
      "time_usec": 83378140277
    },
    {
      "frame_id": 520,
      "sensor_timestamp": 83378173523923,
      "time_usec": 83378173523
    },
    {
      "frame_id": 521,
      "sensor_timestamp": 83378206770261,
      "time_usec": 83378206770
    },
    {
      "frame_id": 522,
      "sensor_timestamp": 83378240016599,
      "time_usec": 83378240016
    },
    {
      "frame_id": 523,
      "sensor_timestamp": 83378273263181,
      "time_usec": 83378273263
    },
    {
      "frame_id": 524,
      "sensor_timestamp": 83378306509519,
      "time_usec": 83378306509
    },
    {
      "frame_id": 525,
      "sensor_timestamp": 83378339755857,
      "time_usec": 83378339755
    },
    {
      "frame_id": 526,
      "sensor_timestamp": 83378373002195,
      "time_usec": 83378373002
    },
    {
      "frame_id": 527,
      "sensor_timestamp": 83378406248777,
      "time_usec": 83378406248
    },
    {
      "frame_id": 528,
      "sensor_timestamp": 83378439495115,
      "time_usec": 83378439495
    },
    {
      "frame_id": 529,
      "sensor_timestamp": 83378472741452,
      "time_usec": 83378472741
    },
    {
      "frame_id": 530,
      "sensor_timestamp": 83378505987790,
      "time_usec": 83378505987
    },
    {
      "frame_id": 531,
      "sensor_timestamp": 83378539234372,
      "time_usec": 83378539234
    },
    {
      "frame_id": 532,
      "sensor_timestamp": 83378572480710,
      "time_usec": 83378572480
    },
    {
      "frame_id": 533,
      "sensor_timestamp": 83378605727048,
      "time_usec": 83378605727
    },
    {
      "frame_id": 534,
      "sensor_timestamp": 83378638973386,
      "time_usec": 83378638973
    },
    {
      "frame_id": 535,
      "sensor_timestamp": 83378672219968,
      "time_usec": 83378672219
    },
    {
      "frame_id": 536,
      "sensor_timestamp": 83378705466306,
      "time_usec": 83378705466
    },
    {
      "frame_id": 537,
      "sensor_timestamp": 83378738712644,
      "time_usec": 83378738712
    },
    {
      "frame_id": 538,
      "sensor_timestamp": 83378771958982,
      "time_usec": 83378771958
    },
    {
      "frame_id": 539,
      "sensor_timestamp": 83378805205564,
      "time_usec": 83378805205
    },
    {
      "frame_id": 540,
      "sensor_timestamp": 83378838451902,
      "time_usec": 83378838451
    },
    {
      "frame_id": 541,
      "sensor_timestamp": 83378871698240,
      "time_usec": 83378871698
    },
    {
      "frame_id": 542,
      "sensor_timestamp": 83378904944577,
      "time_usec": 83378904944
    },
    {
      "frame_id": 543,
      "sensor_timestamp": 83378938190915,
      "time_usec": 83378938190
    },
    {
      "frame_id": 544,
      "sensor_timestamp": 83378971437497,
      "time_usec": 83378971437
    },
    {
      "frame_id": 545,
      "sensor_timestamp": 83379004683835,
      "time_usec": 83379004683
    },
    {
      "frame_id": 546,
      "sensor_timestamp": 83379037930173,
      "time_usec": 83379037930
    },
    {
      "frame_id": 547,
      "sensor_timestamp": 83379071176511,
      "time_usec": 83379071176
    },
    {
      "frame_id": 548,
      "sensor_timestamp": 83379104423093,
      "time_usec": 83379104423
    },
    {
      "frame_id": 549,
      "sensor_timestamp": 83379137669431,
      "time_usec": 83379137669
    },
    {
      "frame_id": 550,
      "sensor_timestamp": 83379170915769,
      "time_usec": 83379170915
    },
    {
      "frame_id": 551,
