{
  "frames": [
    {
      "frame_id": 0,
      "sensor_timestamp": 54303366146398,
      "time_usec": 54303366146
    },
    {
      "frame_id": 1,
      "sensor_timestamp": 54303432639073,
      "time_usec": 54303432639
    },
    {
      "frame_id": 2,
      "sensor_timestamp": 54303465885655,
      "time_usec": 54303465885
    },
    {
      "frame_id": 3,
      "sensor_timestamp": 54303499131993,
      "time_usec": 54303499131
    },
    {
      "frame_id": 4,
      "sensor_timestamp": 54303532378331,
      "time_usec": 54303532378
    },
    {
      "frame_id": 5,
      "sensor_timestamp": 54303565624669,
      "time_usec": 54303565624
    },
    {
      "frame_id": 6,
      "sensor_timestamp": 54303598871251,
      "time_usec": 54303598871
    },
    {
      "frame_id": 7,
      "sensor_timestamp": 54303632117589,
      "time_usec": 54303632117
    },
    {
      "frame_id": 8,
      "sensor_timestamp": 54303665363927,
      "time_usec": 54303665363
    },
    {
      "frame_id": 9,
      "sensor_timestamp": 54303698610265,
      "time_usec": 54303698610
    },
    {
      "frame_id": 10,
      "sensor_timestamp": 54303731856847,
      "time_usec": 54303731856
    },
    {
      "frame_id": 11,
      "sensor_timestamp": 54303765103185,
      "time_usec": 54303765103
    },
    {
      "frame_id": 12,
      "sensor_timestamp": 54303798349523,
      "time_usec": 54303798349
    },
    {
      "frame_id": 13,
      "sensor_timestamp": 54303831595861,
      "time_usec": 54303831595
    },
    {
      "frame_id": 14,
      "sensor_timestamp": 54303864842443,
      "time_usec": 54303864842
    },
    {
      "frame_id": 15,
      "sensor_timestamp": 54303898088780,
      "time_usec": 54303898088
    },
    {
      "frame_id": 16,
      "sensor_timestamp": 54303931335118,
      "time_usec": 54303931335
    },
    {
      "frame_id": 17,
      "sensor_timestamp": 54303964581456,
      "time_usec": 54303964581
    },
    {
      "frame_id": 18,
      "sensor_timestamp": 54303997828038,
      "time_usec": 54303997828
    },
    {
      "frame_id": 19,
      "sensor_timestamp": 54304031074376,
      "time_usec": 54304031074
    },
    {
      "frame_id": 20,
      "sensor_timestamp": 54304064320714,
      "time_usec": 54304064320
    },
    {
      "frame_id": 21,
      "sensor_timestamp": 54304097567052,
      "time_usec": 54304097567
    },
    {
      "frame_id": 22,
      "sensor_timestamp": 54304130813634,
      "time_usec": 54304130813
    },
    {
      "frame_id": 23,
      "sensor_timestamp": 54304164059972,
      "time_usec": 54304164059
    },
    {
      "frame_id": 24,
      "sensor_timestamp": 54304197306310,
      "time_usec": 54304197306
    },
    {
      "frame_id": 25,
      "sensor_timestamp": 54304230552648,
      "time_usec": 54304230552
    },
    {
      "frame_id": 26,
      "sensor_timestamp": 54304263799230,
      "time_usec": 54304263799
    },
    {
      "frame_id": 27,
      "sensor_timestamp": 54304297045568,
      "time_usec": 54304297045
    },
    {
      "frame_id": 28,
      "sensor_timestamp": 54304330291905,
      "time_usec": 54304330291
    },
    {
      "frame_id": 29,
      "sensor_timestamp": 54304363538243,
      "time_usec": 54304363538
    },
    {
      "frame_id": 30,
      "sensor_timestamp": 54304396784581,
      "time_usec": 54304396784
    },
    {
      "frame_id": 31,
      "sensor_timestamp": 54304430031163,
      "time_usec": 54304430031
    },
    {
      "frame_id": 32,
      "sensor_timestamp": 54304463277501,
      "time_usec": 54304463277
    },
    {
      "frame_id": 33,
      "sensor_timestamp": 54304496523839,
      "time_usec": 54304496523
    },
    {
      "frame_id": 34,
      "sensor_timestamp": 54304529770177,
      "time_usec": 54304529770
    },
    {
      "frame_id": 35,
      "sensor_timestamp": 54304563016759,
      "time_usec": 54304563016
    },
    {
      "frame_id": 36,
      "sensor_timestamp": 54304596263097,
      "time_usec": 54304596263
    },
    {
      "frame_id": 37,
      "sensor_timestamp": 54304629509435,
      "time_usec": 54304629509
    },
    {
      "frame_id": 38,
      "sensor_timestamp": 54304662755773,
      "time_usec": 54304662755
    },
    {
      "frame_id": 39,
      "sensor_timestamp": 54304696002355,
      "time_usec": 54304696002
    },
    {
      "frame_id": 40,
      "sensor_timestamp": 54304729248693,
      "time_usec": 54304729248
    },
    {
      "frame_id": 41,
      "sensor_timestamp": 54304762495030,
      "time_usec": 54304762495
    },
    {
      "frame_id": 42,
      "sensor_timestamp": 54304795741368,
      "time_usec": 54304795741
    },
    {
      "frame_id": 43,
      "sensor_timestamp": 54304828987950,
      "time_usec": 54304828987
    },
    {
      "frame_id": 44,
      "sensor_timestamp": 54304862234288,
      "time_usec": 54304862234
    },
    {
      "frame_id": 45,
      "sensor_timestamp": 54304895480626,
      "time_usec": 54304895480
    },
    {
      "frame_id": 46,
      "sensor_timestamp": 54304928726964,
      "time_usec": 54304928726
    },
    {
      "frame_id": 47,
      "sensor_timestamp": 54304961973546,
      "time_usec": 54304961973
    },
    {
      "frame_id": 48,
      "sensor_timestamp": 54304995219884,
      "time_usec": 54304995219
    },
    {
      "frame_id": 49,
      "sensor_timestamp": 54305028466222,
      "time_usec": 54305028466
    },
    {
      "frame_id": 50,
      "sensor_timestamp": 54305061712560,
      "time_usec": 54305061712
    },
    {
      "frame_id": 51,
      "sensor_timestamp": 54305094959142,
      "time_usec": 54305094959
    },
    {
      "frame_id": 52,
      "sensor_timestamp": 54305128205480,
      "time_usec": 54305128205
    },
    {
      "frame_id": 53,
      "sensor_timestamp": 54305161451818,
      "time_usec": 54305161451
    },
    {
      "frame_id": 54,
      "sensor_timestamp": 54305194698155,
      "time_usec": 54305194698
    },
    {
      "frame_id": 55,
      "sensor_timestamp": 54305227944737,
      "time_usec": 54305227944
    },
    {
      "frame_id": 56,
      "sensor_timestamp": 54305261191075,
      "time_usec": 54305261191
    },
    {
      "frame_id": 57,
      "sensor_timestamp": 54305294437413,
      "time_usec": 54305294437
    },
    {
      "frame_id": 58,
      "sensor_timestamp": 54305327683751,
      "time_usec": 54305327683
    },
    {
      "frame_id": 59,
      "sensor_timestamp": 54305360930333,
      "time_usec": 54305360930
    },
    {
      "frame_id": 60,
      "sensor_timestamp": 54305394176671,
      "time_usec": 54305394176
    },
    {
      "frame_id": 61,
      "sensor_timestamp": 54305427423009,
      "time_usec": 54305427423
    },
    {
      "frame_id": 62,
      "sensor_timestamp": 54305460669347,
      "time_usec": 54305460669
    },
    {
      "frame_id": 63,
      "sensor_timestamp": 54305493915929,
      "time_usec": 54305493915
    },
    {
      "frame_id": 64,
      "sensor_timestamp": 54305527162267,
      "time_usec": 54305527162
    },
    {
      "frame_id": 65,
      "sensor_timestamp": 54305560408605,
      "time_usec": 54305560408
    },
    {
      "frame_id": 66,
      "sensor_timestamp": 54305593654943,
      "time_usec": 54305593654
    },
    {
      "frame_id": 67,
      "sensor_timestamp": 54305626901280,
      "time_usec": 54305626901
    },
    {
      "frame_id": 68,
      "sensor_timestamp": 54305660147862,
      "time_usec": 54305660147
    },
    {
      "frame_id": 69,
      "sensor_timestamp": 54305693394200,
      "time_usec": 54305693394
    },
    {
      "frame_id": 70,
      "sensor_timestamp": 54305726640538,
      "time_usec": 54305726640
    },
    {
      "frame_id": 71,
      "sensor_timestamp": 54305759886876,
      "time_usec": 54305759886
    },
    {
      "frame_id": 72,
      "sensor_timestamp": 54305793133458,
      "time_usec": 54305793133
    },
    {
      "frame_id": 73,
      "sensor_timestamp": 54305826379796,
      "time_usec": 54305826379
    },
    {
      "frame_id": 74,
      "sensor_timestamp": 54305859626134,
      "time_usec": 54305859626
    },
    {
      "frame_id": 75,
      "sensor_timestamp": 54305892872472,
      "time_usec": 54305892872
    },
    {
      "frame_id": 76,
      "sensor_timestamp": 54305926119054,
      "time_usec": 54305926119
    },
    {
      "frame_id": 77,
      "sensor_timestamp": 54305959365392,
      "time_usec": 54305959365
    },
    {
      "frame_id": 78,
      "sensor_timestamp": 54305992611730,
      "time_usec": 54305992611
    },
    {
      "frame_id": 79,
      "sensor_timestamp": 54306025858068,
      "time_usec": 54306025858
    },
    {
      "frame_id": 80,
      "sensor_timestamp": 54306059104650,
      "time_usec": 54306059104
    },
    {
      "frame_id": 81,
      "sensor_timestamp": 54306092350987,
      "time_usec": 54306092350
    },
    {
      "frame_id": 82,
      "sensor_timestamp": 54306125597325,
      "time_usec": 54306125597
    },
    {
      "frame_id": 83,
      "sensor_timestamp": 54306158843663,
      "time_usec": 54306158843
    },
    {
      "frame_id": 84,
      "sensor_timestamp": 54306192090245,
      "time_usec": 54306192090
    },
    {
      "frame_id": 85,
      "sensor_timestamp": 54306225336583,
      "time_usec": 54306225336
    },
    {
      "frame_id": 86,
      "sensor_timestamp": 54306258582921,
      "time_usec": 54306258582
    },
    {
      "frame_id": 87,
      "sensor_timestamp": 54306291829259,
      "time_usec": 54306291829
    },
    {
      "frame_id": 88,
      "sensor_timestamp": 54306325075841,
      "time_usec": 54306325075
    },
    {
      "frame_id": 89,
      "sensor_timestamp": 54306358322179,
      "time_usec": 54306358322
    },
    {
      "frame_id": 90,
      "sensor_timestamp": 54306391568517,
      "time_usec": 54306391568
    },
    {
      "frame_id": 91,
      "sensor_timestamp": 54306424814855,
      "time_usec": 54306424814
    },
    {
      "frame_id": 92,
      "sensor_timestamp": 54306458061437,
      "time_usec": 54306458061
    },
    {
      "frame_id": 93,
      "sensor_timestamp": 54306491307775,
      "time_usec": 54306491307
    },
    {
      "frame_id": 94,
      "sensor_timestamp": 54306524554112,
      "time_usec": 54306524554
    },
    {
      "frame_id": 95,
      "sensor_timestamp": 54306557800450,
      "time_usec": 54306557800
    },
    {
      "frame_id": 96,
      "sensor_timestamp": 54306591047032,
      "time_usec": 54306591047
    },
    {
      "frame_id": 97,
      "sensor_timestamp": 54306624293370,
      "time_usec": 54306624293
    },
    {
      "frame_id": 98,
      "sensor_timestamp": 54306657539708,
      "time_usec": 54306657539
    },
    {
      "frame_id": 99,
      "sensor_timestamp": 54306690786046,
      "time_usec": 54306690786
    },
    {
      "frame_id": 100,
      "sensor_timestamp": 54306724032384,
      "time_usec": 54306724032
    },
    {
      "frame_id": 101,
      "sensor_timestamp": 54306757278966,
      "time_usec": 54306757278
    },
    {
      "frame_id": 102,
      "sensor_timestamp": 54306790525304,
      "time_usec": 54306790525
    },
    {
      "frame_id": 103,
      "sensor_timestamp": 54306823771642,
      "time_usec": 54306823771
    },
    {
      "frame_id": 104,
      "sensor_timestamp": 54306857017980,
      "time_usec": 54306857017
    },
    {
      "frame_id": 105,
      "sensor_timestamp": 54306890264562,
      "time_usec": 54306890264
    },
    {
      "frame_id": 106,
      "sensor_timestamp": 54306923510900,
      "time_usec": 54306923510
    },
    {
      "frame_id": 107,
      "sensor_timestamp": 54306956757237,
      "time_usec": 54306956757
    },
    {
      "frame_id": 108,
      "sensor_timestamp": 54306990003575,
      "time_usec": 54306990003
    },
    {
      "frame_id": 109,
      "sensor_timestamp": 54307023250157,
      "time_usec": 54307023250
    },
    {
      "frame_id": 110,
      "sensor_timestamp": 54307056496495,
      "time_usec": 54307056496
    },
    {
      "frame_id": 111,
      "sensor_timestamp": 54307089742833,
      "time_usec": 54307089742
    },
    {
      "frame_id": 112,
      "sensor_timestamp": 54307122989171,
      "time_usec": 54307122989
    },
    {
      "frame_id": 113,
      "sensor_timestamp": 54307156235753,
      "time_usec": 54307156235
    },
    {
      "frame_id": 114,
      "sensor_timestamp": 54307189482091,
      "time_usec": 54307189482
    },
    {
      "frame_id": 115,
      "sensor_timestamp": 54307225509060,
      "time_usec": 54307225509
    },
    {
      "frame_id": 116,
      "sensor_timestamp": 54307258755398,
      "time_usec": 54307258755
    },
    {
      "frame_id": 117,
      "sensor_timestamp": 54307292001980,
      "time_usec": 54307292001
    },
    {
      "frame_id": 118,
      "sensor_timestamp": 54307325248318,
      "time_usec": 54307325248
    },
    {
      "frame_id": 119,
      "sensor_timestamp": 54307358494656,
      "time_usec": 54307358494
    },
    {
      "frame_id": 120,
      "sensor_timestamp": 54307391740993,
      "time_usec": 54307391740
    },
    {
      "frame_id": 121,
      "sensor_timestamp": 54307424987575,
      "time_usec": 54307424987
    },
    {
      "frame_id": 122,
      "sensor_timestamp": 54307458233913,
      "time_usec": 54307458233
    },
    {
      "frame_id": 123,
      "sensor_timestamp": 54307491480251,
      "time_usec": 54307491480
    },
    {
      "frame_id": 124,
      "sensor_timestamp": 54307524726589,
      "time_usec": 54307524726
    },
    {
      "frame_id": 125,
      "sensor_timestamp": 54307557973171,
      "time_usec": 54307557973
    },
    {
      "frame_id": 126,
      "sensor_timestamp": 54307591219509,
      "time_usec": 54307591219
    },
    {
      "frame_id": 127,
      "sensor_timestamp": 54307624465847,
      "time_usec": 54307624465
    },
    {
      "frame_id": 128,
      "sensor_timestamp": 54307657712185,
      "time_usec": 54307657712
    },
    {
      "frame_id": 129,
      "sensor_timestamp": 54307690958767,
      "time_usec": 54307690958
    },
    {
      "frame_id": 130,
      "sensor_timestamp": 54307724205105,
      "time_usec": 54307724205
    },
    {
      "frame_id": 131,
      "sensor_timestamp": 54307757451443,
      "time_usec": 54307757451
    },
    {
      "frame_id": 132,
      "sensor_timestamp": 54307790697781,
      "time_usec": 54307790697
    },
    {
      "frame_id": 133,
      "sensor_timestamp": 54307823944363,
      "time_usec": 54307823944
    },
    {
      "frame_id": 134,
      "sensor_timestamp": 54307857190700,
      "time_usec": 54307857190
    },
    {
      "frame_id": 135,
      "sensor_timestamp": 54307890437038,
      "time_usec": 54307890437
    },
    {
      "frame_id": 136,
      "sensor_timestamp": 54307923683376,
      "time_usec": 54307923683
    },
    {
      "frame_id": 137,
      "sensor_timestamp": 54307956929714,
      "time_usec": 54307956929
    },
    {
      "frame_id": 138,
      "sensor_timestamp": 54307990176296,
      "time_usec": 54307990176
    },
    {
      "frame_id": 139,
      "sensor_timestamp": 54308023422634,
      "time_usec": 54308023422
    },
    {
      "frame_id": 140,
      "sensor_timestamp": 54308056668972,
      "time_usec": 54308056668
    },
    {
      "frame_id": 141,
      "sensor_timestamp": 54308089915310,
      "time_usec": 54308089915
    },
    {
      "frame_id": 142,
      "sensor_timestamp": 54308123161892,
      "time_usec": 54308123161
    },
    {
      "frame_id": 143,
      "sensor_timestamp": 54308156408230,
      "time_usec": 54308156408
    },
    {
      "frame_id": 144,
      "sensor_timestamp": 54308189654568,
      "time_usec": 54308189654
    },
    {
      "frame_id": 145,
      "sensor_timestamp": 54308222900906,
      "time_usec": 54308222900
    },
    {
      "frame_id": 146,
      "sensor_timestamp": 54308256147488,
      "time_usec": 54308256147
    },
    {
      "frame_id": 147,
      "sensor_timestamp": 54308289393825,
      "time_usec": 54308289393
    },
    {
      "frame_id": 148,
      "sensor_timestamp": 54308322640163,
      "time_usec": 54308322640
    },
    {
      "frame_id": 149,
      "sensor_timestamp": 54308355886501,
      "time_usec": 54308355886
    },
    {
      "frame_id": 150,
      "sensor_timestamp": 54308389133083,
      "time_usec": 54308389133
    },
    {
      "frame_id": 151,
      "sensor_timestamp": 54308422379421,
      "time_usec": 54308422379
    },
    {
      "frame_id": 152,
      "sensor_timestamp": 54308455625759,
      "time_usec": 54308455625
    },
    {
      "frame_id": 153,
      "sensor_timestamp": 54308488872097,
      "time_usec": 54308488872
    },
    {
      "frame_id": 154,
      "sensor_timestamp": 54308522118679,
      "time_usec": 54308522118
    },
    {
      "frame_id": 155,
      "sensor_timestamp": 54308555365017,
      "time_usec": 54308555365
    },
    {
      "frame_id": 156,
      "sensor_timestamp": 54308588611355,
      "time_usec": 54308588611
    },
    {
      "frame_id": 157,
      "sensor_timestamp": 54308621857693,
      "time_usec": 54308621857
    },
    {
      "frame_id": 158,
      "sensor_timestamp": 54308655104275,
      "time_usec": 54308655104
    },
    {
      "frame_id": 159,
      "sensor_timestamp": 54308688350613,
      "time_usec": 54308688350
    },
    {
      "frame_id": 160,
      "sensor_timestamp": 54308721596950,
      "time_usec": 54308721596
    },
    {
      "frame_id": 161,
      "sensor_timestamp": 54308754843288,
      "time_usec": 54308754843
    },
    {
      "frame_id": 162,
      "sensor_timestamp": 54308788089870,
      "time_usec": 54308788089
    },
    {
      "frame_id": 163,
      "sensor_timestamp": 54308821336208,
      "time_usec": 54308821336
    },
    {
      "frame_id": 164,
      "sensor_timestamp": 54308854582546,
      "time_usec": 54308854582
    },
    {
      "frame_id": 165,
      "sensor_timestamp": 54308887828884,
      "time_usec": 54308887828
    },
    {
      "frame_id": 166,
      "sensor_timestamp": 54308921075466,
      "time_usec": 54308921075
    },
    {
      "frame_id": 167,
      "sensor_timestamp": 54308954321804,
      "time_usec": 54308954321
    },
    {
      "frame_id": 168,
      "sensor_timestamp": 54308987568142,
      "time_usec": 54308987568
    },
    {
      "frame_id": 169,
      "sensor_timestamp": 54309020814480,
      "time_usec": 54309020814
    },
    {
      "frame_id": 170,
      "sensor_timestamp": 54309054061062,
      "time_usec": 54309054061
    },
    {
      "frame_id": 171,
      "sensor_timestamp": 54309087307400,
      "time_usec": 54309087307
    },
    {
      "frame_id": 172,
      "sensor_timestamp": 54309120553738,
      "time_usec": 54309120553
    },
    {
      "frame_id": 173,
      "sensor_timestamp": 54309153800075,
      "time_usec": 54309153800
    },
    {
      "frame_id": 174,
      "sensor_timestamp": 54309187046413,
      "time_usec": 54309187046
    },
    {
      "frame_id": 175,
      "sensor_timestamp": 54309220292995,
      "time_usec": 54309220292
    },
    {
      "frame_id": 176,
      "sensor_timestamp": 54309253539333,
      "time_usec": 54309253539
    },
    {
      "frame_id": 177,
      "sensor_timestamp": 54309286785671,
      "time_usec": 54309286785
    },
    {
      "frame_id": 178,
      "sensor_timestamp": 54309320032009,
      "time_usec": 54309320032
    },
    {
      "frame_id": 179,
      "sensor_timestamp": 54309353278591,
      "time_usec": 54309353278
    },
    {
      "frame_id": 180,
      "sensor_timestamp": 54309386524929,
      "time_usec": 54309386524
    },
    {
      "frame_id": 181,
      "sensor_timestamp": 54309419771267,
      "time_usec": 54309419771
    },
    {
      "frame_id": 182,
      "sensor_timestamp": 54309453017605,
      "time_usec": 54309453017
    },
    {
      "frame_id": 183,
      "sensor_timestamp": 54309486264187,
      "time_usec": 54309486264
    },
    {
      "frame_id": 184,
      "sensor_timestamp": 54309519510525,
      "time_usec": 54309519510
    },
    {
      "frame_id": 185,
      "sensor_timestamp": 54309552727022,
      "time_usec": 54309552727
    },
    {
      "frame_id": 186,
      "sensor_timestamp": 54309586003200,
      "time_usec": 54309586003
    },
    {
      "frame_id": 187,
      "sensor_timestamp": 54309619249783,
      "time_usec": 54309619249
    },
    {
      "frame_id": 188,
      "sensor_timestamp": 54309652496120,
      "time_usec": 54309652496
    },
    {
      "frame_id": 189,
      "sensor_timestamp": 54309685742458,
      "time_usec": 54309685742
    },
    {
      "frame_id": 190,
      "sensor_timestamp": 54309718988796,
      "time_usec": 54309718988
    },
    {
      "frame_id": 191,
      "sensor_timestamp": 54309749454747,
      "time_usec": 54309749454
    },
    {
      "frame_id": 192,
      "sensor_timestamp": 54309782701085,
      "time_usec": 54309782701
    },
    {
      "frame_id": 193,
      "sensor_timestamp": 54309815947423,
      "time_usec": 54309815947
    },
    {
      "frame_id": 194,
      "sensor_timestamp": 54309849193761,
      "time_usec": 54309849193
    },
    {
      "frame_id": 195,
      "sensor_timestamp": 54309882440343,
      "time_usec": 54309882440
    },
    {
      "frame_id": 196,
      "sensor_timestamp": 54309915686681,
      "time_usec": 54309915686
    },
    {
      "frame_id": 197,
      "sensor_timestamp": 54309948933019,
      "time_usec": 54309948933
    },
    {
      "frame_id": 198,
      "sensor_timestamp": 54309982179357,
      "time_usec": 54309982179
    },
    {
      "frame_id": 199,
      "sensor_timestamp": 54310015425939,
      "time_usec": 54310015425
    },
    {
      "frame_id": 200,
      "sensor_timestamp": 54310048672277,
      "time_usec": 54310048672
    },
    {
      "frame_id": 201,
      "sensor_timestamp": 54310081918614,
      "time_usec": 54310081918
    },
    {
      "frame_id": 202,
      "sensor_timestamp": 54310115164952,
      "time_usec": 54310115164
    },
    {
      "frame_id": 203,
      "sensor_timestamp": 54310148411534,
      "time_usec": 54310148411
    },
    {
      "frame_id": 204,
      "sensor_timestamp": 54310181657872,
      "time_usec": 54310181657
    },
    {
      "frame_id": 205,
      "sensor_timestamp": 54310214904210,
      "time_usec": 54310214904
    },
    {
      "frame_id": 206,
      "sensor_timestamp": 54310248150548,
      "time_usec": 54310248150
    },
    {
      "frame_id": 207,
      "sensor_timestamp": 54310281397130,
      "time_usec": 54310281397
    },
    {
      "frame_id": 208,
      "sensor_timestamp": 54310314643468,
      "time_usec": 54310314643
    },
    {
      "frame_id": 209,
      "sensor_timestamp": 54310347889806,
      "time_usec": 54310347889
    },
    {
      "frame_id": 210,
      "sensor_timestamp": 54310381136144,
      "time_usec": 54310381136
    },
    {
      "frame_id": 211,
      "sensor_timestamp": 54310414382482,
      "time_usec": 54310414382
    },
    {
      "frame_id": 212,
      "sensor_timestamp": 54310447629064,
      "time_usec": 54310447629
    },
    {
      "frame_id": 213,
      "sensor_timestamp": 54310480875402,
      "time_usec": 54310480875
    },
    {
      "frame_id": 214,
      "sensor_timestamp": 54310514121739,
      "time_usec": 54310514121
    },
    {
      "frame_id": 215,
      "sensor_timestamp": 54310547368077,
      "time_usec": 54310547368
    },
    {
      "frame_id": 216,
      "sensor_timestamp": 54310580614659,
      "time_usec": 54310580614
    },
    {
      "frame_id": 217,
      "sensor_timestamp": 54310613860997,
      "time_usec": 54310613860
    },
    {
      "frame_id": 218,
      "sensor_timestamp": 54310647107335,
      "time_usec": 54310647107
    },
    {
      "frame_id": 219,
      "sensor_timestamp": 54310680353673,
      "time_usec": 54310680353
    },
    {
      "frame_id": 220,
      "sensor_timestamp": 54310713600255,
      "time_usec": 54310713600
    },
    {
      "frame_id": 221,
      "sensor_timestamp": 54310746846593,
      "time_usec": 54310746846
    },
    {
      "frame_id": 222,
      "sensor_timestamp": 54310780092931,
      "time_usec": 54310780092
    },
    {
      "frame_id": 223,
      "sensor_timestamp": 54310816119900,
      "time_usec": 54310816119
    },
    {
      "frame_id": 224,
      "sensor_timestamp": 54310849366482,
      "time_usec": 54310849366
    },
    {
      "frame_id": 225,
      "sensor_timestamp": 54310882612820,
      "time_usec": 54310882612
    },
    {
      "frame_id": 226,
      "sensor_timestamp": 54310915859158,
      "time_usec": 54310915859
    },
    {
      "frame_id": 227,
      "sensor_timestamp": 54310949105495,
      "time_usec": 54310949105
    },
    {
      "frame_id": 228,
      "sensor_timestamp": 54310982352077,
      "time_usec": 54310982352
    },
    {
      "frame_id": 229,
      "sensor_timestamp": 54311015598415,
      "time_usec": 54311015598
    },
    {
      "frame_id": 230,
      "sensor_timestamp": 54311048844753,
      "time_usec": 54311048844
    },
    {
      "frame_id": 231,
      "sensor_timestamp": 54311082091091,
      "time_usec": 54311082091
    },
    {
      "frame_id": 232,
      "sensor_timestamp": 54311115337673,
      "time_usec": 54311115337
    },
    {
      "frame_id": 233,
      "sensor_timestamp": 54311148584011,
      "time_usec": 54311148584
    },
    {
      "frame_id": 234,
      "sensor_timestamp": 54311181830349,
      "time_usec": 54311181830
    },
    {
      "frame_id": 235,
      "sensor_timestamp": 54311215076687,
      "time_usec": 54311215076
    },
    {
      "frame_id": 236,
      "sensor_timestamp": 54311248323269,
      "time_usec": 54311248323
    },
    {
      "frame_id": 237,
      "sensor_timestamp": 54311281569607,
      "time_usec": 54311281569
    },
    {
      "frame_id": 238,
      "sensor_timestamp": 54311314815945,
      "time_usec": 54311314815
    },
    {
      "frame_id": 239,
      "sensor_timestamp": 54311348062283,
      "time_usec": 54311348062
    },
    {
      "frame_id": 240,
      "sensor_timestamp": 54311381308865,
      "time_usec": 54311381308
    },
    {
      "frame_id": 241,
      "sensor_timestamp": 54311414555202,
      "time_usec": 54311414555
    },
    {
      "frame_id": 242,
      "sensor_timestamp": 54311447801540,
      "time_usec": 54311447801
    },
    {
      "frame_id": 243,
      "sensor_timestamp": 54311481047878,
      "time_usec": 54311481047
    },
    {
      "frame_id": 244,
      "sensor_timestamp": 54311514294460,
      "time_usec": 54311514294
    },
    {
      "frame_id": 245,
      "sensor_timestamp": 54311547540798,
      "time_usec": 54311547540
    },
    {
      "frame_id": 246,
      "sensor_timestamp": 54311580787136,
      "time_usec": 54311580787
    },
    {
      "frame_id": 247,
      "sensor_timestamp": 54311614033474,
      "time_usec": 54311614033
    },
    {
      "frame_id": 248,
      "sensor_timestamp": 54311647279812,
      "time_usec": 54311647279
    },
    {
      "frame_id": 249,
      "sensor_timestamp": 54311680526394,
      "time_usec": 54311680526
    },
    {
      "frame_id": 250,
      "sensor_timestamp": 54311713772732,
      "time_usec": 54311713772
    },
    {
      "frame_id": 251,
      "sensor_timestamp": 54311747019070,
      "time_usec": 54311747019
    },
    {
      "frame_id": 252,
      "sensor_timestamp": 54311780265408,
      "time_usec": 54311780265
    },
    {
      "frame_id": 253,
      "sensor_timestamp": 54311813511990,
      "time_usec": 54311813511
    },
    {
      "frame_id": 254,
      "sensor_timestamp": 54311846758327,
      "time_usec": 54311846758
    },
    {
      "frame_id": 255,
      "sensor_timestamp": 54311880004665,
      "time_usec": 54311880004
    },
    {
      "frame_id": 256,
      "sensor_timestamp": 54311913251003,
      "time_usec": 54311913251
    },
    {
      "frame_id": 257,
      "sensor_timestamp": 54311946497585,
      "time_usec": 54311946497
    },
    {
      "frame_id": 258,
      "sensor_timestamp": 54311979743923,
      "time_usec": 54311979743
    },
    {
      "frame_id": 259,
      "sensor_timestamp": 54312012990261,
      "time_usec": 54312012990
    },
    {
      "frame_id": 260,
      "sensor_timestamp": 54312046236599,
      "time_usec": 54312046236
    },
    {
      "frame_id": 261,
      "sensor_timestamp": 54312079483181,
      "time_usec": 54312079483
    },
    {
      "frame_id": 262,
      "sensor_timestamp": 54312112729519,
      "time_usec": 54312112729
    },
    {
      "frame_id": 263,
      "sensor_timestamp": 54312145975857,
      "time_usec": 54312145975
    },
    {
      "frame_id": 264,
      "sensor_timestamp": 54312179222195,
      "time_usec": 54312179222
    },
    {
      "frame_id": 265,
      "sensor_timestamp": 54312212468777,
      "time_usec": 54312212468
    },
    {
      "frame_id": 266,
      "sensor_timestamp": 54312245715115,
      "time_usec": 54312245715
    },
    {
      "frame_id": 267,
      "sensor_timestamp": 54312278961452,
      "time_usec": 54312278961
    },
    {
      "frame_id": 268,
      "sensor_timestamp": 54312312207790,
      "time_usec": 54312312207
    },
    {
      "frame_id": 269,
      "sensor_timestamp": 54312345454372,
      "time_usec": 54312345454
    },
    {
      "frame_id": 270,
      "sensor_timestamp": 54312378700710,
      "time_usec": 54312378700
    },
    {
      "frame_id": 271,
      "sensor_timestamp": 54312411947048,
      "time_usec": 54312411947
    },
    {
      "frame_id": 272,
      "sensor_timestamp": 54312445193386,
      "time_usec": 54312445193
    },
    {
      "frame_id": 273,
      "sensor_timestamp": 54312478439968,
      "time_usec": 54312478439
    },
    {
      "frame_id": 274,
      "sensor_timestamp": 54312511686306,
      "time_usec": 54312511686
    },
    {
      "frame_id": 275,
      "sensor_timestamp": 54312544932644,
      "time_usec": 54312544932
    },
    {
      "frame_id": 276,
      "sensor_timestamp": 54312578142713,
      "time_usec": 54312578142
    },
    {
      "frame_id": 277,
      "sensor_timestamp": 54312611425564,
      "time_usec": 54312611425
    },
    {
      "frame_id": 278,
      "sensor_timestamp": 54312644671902,
      "time_usec": 54312644671
    },
    {
      "frame_id": 279,
      "sensor_timestamp": 54312677918240,
      "time_usec": 54312677918
    },
    {
      "frame_id": 280,
      "sensor_timestamp": 54312711164577,
      "time_usec": 54312711164
    },
    {
      "frame_id": 281,
      "sensor_timestamp": 54312744410915,
      "time_usec": 54312744410
    },
    {
      "frame_id": 282,
      "sensor_timestamp": 54312777657497,
      "time_usec": 54312777657
    },
    {
      "frame_id": 283,
      "sensor_timestamp": 54312810903835,
      "time_usec": 54312810903
    },
    {
      "frame_id": 284,
      "sensor_timestamp": 54312844150173,
      "time_usec": 54312844150
    },
    {
      "frame_id": 285,
      "sensor_timestamp": 54312877396511,
      "time_usec": 54312877396
    },
    {
      "frame_id": 286,
      "sensor_timestamp": 54312910643093,
      "time_usec": 54312910643
    },
    {
      "frame_id": 287,
      "sensor_timestamp": 54312943889431,
      "time_usec": 54312943889
    },
    {
      "frame_id": 288,
      "sensor_timestamp": 54312977135769,
      "time_usec": 54312977135
    },
    {
      "frame_id": 289,
      "sensor_timestamp": 54313010382107,
      "time_usec": 54313010382
    },
    {
      "frame_id": 290,
      "sensor_timestamp": 54313043628689,
      "time_usec": 54313043628
    },
    {
      "frame_id": 291,
      "sensor_timestamp": 54313076875027,
      "time_usec": 54313076875
    },
    {
      "frame_id": 292,
      "sensor_timestamp": 54313110121365,
      "time_usec": 54313110121
    },
    {
      "frame_id": 293,
      "sensor_timestamp": 54313143367702,
      "time_usec": 54313143367
    },
    {
      "frame_id": 294,
      "sensor_timestamp": 54313176614284,
      "time_usec": 54313176614
    },
    {
      "frame_id": 295,
      "sensor_timestamp": 54313209860622,
      "time_usec": 54313209860
    },
    {
      "frame_id": 296,
      "sensor_timestamp": 54313243106960,
      "time_usec": 54313243106
    },
    {
      "frame_id": 297,
      "sensor_timestamp": 54313276353298,
      "time_usec": 54313276353
    },
    {
      "frame_id": 298,
      "sensor_timestamp": 54313309599880,
      "time_usec": 54313309599
    },
    {
      "frame_id": 299,
      "sensor_timestamp": 54313342846218,
      "time_usec": 54313342846
    },
    {
      "frame_id": 300,
      "sensor_timestamp": 54313376092556,
      "time_usec": 54313376092
    },
    {
      "frame_id": 301,
      "sensor_timestamp": 54313409338894,
      "time_usec": 54313409338
    },
    {
      "frame_id": 302,
      "sensor_timestamp": 54313442585476,
      "time_usec": 54313442585
    },
    {
      "frame_id": 303,
      "sensor_timestamp": 54313475831814,
      "time_usec": 54313475831
    },
    {
      "frame_id": 304,
      "sensor_timestamp": 54313509078152,
      "time_usec": 54313509078
    },
    {
      "frame_id": 305,
      "sensor_timestamp": 54313542324490,
      "time_usec": 54313542324
    },
    {
      "frame_id": 306,
      "sensor_timestamp": 54313575571072,
      "time_usec": 54313575571
    },
    {
      "frame_id": 307,
      "sensor_timestamp": 54313608817409,
      "time_usec": 54313608817
    },
    {
      "frame_id": 308,
      "sensor_timestamp": 54313642063747,
      "time_usec": 54313642063
    },
    {
      "frame_id": 309,
      "sensor_timestamp": 54313675310085,
      "time_usec": 54313675310
    },
    {
      "frame_id": 310,
      "sensor_timestamp": 54313708556667,
      "time_usec": 54313708556
    },
    {
      "frame_id": 311,
      "sensor_timestamp": 54313741803005,
      "time_usec": 54313741803
    },
    {
      "frame_id": 312,
      "sensor_timestamp": 54313775049343,
      "time_usec": 54313775049
    },
    {
      "frame_id": 313,
      "sensor_timestamp": 54313808295681,
      "time_usec": 54313808295
    },
    {
      "frame_id": 314,
      "sensor_timestamp": 54313841542263,
      "time_usec": 54313841542
    },
    {
      "frame_id": 315,
      "sensor_timestamp": 54313874788601,
      "time_usec": 54313874788
    },
    {
      "frame_id": 316,
      "sensor_timestamp": 54313908034939,
      "time_usec": 54313908034
    },
    {
      "frame_id": 317,
      "sensor_timestamp": 54313941281277,
      "time_usec": 54313941281
    },
    {
      "frame_id": 318,
      "sensor_timestamp": 54313974527615,
      "time_usec": 54313974527
    },
    {
      "frame_id": 319,
      "sensor_timestamp": 54314007774197,
      "time_usec": 54314007774
    },
    {
      "frame_id": 320,
      "sensor_timestamp": 54314041020534,
      "time_usec": 54314041020
    },
    {
      "frame_id": 321,
      "sensor_timestamp": 54314074266872,
      "time_usec": 54314074266
    },
    {
      "frame_id": 322,
      "sensor_timestamp": 54314107513210,
      "time_usec": 54314107513
    },
    {
      "frame_id": 323,
      "sensor_timestamp": 54314140759792,
      "time_usec": 54314140759
    },
    {
      "frame_id": 324,
      "sensor_timestamp": 54314174006130,
      "time_usec": 54314174006
    },
    {
      "frame_id": 325,
      "sensor_timestamp": 54314207252468,
      "time_usec": 54314207252
    },
    {
      "frame_id": 326,
      "sensor_timestamp": 54314240498806,
      "time_usec": 54314240498
    },
    {
      "frame_id": 327,
      "sensor_timestamp": 54314273745388,
      "time_usec": 54314273745
    },
    {
      "frame_id": 328,
      "sensor_timestamp": 54314306991726,
      "time_usec": 54314306991
    },
    {
      "frame_id": 329,
      "sensor_timestamp": 54314340238064,
      "time_usec": 54314340238
    },
    {
      "frame_id": 330,
      "sensor_timestamp": 54314373484402,
      "time_usec": 54314373484
    },
    {
      "frame_id": 331,
      "sensor_timestamp": 54314406730984,
      "time_usec": 54314406730
    },
    {
      "frame_id": 332,
      "sensor_timestamp": 54314439977322,
      "time_usec": 54314439977
    },
    {
      "frame_id": 333,
      "sensor_timestamp": 54314473223659,
      "time_usec": 54314473223
    },
    {
      "frame_id": 334,
      "sensor_timestamp": 54314506469997,
      "time_usec": 54314506469
    },
    {
      "frame_id": 335,
      "sensor_timestamp": 54314539716579,
      "time_usec": 54314539716
    },
    {
      "frame_id": 336,
      "sensor_timestamp": 54314572962917,
      "time_usec": 54314572962
    },
    {
      "frame_id": 337,
      "sensor_timestamp": 54314606209255,
      "time_usec": 54314606209
    },
    {
      "frame_id": 338,
      "sensor_timestamp": 54314639455593,
      "time_usec": 54314639455
    },
    {
      "frame_id": 339,
      "sensor_timestamp": 54314672702175,
      "time_usec": 54314672702
    },
    {
      "frame_id": 340,
      "sensor_timestamp": 54314705948513,
      "time_usec": 54314705948
    },
    {
      "frame_id": 341,
      "sensor_timestamp": 54314739194851,
      "time_usec": 54314739194
    },
    {
      "frame_id": 342,
      "sensor_timestamp": 54314772441189,
      "time_usec": 54314772441
    },
    {
      "frame_id": 343,
      "sensor_timestamp": 54314805687771,
      "time_usec": 54314805687
    },
    {
      "frame_id": 344,
      "sensor_timestamp": 54314838934109,
      "time_usec": 54314838934
    },
    {
      "frame_id": 345,
      "sensor_timestamp": 54314872180447,
      "time_usec": 54314872180
    },
    {
      "frame_id": 346,
      "sensor_timestamp": 54314905426784,
      "time_usec": 54314905426
    },
    {
      "frame_id": 347,
      "sensor_timestamp": 54314938673367,
      "time_usec": 54314938673
    },
    {
      "frame_id": 348,
      "sensor_timestamp": 54314971919704,
      "time_usec": 54314971919
    },
    {
      "frame_id": 349,
      "sensor_timestamp": 54315005166042,
      "time_usec": 54315005166
    },
    {
      "frame_id": 350,
      "sensor_timestamp": 54315038412380,
      "time_usec": 54315038412
    },
    {
      "frame_id": 351,
      "sensor_timestamp": 54315071658962,
      "time_usec": 54315071658
    },
    {
      "frame_id": 352,
      "sensor_timestamp": 54315104905300,
      "time_usec": 54315104905
    },
    {
      "frame_id": 353,
      "sensor_timestamp": 54315138151638,
      "time_usec": 54315138151
    },
    {
      "frame_id": 354,
      "sensor_timestamp": 54315171397976,
      "time_usec": 54315171397
    },
    {
      "frame_id": 355,
      "sensor_timestamp": 54315204644314,
      "time_usec": 54315204644
    },
    {
      "frame_id": 356,
      "sensor_timestamp": 54315237890896,
      "time_usec": 54315237890
    },
    {
      "frame_id": 357,
      "sensor_timestamp": 54315271137234,
      "time_usec": 54315271137
    },
    {
      "frame_id": 358,
      "sensor_timestamp": 54315304383572,
      "time_usec": 54315304383
    },
    {
      "frame_id": 359,
      "sensor_timestamp": 54315337629909,
      "time_usec": 54315337629
    },
    {
      "frame_id": 360,
      "sensor_timestamp": 54315370876492,
      "time_usec": 54315370876
    },
    {
      "frame_id": 361,
      "sensor_timestamp": 54315404122829,
      "time_usec": 54315404122
    },
    {
      "frame_id": 362,
      "sensor_timestamp": 54315437369167,
      "time_usec": 54315437369
    },
    {
      "frame_id": 363,
      "sensor_timestamp": 54315470615505,
      "time_usec": 54315470615
    },
    {
      "frame_id": 364,
      "sensor_timestamp": 54315503862087,
      "time_usec": 54315503862
    },
    {
      "frame_id": 365,
      "sensor_timestamp": 54315537108425,
      "time_usec": 54315537108
    },
    {
      "frame_id": 366,
      "sensor_timestamp": 54315570354763,
      "time_usec": 54315570354
    },
    {
      "frame_id": 367,
      "sensor_timestamp": 54315603601101,
      "time_usec": 54315603601
    },
    {
      "frame_id": 368,
      "sensor_timestamp": 54315636847683,
      "time_usec": 54315636847
    },
    {
      "frame_id": 369,
      "sensor_timestamp": 54315670094021,
      "time_usec": 54315670094
    },
    {
      "frame_id": 370,
      "sensor_timestamp": 54315703340359,
      "time_usec": 54315703340
    },
    {
      "frame_id": 371,
      "sensor_timestamp": 54315733806066,
      "time_usec": 54315733806
    },
    {
      "frame_id": 372,
      "sensor_timestamp": 54315767052648,
      "time_usec": 54315767052
    },
    {
      "frame_id": 373,
      "sensor_timestamp": 54315800298986,
      "time_usec": 54315800298
    },
    {
      "frame_id": 374,
      "sensor_timestamp": 54315833545323,
      "time_usec": 54315833545
    },
    {
      "frame_id": 375,
      "sensor_timestamp": 54315866791661,
      "time_usec": 54315866791
    },
    {
      "frame_id": 376,
      "sensor_timestamp": 54315900038243,
      "time_usec": 54315900038
    },
    {
      "frame_id": 377,
      "sensor_timestamp": 54315933284581,
      "time_usec": 54315933284
    },
    {
      "frame_id": 378,
      "sensor_timestamp": 54315966530919,
      "time_usec": 54315966530
    },
    {
      "frame_id": 379,
      "sensor_timestamp": 54315999777257,
      "time_usec": 54315999777
    },
    {
      "frame_id": 380,
      "sensor_timestamp": 54316033023839,
      "time_usec": 54316033023
    },
    {
      "frame_id": 381,
      "sensor_timestamp": 54316066270177,
      "time_usec": 54316066270
    },
    {
      "frame_id": 382,
      "sensor_timestamp": 54316099516515,
      "time_usec": 54316099516
    },
    {
      "frame_id": 383,
      "sensor_timestamp": 54316132762853,
      "time_usec": 54316132762
    },
    {
      "frame_id": 384,
      "sensor_timestamp": 54316166009435,
      "time_usec": 54316166009
    },
    {
      "frame_id": 385,
      "sensor_timestamp": 54316199255773,
      "time_usec": 54316199255
    },
    {
      "frame_id": 386,
      "sensor_timestamp": 54316232502111,
      "time_usec": 54316232502
    },
    {
      "frame_id": 387,
      "sensor_timestamp": 54316265748448,
      "time_usec": 54316265748
    },
    {
      "frame_id": 388,
      "sensor_timestamp": 54316298995030,
      "time_usec": 54316298995
    },
    {
      "frame_id": 389,
      "sensor_timestamp": 54316332241368,
      "time_usec": 54316332241
    },
    {
      "frame_id": 390,
      "sensor_timestamp": 54316365487706,
      "time_usec": 54316365487
    },
    {
      "frame_id": 391,
      "sensor_timestamp": 54316398734044,
      "time_usec": 54316398734
    },
    {
      "frame_id": 392,
      "sensor_timestamp": 54316431980382,
      "time_usec": 54316431980
    },
    {
      "frame_id": 393,
      "sensor_timestamp": 54316465226964,
      "time_usec": 54316465226
    },
    {
      "frame_id": 394,
      "sensor_timestamp": 54316498473302,
      "time_usec": 54316498473
    },
    {
      "frame_id": 395,
      "sensor_timestamp": 54316531719640,
      "time_usec": 54316531719
    },
    {
      "frame_id": 396,
      "sensor_timestamp": 54316564965978,
      "time_usec": 54316564965
    },
    {
      "frame_id": 397,
      "sensor_timestamp": 54316598212560,
      "time_usec": 54316598212
    },
    {
      "frame_id": 398,
      "sensor_timestamp": 54316631458898,
      "time_usec": 54316631458
    },
    {
      "frame_id": 399,
      "sensor_timestamp": 54316664705236,
      "time_usec": 54316664705
    },
    {
      "frame_id": 400,
      "sensor_timestamp": 54316697951573,
      "time_usec": 54316697951
    },
    {
      "frame_id": 401,
      "sensor_timestamp": 54316731198155,
      "time_usec": 54316731198
    },
    {
      "frame_id": 402,
      "sensor_timestamp": 54316764444493,
      "time_usec": 54316764444
    },
    {
      "frame_id": 403,
      "sensor_timestamp": 54316797690831,
      "time_usec": 54316797690
    },
    {
      "frame_id": 404,
      "sensor_timestamp": 54316830937169,
      "time_usec": 54316830937
    },
    {
      "frame_id": 405,
      "sensor_timestamp": 54316864183751,
      "time_usec": 54316864183
    },
    {
      "frame_id": 406,
      "sensor_timestamp": 54316897430089,
      "time_usec": 54316897430
    },
    {
      "frame_id": 407,
      "sensor_timestamp": 54316930676427,
      "time_usec": 54316930676
    },
    {
      "frame_id": 408,
      "sensor_timestamp": 54316963922765,
      "time_usec": 54316963922
    },
    {
      "frame_id": 409,
      "sensor_timestamp": 54316997169347,
      "time_usec": 54316997169
    },
    {
      "frame_id": 410,
      "sensor_timestamp": 54317030415685,
      "time_usec": 54317030415
    },
    {
      "frame_id": 411,
      "sensor_timestamp": 54317063662023,
      "time_usec": 54317063662
    },
    {
      "frame_id": 412,
      "sensor_timestamp": 54317096908361,
      "time_usec": 54317096908
    },
    {
      "frame_id": 413,
      "sensor_timestamp": 54317130154943,
      "time_usec": 54317130154
    },
    {
      "frame_id": 414,
      "sensor_timestamp": 54317163401280,
      "time_usec": 54317163401
    },
    {
      "frame_id": 415,
      "sensor_timestamp": 54317196647618,
      "time_usec": 54317196647
    },
    {
      "frame_id": 416,
      "sensor_timestamp": 54317229893956,
      "time_usec": 54317229893
    },
    {
      "frame_id": 417,
      "sensor_timestamp": 54317263140538,
      "time_usec": 54317263140
    },
    {
      "frame_id": 418,
      "sensor_timestamp": 54317296386876,
      "time_usec": 54317296386
    },
    {
      "frame_id": 419,
      "sensor_timestamp": 54317329633214,
      "time_usec": 54317329633
    },
    {
      "frame_id": 420,
      "sensor_timestamp": 54317362879552,
      "time_usec": 54317362879
    },
    {
      "frame_id": 421,
      "sensor_timestamp": 54317396126134,
      "time_usec": 54317396126
    },
    {
      "frame_id": 422,
      "sensor_timestamp": 54317429372472,
      "time_usec": 54317429372
    },
    {
      "frame_id": 423,
      "sensor_timestamp": 54317462618810,
      "time_usec": 54317462618
    },
    {
      "frame_id": 424,
      "sensor_timestamp": 54317495865148,
      "time_usec": 54317495865
    },
    {
      "frame_id": 425,
      "sensor_timestamp": 54317529111730,
      "time_usec": 54317529111
    },
    {
      "frame_id": 426,
      "sensor_timestamp": 54317562358068,
      "time_usec": 54317562358
    },
    {
      "frame_id": 427,
      "sensor_timestamp": 54317595604405,
      "time_usec": 54317595604
    },
    {
      "frame_id": 428,
      "sensor_timestamp": 54317628850743,
      "time_usec": 54317628850
    },
    {
      "frame_id": 429,
      "sensor_timestamp": 54317662097081,
      "time_usec": 54317662097
    },
    {
      "frame_id": 430,
      "sensor_timestamp": 54317695343663,
      "time_usec": 54317695343
    },
    {
      "frame_id": 431,
      "sensor_timestamp": 54317728590001,
      "time_usec": 54317728590
    },
    {
      "frame_id": 432,
      "sensor_timestamp": 54317761836339,
      "time_usec": 54317761836
    },
    {
      "frame_id": 433,
      "sensor_timestamp": 54317795082677,
      "time_usec": 54317795082
    },
    {
      "frame_id": 434,
      "sensor_timestamp": 54317828329259,
      "time_usec": 54317828329
    },
    {
      "frame_id": 435,
      "sensor_timestamp": 54317861575597,
      "time_usec": 54317861575
    },
    {
      "frame_id": 436,
      "sensor_timestamp": 54317894821935,
      "time_usec": 54317894821
    },
    {
      "frame_id": 437,
      "sensor_timestamp": 54317928068273,
      "time_usec": 54317928068
    },
    {
      "frame_id": 438,
      "sensor_timestamp": 54317961314855,
      "time_usec": 54317961314
    },
    {
      "frame_id": 439,
      "sensor_timestamp": 54317994561193,
      "time_usec": 54317994561
    },
    {
      "frame_id": 440,
      "sensor_timestamp": 54318027807530,
      "time_usec": 54318027807
    },
    {
      "frame_id": 441,
      "sensor_timestamp": 54318061053868,
      "time_usec": 54318061053
    },
    {
      "frame_id": 442,
      "sensor_timestamp": 54318094300450,
      "time_usec": 54318094300
    },
    {
      "frame_id": 443,
      "sensor_timestamp": 54318127546788,
      "time_usec": 54318127546
    },
    {
      "frame_id": 444,
      "sensor_timestamp": 54318160793126,
      "time_usec": 54318160793
    },
    {
      "frame_id": 445,
      "sensor_timestamp": 54318194039464,
      "time_usec": 54318194039
    },
    {
      "frame_id": 446,
      "sensor_timestamp": 54318227286046,
      "time_usec": 54318227286
    },
    {
      "frame_id": 447,
      "sensor_timestamp": 54318260532384,
      "time_usec": 54318260532
    },
    {
      "frame_id": 448,
      "sensor_timestamp": 54318293778722,
      "time_usec": 54318293778
    },
    {
      "frame_id": 449,
      "sensor_timestamp": 54318327025060,
      "time_usec": 54318327025
    },
    {
      "frame_id": 450,
      "sensor_timestamp": 54318360271642,
      "time_usec": 54318360271
    },
    {
      "frame_id": 451,
      "sensor_timestamp": 54318393517980,
      "time_usec": 54318393517
    },
    {
      "frame_id": 452,
      "sensor_timestamp": 54318426764318,
      "time_usec": 54318426764
    },
    {
      "frame_id": 453,
      "sensor_timestamp": 54318460010655,
      "time_usec": 54318460010
    },
    {
      "frame_id": 454,
      "sensor_timestamp": 54318493257237,
      "time_usec": 54318493257
    },
    {
      "frame_id": 455,
      "sensor_timestamp": 54318526503575,
      "time_usec": 54318526503
    },
    {
      "frame_id": 456,
      "sensor_timestamp": 54318559749913,
      "time_usec": 54318559749
    },
    {
      "frame_id": 457,
      "sensor_timestamp": 54318592996251,
      "time_usec": 54318592996
    },
    {
      "frame_id": 458,
      "sensor_timestamp": 54318626242833,
      "time_usec": 54318626242
    },
    {
      "frame_id": 459,
      "sensor_timestamp": 54318659489171,
      "time_usec": 54318659489
    },
    {
      "frame_id": 460,
      "sensor_timestamp": 54318692735509,
      "time_usec": 54318692735
    },
    {
      "frame_id": 461,
      "sensor_timestamp": 54318725981847,
      "time_usec": 54318725981
    },
    {
      "frame_id": 462,
      "sensor_timestamp": 54318759228185,
      "time_usec": 54318759228
    },
    {
      "frame_id": 463,
      "sensor_timestamp": 54318792474767,
      "time_usec": 54318792474
    },
    {
      "frame_id": 464,
      "sensor_timestamp": 54318825721105,
      "time_usec": 54318825721
    },
    {
      "frame_id": 465,
      "sensor_timestamp": 54318858967443,
      "time_usec": 54318858967
    },
    {
      "frame_id": 466,
      "sensor_timestamp": 54318892213780,
      "time_usec": 54318892213
    },
    {
      "frame_id": 467,
      "sensor_timestamp": 54318925460362,
      "time_usec": 54318925460
    },
    {
      "frame_id": 468,
      "sensor_timestamp": 54318958706700,
      "time_usec": 54318958706
    },
    {
      "frame_id": 469,
      "sensor_timestamp": 54318991953038,
      "time_usec": 54318991953
    },
    {
      "frame_id": 470,
      "sensor_timestamp": 54319025199376,
      "time_usec": 54319025199
    },
    {
      "frame_id": 471,
      "sensor_timestamp": 54319058445958,
      "time_usec": 54319058445
    },
    {
      "frame_id": 472,
      "sensor_timestamp": 54319091692296,
      "time_usec": 54319091692
    },
    {
      "frame_id": 473,
      "sensor_timestamp": 54319124938634,
      "time_usec": 54319124938
    },
    {
      "frame_id": 474,
      "sensor_timestamp": 54319158184972,
      "time_usec": 54319158184
    },
    {
      "frame_id": 475,
      "sensor_timestamp": 54319191431554,
      "time_usec": 54319191431
    },
    {
      "frame_id": 476,
      "sensor_timestamp": 54319224677892,
      "time_usec": 54319224677
    },
    {
      "frame_id": 477,
      "sensor_timestamp": 54319257924230,
      "time_usec": 54319257924
    },
    {
      "frame_id": 478,
      "sensor_timestamp": 54319291170568,
      "time_usec": 54319291170
    },
    {
      "frame_id": 479,
      "sensor_timestamp": 54319324417150,
      "time_usec": 54319324417
    },
    {
      "frame_id": 480,
      "sensor_timestamp": 54319357663487,
      "time_usec": 54319357663
    },
    {
      "frame_id": 481,
      "sensor_timestamp": 54319390909825,
      "time_usec": 54319390909
    },
    {
      "frame_id": 482,
      "sensor_timestamp": 54319424156163,
      "time_usec": 54319424156
    },
    {
      "frame_id": 483,
      "sensor_timestamp": 54319457402745,
      "time_usec": 54319457402
    },
    {
      "frame_id": 484,
      "sensor_timestamp": 54319490649083,
      "time_usec": 54319490649
    },
    {
      "frame_id": 485,
      "sensor_timestamp": 54319523895421,
      "time_usec": 54319523895
    },
    {
      "frame_id": 486,
      "sensor_timestamp": 54319557225245,
      "time_usec": 54319557225
    },
    {
      "frame_id": 487,
      "sensor_timestamp": 54319590388341,
      "time_usec": 54319590388
    },
    {
      "frame_id": 488,
      "sensor_timestamp": 54319623634679,
      "time_usec": 54319623634
    },
    {
      "frame_id": 489,
      "sensor_timestamp": 54319656881017,
      "time_usec": 54319656881
    },
    {
      "frame_id": 490,
      "sensor_timestamp": 54319690127355,
      "time_usec": 54319690127
    },
    {
      "frame_id": 491,
      "sensor_timestamp": 54319723373937,
      "time_usec": 54319723373
    },
    {
      "frame_id": 492,
      "sensor_timestamp": 54319756620275,
      "time_usec": 54319756620
    },
    {
      "frame_id": 493,
      "sensor_timestamp": 54319789866612,
      "time_usec": 54319789866
    },
    {
      "frame_id": 494,
      "sensor_timestamp": 54319823112950,
      "time_usec": 54319823112
    },
    {
      "frame_id": 495,
      "sensor_timestamp": 54319856359532,
      "time_usec": 54319856359
    },
    {
      "frame_id": 496,
      "sensor_timestamp": 54319889605870,
      "time_usec": 54319889605
    },
    {
      "frame_id": 497,
      "sensor_timestamp": 54319922852208,
      "time_usec": 54319922852
    },
    {
      "frame_id": 498,
      "sensor_timestamp": 54319956098546,
      "time_usec": 54319956098
    },
    {
      "frame_id": 499,
      "sensor_timestamp": 54319989344884,
      "time_usec": 54319989344
    },
    {
      "frame_id": 500,
      "sensor_timestamp": 54320022591466,
      "time_usec": 54320022591
    },
    {
      "frame_id": 501,
      "sensor_timestamp": 54320055837804,
      "time_usec": 54320055837
    },
    {
      "frame_id": 502,
      "sensor_timestamp": 54320089084142,
      "time_usec": 54320089084
    },
    {
      "frame_id": 503,
      "sensor_timestamp": 54320122330480,
      "time_usec": 54320122330
    },
    {
      "frame_id": 504,
      "sensor_timestamp": 54320155577062,
      "time_usec": 54320155577
    },
    {
      "frame_id": 505,
      "sensor_timestamp": 54320188823400,
      "time_usec": 54320188823
    },
    {
      "frame_id": 506,
      "sensor_timestamp": 54320222069737,
      "time_usec": 54320222069
    },
    {
      "frame_id": 507,
      "sensor_timestamp": 54320255316075,
      "time_usec": 54320255316
    },
    {
      "frame_id": 508,
      "sensor_timestamp": 54320288562657,
      "time_usec": 54320288562
    },
    {
      "frame_id": 509,
      "sensor_timestamp": 54320321808995,
      "time_usec": 54320321808
    },
    {
      "frame_id": 510,
      "sensor_timestamp": 54320355055333,
      "time_usec": 54320355055
    },
    {
      "frame_id": 511,
      "sensor_timestamp": 54320388359645,
      "time_usec": 54320388359
    },
    {
      "frame_id": 512,
      "sensor_timestamp": 54320421548253,
      "time_usec": 54320421548
    },
    {
      "frame_id": 513,
      "sensor_timestamp": 54320454794591,
      "time_usec": 54320454794
    },
    {
      "frame_id": 514,
      "sensor_timestamp": 54320488040929,
      "time_usec": 54320488040
    },
    {
      "frame_id": 515,
      "sensor_timestamp": 54320521287267,
      "time_usec": 54320521287
    },
    {
      "frame_id": 516,
      "sensor_timestamp": 54320554533849,
      "time_usec": 54320554533
    },
    {
      "frame_id": 517,
      "sensor_timestamp": 54320587780187,
      "time_usec": 54320587780
    },
    {
      "frame_id": 518,
      "sensor_timestamp": 54320621026525,
      "time_usec": 54320621026
    },
    {
      "frame_id": 519,
      "sensor_timestamp": 54320654272862,
      "time_usec": 54320654272
    },
    {
      "frame_id": 520,
      "sensor_timestamp": 54320687519444,
      "time_usec": 54320687519
    },
    {
      "frame_id": 521,
      "sensor_timestamp": 54320720765782,
      "time_usec": 54320720765
    },
    {
      "frame_id": 522,
      "sensor_timestamp": 54320754012120,
      "time_usec": 54320754012
    },
    {
      "frame_id": 523,
      "sensor_timestamp": 54320787258458,
      "time_usec": 54320787258
    },
    {
      "frame_id": 524,
      "sensor_timestamp": 54320820505040,
      "time_usec": 54320820505
    },
    {
      "frame_id": 525,
      "sensor_timestamp": 54320853751378,
      "time_usec": 54320853751
    },
    {
      "frame_id": 526,
      "sensor_timestamp": 54320886997716,
      "time_usec": 54320886997
    },
    {
      "frame_id": 527,
      "sensor_timestamp": 54320920244054,
      "time_usec": 54320920244
    },
    {
      "frame_id": 528,
      "sensor_timestamp": 54320953490636,
      "time_usec": 54320953490
    },
    {
      "frame_id": 529,
      "sensor_timestamp": 54320986736974,
      "time_usec": 54320986736
    },
    {
      "frame_id": 530,
      "sensor_timestamp": 54321019983312,
      "time_usec": 54321019983
    },
    {
      "frame_id": 531,
      "sensor_timestamp": 54321053229650,
      "time_usec": 54321053229
    },
    {
      "frame_id": 532,
      "sensor_timestamp": 54321086476232,
      "time_usec": 54321086476
    },
    {
      "frame_id": 533,
      "sensor_timestamp": 54321119722569,
      "time_usec": 54321119722
    },
    {
      "frame_id": 534,
      "sensor_timestamp": 54321152968907,
      "time_usec": 54321152968
    },
    {
      "frame_id": 535,
      "sensor_timestamp": 54321186215245,
      "time_usec": 54321186215
    },
    {
      "frame_id": 536,
      "sensor_timestamp": 54321219461583,
      "time_usec": 54321219461
    },
    {
      "frame_id": 537,
      "sensor_timestamp": 54321252708165,
      "time_usec": 54321252708
    },
    {
      "frame_id": 538,
      "sensor_timestamp": 54321285954503,
      "time_usec": 54321285954
    },
    {
      "frame_id": 539,
      "sensor_timestamp": 54321319200841,
      "time_usec": 54321319200
    },
    {
      "frame_id": 540,
      "sensor_timestamp": 54321352447179,
      "time_usec": 54321352447
    },
    {
      "frame_id": 541,
      "sensor_timestamp": 54321385693761,
      "time_usec": 54321385693
    },
    {
      "frame_id": 542,
      "sensor_timestamp": 54321418940099,
      "time_usec": 54321418940
    },
    {
      "frame_id": 543,
      "sensor_timestamp": 54321452186437,
      "time_usec": 54321452186
    },
    {
      "frame_id": 544,
      "sensor_timestamp": 54321485432775,
      "time_usec": 54321485432
    },
    {
      "frame_id": 545,
      "sensor_timestamp": 54321518679357,
      "time_usec": 54321518679
    },
    {
      "frame_id": 546,
      "sensor_timestamp": 54321551925694,
      "time_usec": 54321551925
    },
    {
      "frame_id": 547,
      "sensor_timestamp": 54321585172032,
      "time_usec": 54321585172
    },
    {
      "frame_id": 548,
      "sensor_timestamp": 54321618393703,
      "time_usec": 54321618393
    },
    {
      "frame_id": 549,
      "sensor_timestamp": 54321651664952,
      "time_usec": 54321651664
    },
    {
      "frame_id": 550,
      "sensor_timestamp": 54321684911290,
      "time_usec": 54321684911
    },
    {
      "frame_id": 551,
