{
  "frames": [
    {
      "frame_id": 0,
      "sensor_timestamp": 67479945572507,
      "time_usec": 67479945572
    },
    {
      "frame_id": 1,
      "sensor_timestamp": 67480012065183,
      "time_usec": 67480012065
    },
    {
      "frame_id": 2,
      "sensor_timestamp": 67480045311765,
      "time_usec": 67480045311
    },
    {
      "frame_id": 3,
      "sensor_timestamp": 67480078558103,
      "time_usec": 67480078558
    },
    {
      "frame_id": 4,
      "sensor_timestamp": 67480111804441,
      "time_usec": 67480111804
    },
    {
      "frame_id": 5,
      "sensor_timestamp": 67480145050779,
      "time_usec": 67480145050
    },
    {
      "frame_id": 6,
      "sensor_timestamp": 67480178297117,
      "time_usec": 67480178297
    },
    {
      "frame_id": 7,
      "sensor_timestamp": 67480211543699,
      "time_usec": 67480211543
    },
    {
      "frame_id": 8,
      "sensor_timestamp": 67480244790036,
      "time_usec": 67480244790
    },
    {
      "frame_id": 9,
      "sensor_timestamp": 67480278036374,
      "time_usec": 67480278036
    },
    {
      "frame_id": 10,
      "sensor_timestamp": 67480311282712,
      "time_usec": 67480311282
    },
    {
      "frame_id": 11,
      "sensor_timestamp": 67480344529294,
      "time_usec": 67480344529
    },
    {
      "frame_id": 12,
      "sensor_timestamp": 67480377775632,
      "time_usec": 67480377775
    },
    {
      "frame_id": 13,
      "sensor_timestamp": 67480411021970,
      "time_usec": 67480411021
    },
    {
      "frame_id": 14,
      "sensor_timestamp": 67480444268308,
      "time_usec": 67480444268
    },
    {
      "frame_id": 15,
      "sensor_timestamp": 67480477514890,
      "time_usec": 67480477514
    },
    {
      "frame_id": 16,
      "sensor_timestamp": 67480510761228,
      "time_usec": 67480510761
    },
    {
      "frame_id": 17,
      "sensor_timestamp": 67480544007566,
      "time_usec": 67480544007
    },
    {
      "frame_id": 18,
      "sensor_timestamp": 67480577253904,
      "time_usec": 67480577253
    },
    {
      "frame_id": 19,
      "sensor_timestamp": 67480610500486,
      "time_usec": 67480610500
    },
    {
      "frame_id": 20,
      "sensor_timestamp": 67480643746824,
      "time_usec": 67480643746
    },
    {
      "frame_id": 21,
      "sensor_timestamp": 67480676993161,
      "time_usec": 67480676993
    },
    {
      "frame_id": 22,
      "sensor_timestamp": 67480710239499,
      "time_usec": 67480710239
    },
    {
      "frame_id": 23,
      "sensor_timestamp": 67480743486081,
      "time_usec": 67480743486
    },
    {
      "frame_id": 24,
      "sensor_timestamp": 67480776732419,
      "time_usec": 67480776732
    },
    {
      "frame_id": 25,
      "sensor_timestamp": 67480809978757,
      "time_usec": 67480809978
    },
    {
      "frame_id": 26,
      "sensor_timestamp": 67480843225095,
      "time_usec": 67480843225
    },
    {
      "frame_id": 27,
      "sensor_timestamp": 67480876471677,
      "time_usec": 67480876471
    },
    {
      "frame_id": 28,
      "sensor_timestamp": 67480909718015,
      "time_usec": 67480909718
    },
    {
      "frame_id": 29,
      "sensor_timestamp": 67480942964353,
      "time_usec": 67480942964
    },
    {
      "frame_id": 30,
      "sensor_timestamp": 67480976210691,
      "time_usec": 67480976210
    },
    {
      "frame_id": 31,
      "sensor_timestamp": 67481009457273,
      "time_usec": 67481009457
    },
    {
      "frame_id": 32,
      "sensor_timestamp": 67481042703611,
      "time_usec": 67481042703
    },
    {
      "frame_id": 33,
      "sensor_timestamp": 67481075949949,
      "time_usec": 67481075949
    },
    {
      "frame_id": 34,
      "sensor_timestamp": 67481109196286,
      "time_usec": 67481109196
    },
    {
      "frame_id": 35,
      "sensor_timestamp": 67481142442868,
      "time_usec": 67481142442
    },
    {
      "frame_id": 36,
      "sensor_timestamp": 67481175689206,
      "time_usec": 67481175689
    },
    {
      "frame_id": 37,
      "sensor_timestamp": 67481208935544,
      "time_usec": 67481208935
    },
    {
      "frame_id": 38,
      "sensor_timestamp": 67481242181882,
      "time_usec": 67481242181
    },
    {
      "frame_id": 39,
      "sensor_timestamp": 67481275428464,
      "time_usec": 67481275428
    },
    {
      "frame_id": 40,
      "sensor_timestamp": 67481308674802,
      "time_usec": 67481308674
    },
    {
      "frame_id": 41,
      "sensor_timestamp": 67481341921140,
      "time_usec": 67481341921
    },
    {
      "frame_id": 42,
      "sensor_timestamp": 67481375167478,
      "time_usec": 67481375167
    },
    {
      "frame_id": 43,
      "sensor_timestamp": 67481408414060,
      "time_usec": 67481408414
    },
    {
      "frame_id": 44,
      "sensor_timestamp": 67481441660398,
      "time_usec": 67481441660
    },
    {
      "frame_id": 45,
      "sensor_timestamp": 67481474906736,
      "time_usec": 67481474906
    },
    {
      "frame_id": 46,
      "sensor_timestamp": 67481508153074,
      "time_usec": 67481508153
    },
    {
      "frame_id": 47,
      "sensor_timestamp": 67481541399411,
      "time_usec": 67481541399
    },
    {
      "frame_id": 48,
      "sensor_timestamp": 67481574645993,
      "time_usec": 67481574645
    },
    {
      "frame_id": 49,
      "sensor_timestamp": 67481607892331,
      "time_usec": 67481607892
    },
    {
      "frame_id": 50,
      "sensor_timestamp": 67481641138669,
      "time_usec": 67481641138
    },
    {
      "frame_id": 51,
      "sensor_timestamp": 67481674385007,
      "time_usec": 67481674385
    },
    {
      "frame_id": 52,
      "sensor_timestamp": 67481707631589,
      "time_usec": 67481707631
    },
    {
      "frame_id": 53,
      "sensor_timestamp": 67481740877927,
      "time_usec": 67481740877
    },
    {
      "frame_id": 54,
      "sensor_timestamp": 67481774124265,
      "time_usec": 67481774124
    },
    {
      "frame_id": 55,
      "sensor_timestamp": 67481807370603,
      "time_usec": 67481807370
    },
    {
      "frame_id": 56,
      "sensor_timestamp": 67481840617185,
      "time_usec": 67481840617
    },
    {
      "frame_id": 57,
      "sensor_timestamp": 67481873863523,
      "time_usec": 67481873863
    },
    {
      "frame_id": 58,
      "sensor_timestamp": 67481907109861,
      "time_usec": 67481907109
    },
    {
      "frame_id": 59,
      "sensor_timestamp": 67481940356199,
      "time_usec": 67481940356
    },
    {
      "frame_id": 60,
      "sensor_timestamp": 67481973602781,
      "time_usec": 67481973602
    },
    {
      "frame_id": 61,
      "sensor_timestamp": 67482006849118,
      "time_usec": 67482006849
    },
    {
      "frame_id": 62,
      "sensor_timestamp": 67482040095456,
      "time_usec": 67482040095
    },
    {
      "frame_id": 63,
      "sensor_timestamp": 67482073341794,
      "time_usec": 67482073341
    },
    {
      "frame_id": 64,
      "sensor_timestamp": 67482106588376,
      "time_usec": 67482106588
    },
    {
      "frame_id": 65,
      "sensor_timestamp": 67482139834714,
      "time_usec": 67482139834
    },
    {
      "frame_id": 66,
      "sensor_timestamp": 67482173081052,
      "time_usec": 67482173081
    },
    {
      "frame_id": 67,
      "sensor_timestamp": 67482206327390,
      "time_usec": 67482206327
    },
    {
      "frame_id": 68,
      "sensor_timestamp": 67482239573972,
      "time_usec": 67482239573
    },
    {
      "frame_id": 69,
      "sensor_timestamp": 67482272820310,
      "time_usec": 67482272820
    },
    {
      "frame_id": 70,
      "sensor_timestamp": 67482306066648,
      "time_usec": 67482306066
    },
    {
      "frame_id": 71,
      "sensor_timestamp": 67482339312986,
      "time_usec": 67482339312
    },
    {
      "frame_id": 72,
      "sensor_timestamp": 67482372559568,
      "time_usec": 67482372559
    },
    {
      "frame_id": 73,
      "sensor_timestamp": 67482405805906,
      "time_usec": 67482405805
    },
    {
      "frame_id": 74,
      "sensor_timestamp": 67482439052243,
      "time_usec": 67482439052
    },
    {
      "frame_id": 75,
      "sensor_timestamp": 67482472298581,
      "time_usec": 67482472298
    },
    {
      "frame_id": 76,
      "sensor_timestamp": 67482505545163,
      "time_usec": 67482505545
    },
    {
      "frame_id": 77,
      "sensor_timestamp": 67482538791501,
      "time_usec": 67482538791
    },
    {
      "frame_id": 78,
      "sensor_timestamp": 67482572037839,
      "time_usec": 67482572037
    },
    {
      "frame_id": 79,
      "sensor_timestamp": 67482605284177,
      "time_usec": 67482605284
    },
    {
      "frame_id": 80,
      "sensor_timestamp": 67482638530515,
      "time_usec": 67482638530
    },
    {
      "frame_id": 81,
      "sensor_timestamp": 67482671777097,
      "time_usec": 67482671777
    },
    {
      "frame_id": 82,
      "sensor_timestamp": 67482705023435,
      "time_usec": 67482705023
    },
    {
      "frame_id": 83,
      "sensor_timestamp": 67482738269773,
      "time_usec": 67482738269
    },
    {
      "frame_id": 84,
      "sensor_timestamp": 67482771516111,
      "time_usec": 67482771516
    },
    {
      "frame_id": 85,
      "sensor_timestamp": 67482804762693,
      "time_usec": 67482804762
    },
    {
      "frame_id": 86,
      "sensor_timestamp": 67482838009031,
      "time_usec": 67482838009
    },
    {
      "frame_id": 87,
      "sensor_timestamp": 67482871255368,
      "time_usec": 67482871255
    },
    {
      "frame_id": 88,
      "sensor_timestamp": 67482904501706,
      "time_usec": 67482904501
    },
    {
      "frame_id": 89,
      "sensor_timestamp": 67482937748288,
      "time_usec": 67482937748
    },
    {
      "frame_id": 90,
      "sensor_timestamp": 67482970994626,
      "time_usec": 67482970994
    },
    {
      "frame_id": 91,
      "sensor_timestamp": 67483004240964,
      "time_usec": 67483004240
    },
    {
      "frame_id": 92,
      "sensor_timestamp": 67483037487302,
      "time_usec": 67483037487
    },
    {
      "frame_id": 93,
      "sensor_timestamp": 67483070733884,
      "time_usec": 67483070733
    },
    {
      "frame_id": 94,
      "sensor_timestamp": 67483103980222,
      "time_usec": 67483103980
    },
    {
      "frame_id": 95,
      "sensor_timestamp": 67483137226560,
      "time_usec": 67483137226
    },
    {
      "frame_id": 96,
      "sensor_timestamp": 67483170472898,
      "time_usec": 67483170472
    },
    {
      "frame_id": 97,
      "sensor_timestamp": 67483203719480,
      "time_usec": 67483203719
    },
    {
      "frame_id": 98,
      "sensor_timestamp": 67483236965818,
      "time_usec": 67483236965
    },
    {
      "frame_id": 99,
      "sensor_timestamp": 67483270212156,
      "time_usec": 67483270212
    },
    {
      "frame_id": 100,
      "sensor_timestamp": 67483303458493,
      "time_usec": 67483303458
    },
    {
      "frame_id": 101,
      "sensor_timestamp": 67483336705075,
      "time_usec": 67483336705
    },
    {
      "frame_id": 102,
      "sensor_timestamp": 67483369951413,
      "time_usec": 67483369951
    },
    {
      "frame_id": 103,
      "sensor_timestamp": 67483403197751,
      "time_usec": 67483403197
    },
    {
      "frame_id": 104,
      "sensor_timestamp": 67483436444089,
      "time_usec": 67483436444
    },
    {
      "frame_id": 105,
      "sensor_timestamp": 67483469690671,
      "time_usec": 67483469690
    },
    {
      "frame_id": 106,
      "sensor_timestamp": 67483502937009,
      "time_usec": 67483502937
    },
    {
      "frame_id": 107,
      "sensor_timestamp": 67483536183347,
      "time_usec": 67483536183
    },
    {
      "frame_id": 108,
      "sensor_timestamp": 67483569429685,
      "time_usec": 67483569429
    },
    {
      "frame_id": 109,
      "sensor_timestamp": 67483602676267,
      "time_usec": 67483602676
    },
    {
      "frame_id": 110,
      "sensor_timestamp": 67483635922605,
      "time_usec": 67483635922
    },
    {
      "frame_id": 111,
      "sensor_timestamp": 67483669168943,
      "time_usec": 67483669168
    },
    {
      "frame_id": 112,
      "sensor_timestamp": 67483702415281,
      "time_usec": 67483702415
    },
    {
      "frame_id": 113,
      "sensor_timestamp": 67483735661863,
      "time_usec": 67483735661
    },
    {
      "frame_id": 114,
      "sensor_timestamp": 67483768908200,
      "time_usec": 67483768908
    },
    {
      "frame_id": 115,
      "sensor_timestamp": 67483802154538,
      "time_usec": 67483802154
    },
    {
      "frame_id": 116,
      "sensor_timestamp": 67483835400876,
      "time_usec": 67483835400
    },
    {
      "frame_id": 117,
      "sensor_timestamp": 67483868647214,
      "time_usec": 67483868647
    },
    {
      "frame_id": 118,
      "sensor_timestamp": 67483901893796,
      "time_usec": 67483901893
    },
    {
      "frame_id": 119,
      "sensor_timestamp": 67483935140134,
      "time_usec": 67483935140
    },
    {
      "frame_id": 120,
      "sensor_timestamp": 67483968386472,
      "time_usec": 67483968386
    },
    {
      "frame_id": 121,
      "sensor_timestamp": 67484001632810,
      "time_usec": 67484001632
    },
    {
      "frame_id": 122,
      "sensor_timestamp": 67484034879392,
      "time_usec": 67484034879
    },
    {
      "frame_id": 123,
      "sensor_timestamp": 67484068125730,
      "time_usec": 67484068125
    },
    {
      "frame_id": 124,
      "sensor_timestamp": 67484101372068,
      "time_usec": 67484101372
    },
    {
      "frame_id": 125,
      "sensor_timestamp": 67484134618406,
      "time_usec": 67484134618
    },
    {
      "frame_id": 126,
      "sensor_timestamp": 67484167864988,
      "time_usec": 67484167864
    },
    {
      "frame_id": 127,
      "sensor_timestamp": 67484201111325,
      "time_usec": 67484201111
    },
    {
      "frame_id": 128,
      "sensor_timestamp": 67484234357663,
      "time_usec": 67484234357
    },
    {
      "frame_id": 129,
      "sensor_timestamp": 67484267604001,
      "time_usec": 67484267604
    },
    {
      "frame_id": 130,
      "sensor_timestamp": 67484300850583,
      "time_usec": 67484300850
    },
    {
      "frame_id": 131,
      "sensor_timestamp": 67484334096921,
      "time_usec": 67484334096
    },
    {
      "frame_id": 132,
      "sensor_timestamp": 67484367343259,
      "time_usec": 67484367343
    },
    {
      "frame_id": 133,
      "sensor_timestamp": 67484400589597,
      "time_usec": 67484400589
    },
    {
      "frame_id": 134,
      "sensor_timestamp": 67484433836179,
      "time_usec": 67484433836
    },
    {
      "frame_id": 135,
      "sensor_timestamp": 67484467082517,
      "time_usec": 67484467082
    },
    {
      "frame_id": 136,
      "sensor_timestamp": 67484500328855,
      "time_usec": 67484500328
    },
    {
      "frame_id": 137,
      "sensor_timestamp": 67484533575193,
      "time_usec": 67484533575
    },
    {
      "frame_id": 138,
      "sensor_timestamp": 67484566821775,
      "time_usec": 67484566821
    },
    {
      "frame_id": 139,
      "sensor_timestamp": 67484600068113,
      "time_usec": 67484600068
    },
    {
      "frame_id": 140,
      "sensor_timestamp": 67484633314450,
      "time_usec": 67484633314
    },
    {
      "frame_id": 141,
      "sensor_timestamp": 67484666560788,
      "time_usec": 67484666560
    },
    {
      "frame_id": 142,
      "sensor_timestamp": 67484699807370,
      "time_usec": 67484699807
    },
    {
      "frame_id": 143,
      "sensor_timestamp": 67484733053708,
      "time_usec": 67484733053
    },
    {
      "frame_id": 144,
      "sensor_timestamp": 67484766300046,
      "time_usec": 67484766300
    },
    {
      "frame_id": 145,
      "sensor_timestamp": 67484799546384,
      "time_usec": 67484799546
    },
    {
      "frame_id": 146,
      "sensor_timestamp": 67484832792966,
      "time_usec": 67484832792
    },
    {
      "frame_id": 147,
      "sensor_timestamp": 67484866039304,
      "time_usec": 67484866039
    },
    {
      "frame_id": 148,
      "sensor_timestamp": 67484899285642,
      "time_usec": 67484899285
    },
    {
      "frame_id": 149,
      "sensor_timestamp": 67484932531980,
      "time_usec": 67484932531
    },
    {
      "frame_id": 150,
      "sensor_timestamp": 67484965778562,
      "time_usec": 67484965778
    },
    {
      "frame_id": 151,
      "sensor_timestamp": 67484999024900,
      "time_usec": 67484999024
    },
    {
      "frame_id": 152,
      "sensor_timestamp": 67485032271238,
      "time_usec": 67485032271
    },
    {
      "frame_id": 153,
      "sensor_timestamp": 67485065517575,
      "time_usec": 67485065517
    },
    {
      "frame_id": 154,
      "sensor_timestamp": 67485098763913,
      "time_usec": 67485098763
    },
    {
      "frame_id": 155,
      "sensor_timestamp": 67485131951838,
      "time_usec": 67485131951
    },
    {
      "frame_id": 156,
      "sensor_timestamp": 67485165256833,
      "time_usec": 67485165256
    },
    {
      "frame_id": 157,
      "sensor_timestamp": 67485198503171,
      "time_usec": 67485198503
    },
    {
      "frame_id": 158,
      "sensor_timestamp": 67485231749509,
      "time_usec": 67485231749
    },
    {
      "frame_id": 159,
      "sensor_timestamp": 67485264996091,
      "time_usec": 67485264996
    },
    {
      "frame_id": 160,
      "sensor_timestamp": 67485298242429,
      "time_usec": 67485298242
    },
    {
      "frame_id": 161,
      "sensor_timestamp": 67485331488767,
      "time_usec": 67485331488
    },
    {
      "frame_id": 162,
      "sensor_timestamp": 67485364735105,
      "time_usec": 67485364735
    },
    {
      "frame_id": 163,
      "sensor_timestamp": 67485397981687,
      "time_usec": 67485397981
    },
    {
      "frame_id": 164,
      "sensor_timestamp": 67485431228025,
      "time_usec": 67485431228
    },
    {
      "frame_id": 165,
      "sensor_timestamp": 67485464474363,
      "time_usec": 67485464474
    },
    {
      "frame_id": 166,
      "sensor_timestamp": 67485497720700,
      "time_usec": 67485497720
    },
    {
      "frame_id": 167,
      "sensor_timestamp": 67485530967283,
      "time_usec": 67485530967
    },
    {
      "frame_id": 168,
      "sensor_timestamp": 67485564213620,
      "time_usec": 67485564213
    },
    {
      "frame_id": 169,
      "sensor_timestamp": 67485597459958,
      "time_usec": 67485597459
    },
    {
      "frame_id": 170,
      "sensor_timestamp": 67485630706296,
      "time_usec": 67485630706
    },
    {
      "frame_id": 171,
      "sensor_timestamp": 67485663952878,
      "time_usec": 67485663952
    },
    {
      "frame_id": 172,
      "sensor_timestamp": 67485697199216,
      "time_usec": 67485697199
    },
    {
      "frame_id": 173,
      "sensor_timestamp": 67485730445554,
      "time_usec": 67485730445
    },
    {
      "frame_id": 174,
      "sensor_timestamp": 67485763691892,
      "time_usec": 67485763691
    },
    {
      "frame_id": 175,
      "sensor_timestamp": 67485796938474,
      "time_usec": 67485796938
    },
    {
      "frame_id": 176,
      "sensor_timestamp": 67485830184812,
      "time_usec": 67485830184
    },
    {
      "frame_id": 177,
      "sensor_timestamp": 67485863431150,
      "time_usec": 67485863431
    },
    {
      "frame_id": 178,
      "sensor_timestamp": 67485896677488,
      "time_usec": 67485896677
    },
    {
      "frame_id": 179,
      "sensor_timestamp": 67485929924070,
      "time_usec": 67485929924
    },
    {
      "frame_id": 180,
      "sensor_timestamp": 67485963170408,
      "time_usec": 67485963170
    },
    {
      "frame_id": 181,
      "sensor_timestamp": 67485996416745,
      "time_usec": 67485996416
    },
    {
      "frame_id": 182,
      "sensor_timestamp": 67486029663083,
      "time_usec": 67486029663
    },
    {
      "frame_id": 183,
      "sensor_timestamp": 67486062909665,
      "time_usec": 67486062909
    },
    {
      "frame_id": 184,
      "sensor_timestamp": 67486096156003,
      "time_usec": 67486096156
    },
    {
      "frame_id": 185,
      "sensor_timestamp": 67486129402341,
      "time_usec": 67486129402
    },
    {
      "frame_id": 186,
      "sensor_timestamp": 67486162648679,
      "time_usec": 67486162648
    },
    {
      "frame_id": 187,
      "sensor_timestamp": 67486195895261,
      "time_usec": 67486195895
    },
    {
      "frame_id": 188,
      "sensor_timestamp": 67486229141599,
      "time_usec": 67486229141
    },
    {
      "frame_id": 189,
      "sensor_timestamp": 67486262387937,
      "time_usec": 67486262387
    },
    {
      "frame_id": 190,
      "sensor_timestamp": 67486295634275,
      "time_usec": 67486295634
    },
    {
      "frame_id": 191,
      "sensor_timestamp": 67486328880613,
      "time_usec": 67486328880
    },
    {
      "frame_id": 192,
      "sensor_timestamp": 67486362127195,
      "time_usec": 67486362127
    },
    {
      "frame_id": 193,
      "sensor_timestamp": 67486395373533,
      "time_usec": 67486395373
    },
    {
      "frame_id": 194,
      "sensor_timestamp": 67486428619870,
      "time_usec": 67486428619
    },
    {
      "frame_id": 195,
      "sensor_timestamp": 67486461866208,
      "time_usec": 67486461866
    },
    {
      "frame_id": 196,
      "sensor_timestamp": 67486495112790,
      "time_usec": 67486495112
    },
    {
      "frame_id": 197,
      "sensor_timestamp": 67486528359128,
      "time_usec": 67486528359
    },
    {
      "frame_id": 198,
      "sensor_timestamp": 67486561605466,
      "time_usec": 67486561605
    },
    {
      "frame_id": 199,
      "sensor_timestamp": 67486594851804,
      "time_usec": 67486594851
    },
    {
      "frame_id": 200,
      "sensor_timestamp": 67486628098386,
      "time_usec": 67486628098
    },
    {
      "frame_id": 201,
      "sensor_timestamp": 67486661344724,
      "time_usec": 67486661344
    },
    {
      "frame_id": 202,
      "sensor_timestamp": 67486694591062,
      "time_usec": 67486694591
    },
    {
      "frame_id": 203,
      "sensor_timestamp": 67486727837400,
      "time_usec": 67486727837
    },
    {
      "frame_id": 204,
      "sensor_timestamp": 67486761083982,
      "time_usec": 67486761083
    },
    {
      "frame_id": 205,
      "sensor_timestamp": 67486794330320,
      "time_usec": 67486794330
    },
    {
      "frame_id": 206,
      "sensor_timestamp": 67486827576658,
      "time_usec": 67486827576
    },
    {
      "frame_id": 207,
      "sensor_timestamp": 67486860822995,
      "time_usec": 67486860822
    },
    {
      "frame_id": 208,
      "sensor_timestamp": 67486894071305,
      "time_usec": 67486894071
    },
    {
      "frame_id": 209,
      "sensor_timestamp": 67486927315915,
      "time_usec": 67486927315
    },
    {
      "frame_id": 210,
      "sensor_timestamp": 67486960562253,
      "time_usec": 67486960562
    },
    {
      "frame_id": 211,
      "sensor_timestamp": 67486993766862,
      "time_usec": 67486993766
    },
    {
      "frame_id": 212,
      "sensor_timestamp": 67487027055173,
      "time_usec": 67487027055
    },
    {
      "frame_id": 213,
      "sensor_timestamp": 67487060301511,
      "time_usec": 67487060301
    },
    {
      "frame_id": 214,
      "sensor_timestamp": 67487093547849,
      "time_usec": 67487093547
    },
    {
      "frame_id": 215,
      "sensor_timestamp": 67487126794187,
      "time_usec": 67487126794
    },
    {
      "frame_id": 216,
      "sensor_timestamp": 67487160040769,
      "time_usec": 67487160040
    },
    {
      "frame_id": 217,
      "sensor_timestamp": 67487193287107,
      "time_usec": 67487193287
    },
    {
      "frame_id": 218,
      "sensor_timestamp": 67487226533445,
      "time_usec": 67487226533
    },
    {
      "frame_id": 219,
      "sensor_timestamp": 67487259779783,
      "time_usec": 67487259779
    },
    {
      "frame_id": 220,
      "sensor_timestamp": 67487293026365,
      "time_usec": 67487293026
    },
    {
      "frame_id": 221,
      "sensor_timestamp": 67487326272702,
      "time_usec": 67487326272
    },
    {
      "frame_id": 222,
      "sensor_timestamp": 67487359519040,
      "time_usec": 67487359519
    },
    {
      "frame_id": 223,
      "sensor_timestamp": 67487392765378,
      "time_usec": 67487392765
    },
    {
      "frame_id": 224,
      "sensor_timestamp": 67487426011960,
      "time_usec": 67487426011
    },
    {
      "frame_id": 225,
      "sensor_timestamp": 67487459258298,
      "time_usec": 67487459258
    },
    {
      "frame_id": 226,
      "sensor_timestamp": 67487492504636,
      "time_usec": 67487492504
    },
    {
      "frame_id": 227,
      "sensor_timestamp": 67487525750974,
      "time_usec": 67487525750
    },
    {
      "frame_id": 228,
      "sensor_timestamp": 67487558997312,
      "time_usec": 67487558997
    },
    {
      "frame_id": 229,
      "sensor_timestamp": 67487592243894,
      "time_usec": 67487592243
    },
    {
      "frame_id": 230,
      "sensor_timestamp": 67487625490232,
      "time_usec": 67487625490
    },
    {
      "frame_id": 231,
      "sensor_timestamp": 67487658736570,
      "time_usec": 67487658736
    },
    {
      "frame_id": 232,
      "sensor_timestamp": 67487691982908,
      "time_usec": 67487691982
    },
    {
      "frame_id": 233,
      "sensor_timestamp": 67487725229490,
      "time_usec": 67487725229
    },
    {
      "frame_id": 234,
      "sensor_timestamp": 67487758475827,
      "time_usec": 67487758475
    },
    {
      "frame_id": 235,
      "sensor_timestamp": 67487791722165,
      "time_usec": 67487791722
    },
    {
      "frame_id": 236,
      "sensor_timestamp": 67487824968503,
      "time_usec": 67487824968
    },
    {
      "frame_id": 237,
      "sensor_timestamp": 67487858215085,
      "time_usec": 67487858215
    },
    {
      "frame_id": 238,
      "sensor_timestamp": 67487891461423,
      "time_usec": 67487891461
    },
    {
      "frame_id": 239,
      "sensor_timestamp": 67487924707761,
      "time_usec": 67487924707
    },
    {
      "frame_id": 240,
      "sensor_timestamp": 67487957954099,
      "time_usec": 67487957954
    },
    {
      "frame_id": 241,
      "sensor_timestamp": 67487991200681,
      "time_usec": 67487991200
    },
    {
      "frame_id": 242,
      "sensor_timestamp": 67488024447019,
      "time_usec": 67488024447
    },
    {
      "frame_id": 243,
      "sensor_timestamp": 67488057693357,
      "time_usec": 67488057693
    },
    {
      "frame_id": 244,
      "sensor_timestamp": 67488090939695,
      "time_usec": 67488090939
    },
    {
      "frame_id": 245,
      "sensor_timestamp": 67488124186277,
      "time_usec": 67488124186
    },
    {
      "frame_id": 246,
      "sensor_timestamp": 67488157432615,
      "time_usec": 67488157432
    },
    {
      "frame_id": 247,
      "sensor_timestamp": 67488190678952,
      "time_usec": 67488190678
    },
    {
      "frame_id": 248,
      "sensor_timestamp": 67488223925290,
      "time_usec": 67488223925
    },
    {
      "frame_id": 249,
      "sensor_timestamp": 67488257171872,
      "time_usec": 67488257171
    },
    {
      "frame_id": 250,
      "sensor_timestamp": 67488290418210,
      "time_usec": 67488290418
    },
    {
      "frame_id": 251,
      "sensor_timestamp": 67488323664548,
      "time_usec": 67488323664
    },
    {
      "frame_id": 252,
      "sensor_timestamp": 67488356910886,
      "time_usec": 67488356910
    },
    {
      "frame_id": 253,
      "sensor_timestamp": 67488390157468,
      "time_usec": 67488390157
    },
    {
      "frame_id": 254,
      "sensor_timestamp": 67488423403806,
      "time_usec": 67488423403
    },
    {
      "frame_id": 255,
      "sensor_timestamp": 67488456650144,
      "time_usec": 67488456650
    },
    {
      "frame_id": 256,
      "sensor_timestamp": 67488489896482,
      "time_usec": 67488489896
    },
    {
      "frame_id": 257,
      "sensor_timestamp": 67488523143064,
      "time_usec": 67488523143
    },
    {
      "frame_id": 258,
      "sensor_timestamp": 67488556389402,
      "time_usec": 67488556389
    },
    {
      "frame_id": 259,
      "sensor_timestamp": 67488589635740,
      "time_usec": 67488589635
    },
    {
      "frame_id": 260,
      "sensor_timestamp": 67488622882077,
      "time_usec": 67488622882
    },
    {
      "frame_id": 261,
      "sensor_timestamp": 67488656128659,
      "time_usec": 67488656128
    },
    {
      "frame_id": 262,
      "sensor_timestamp": 67488689374997,
      "time_usec": 67488689374
    },
    {
      "frame_id": 263,
      "sensor_timestamp": 67488722621335,
      "time_usec": 67488722621
    },
    {
      "frame_id": 264,
      "sensor_timestamp": 67488755867673,
      "time_usec": 67488755867
    },
    {
      "frame_id": 265,
      "sensor_timestamp": 67488789114011,
      "time_usec": 67488789114
    },
    {
      "frame_id": 266,
      "sensor_timestamp": 67488822360593,
      "time_usec": 67488822360
    },
    {
      "frame_id": 267,
      "sensor_timestamp": 67488855606931,
      "time_usec": 67488855606
    },
    {
      "frame_id": 268,
      "sensor_timestamp": 67488888853269,
      "time_usec": 67488888853
    },
    {
      "frame_id": 269,
      "sensor_timestamp": 67488922099607,
      "time_usec": 67488922099
    },
    {
      "frame_id": 270,
      "sensor_timestamp": 67488955346189,
      "time_usec": 67488955346
    },
    {
      "frame_id": 271,
      "sensor_timestamp": 67488988592527,
      "time_usec": 67488988592
    },
    {
      "frame_id": 272,
      "sensor_timestamp": 67489021838865,
      "time_usec": 67489021838
    },
    {
      "frame_id": 273,
      "sensor_timestamp": 67489055085202,
      "time_usec": 67489055085
    },
    {
      "frame_id": 274,
      "sensor_timestamp": 67489088331784,
      "time_usec": 67489088331
    },
    {
      "frame_id": 275,
      "sensor_timestamp": 67489121578122,
      "time_usec": 67489121578
    },
    {
      "frame_id": 276,
      "sensor_timestamp": 67489154824460,
      "time_usec": 67489154824
    },
    {
      "frame_id": 277,
      "sensor_timestamp": 67489188070798,
      "time_usec": 67489188070
    },
    {
      "frame_id": 278,
      "sensor_timestamp": 67489221317380,
      "time_usec": 67489221317
    },
    {
      "frame_id": 279,
      "sensor_timestamp": 67489254563718,
      "time_usec": 67489254563
    },
    {
      "frame_id": 280,
      "sensor_timestamp": 67489287810056,
      "time_usec": 67489287810
    },
    {
      "frame_id": 281,
      "sensor_timestamp": 67489321056394,
      "time_usec": 67489321056
    },
    {
      "frame_id": 282,
      "sensor_timestamp": 67489354302976,
      "time_usec": 67489354302
    },
    {
      "frame_id": 283,
      "sensor_timestamp": 67489387549314,
      "time_usec": 67489387549
    },
    {
      "frame_id": 284,
      "sensor_timestamp": 67489420795652,
      "time_usec": 67489420795
    },
    {
      "frame_id": 285,
      "sensor_timestamp": 67489454041990,
      "time_usec": 67489454041
    },
    {
      "frame_id": 286,
      "sensor_timestamp": 67489487288572,
      "time_usec": 67489487288
    },
    {
      "frame_id": 287,
      "sensor_timestamp": 67489520534909,
      "time_usec": 67489520534
    },
    {
      "frame_id": 288,
      "sensor_timestamp": 67489553781247,
      "time_usec": 67489553781
    },
    {
      "frame_id": 289,
      "sensor_timestamp": 67489587027585,
      "time_usec": 67489587027
    },
    {
      "frame_id": 290,
      "sensor_timestamp": 67489620274167,
      "time_usec": 67489620274
    },
    {
      "frame_id": 291,
      "sensor_timestamp": 67489653520505,
      "time_usec": 67489653520
    },
    {
      "frame_id": 292,
      "sensor_timestamp": 67489686766843,
      "time_usec": 67489686766
    },
    {
      "frame_id": 293,
      "sensor_timestamp": 67489720013181,
      "time_usec": 67489720013
    },
    {
      "frame_id": 294,
      "sensor_timestamp": 67489753259763,
      "time_usec": 67489753259
    },
    {
      "frame_id": 295,
      "sensor_timestamp": 67489786506101,
      "time_usec": 67489786506
    },
    {
      "frame_id": 296,
      "sensor_timestamp": 67489819752439,
      "time_usec": 67489819752
    },
    {
      "frame_id": 297,
      "sensor_timestamp": 67489852998777,
      "time_usec": 67489852998
    },
    {
      "frame_id": 298,
      "sensor_timestamp": 67489886245115,
      "time_usec": 67489886245
    },
    {
      "frame_id": 299,
      "sensor_timestamp": 67489919491697,
      "time_usec": 67489919491
    },
    {
      "frame_id": 300,
      "sensor_timestamp": 67489952738034,
      "time_usec": 67489952738
    },
    {
      "frame_id": 301,
      "sensor_timestamp": 67489985984372,
      "time_usec": 67489985984
    },
    {
      "frame_id": 302,
      "sensor_timestamp": 67490019230710,
      "time_usec": 67490019230
    },
    {
      "frame_id": 303,
      "sensor_timestamp": 67490052477292,
      "time_usec": 67490052477
    },
    {
      "frame_id": 304,
      "sensor_timestamp": 67490085723630,
      "time_usec": 67490085723
    },
    {
      "frame_id": 305,
      "sensor_timestamp": 67490118969968,
      "time_usec": 67490118969
    },
    {
      "frame_id": 306,
      "sensor_timestamp": 67490152216306,
      "time_usec": 67490152216
    },
    {
      "frame_id": 307,
      "sensor_timestamp": 67490185462888,
      "time_usec": 67490185462
    },
    {
      "frame_id": 308,
      "sensor_timestamp": 67490218709226,
      "time_usec": 67490218709
    },
    {
      "frame_id": 309,
      "sensor_timestamp": 67490251955564,
      "time_usec": 67490251955
    },
    {
      "frame_id": 310,
      "sensor_timestamp": 67490285201902,
      "time_usec": 67490285201
    },
    {
      "frame_id": 311,
      "sensor_timestamp": 67490318448484,
      "time_usec": 67490318448
    },
    {
      "frame_id": 312,
      "sensor_timestamp": 67490351694822,
      "time_usec": 67490351694
    },
    {
      "frame_id": 313,
      "sensor_timestamp": 67490384941159,
      "time_usec": 67490384941
    },
    {
      "frame_id": 314,
      "sensor_timestamp": 67490418187497,
      "time_usec": 67490418187
    },
    {
      "frame_id": 315,
      "sensor_timestamp": 67490451434079,
      "time_usec": 67490451434
    },
    {
      "frame_id": 316,
      "sensor_timestamp": 67490484680417,
      "time_usec": 67490484680
    },
    {
      "frame_id": 317,
      "sensor_timestamp": 67490517926755,
      "time_usec": 67490517926
    },
    {
      "frame_id": 318,
      "sensor_timestamp": 67490551173093,
      "time_usec": 67490551173
    },
    {
      "frame_id": 319,
      "sensor_timestamp": 67490584419675,
      "time_usec": 67490584419
    },
    {
      "frame_id": 320,
      "sensor_timestamp": 67490617666013,
      "time_usec": 67490617666
    },
    {
      "frame_id": 321,
      "sensor_timestamp": 67490650912351,
      "time_usec": 67490650912
    },
    {
      "frame_id": 322,
      "sensor_timestamp": 67490684158689,
      "time_usec": 67490684158
    },
    {
      "frame_id": 323,
      "sensor_timestamp": 67490717405271,
      "time_usec": 67490717405
    },
    {
      "frame_id": 324,
      "sensor_timestamp": 67490750651609,
      "time_usec": 67490750651
    },
    {
      "frame_id": 325,
      "sensor_timestamp": 67490783897947,
      "time_usec": 67490783897
    },
    {
      "frame_id": 326,
      "sensor_timestamp": 67490817144284,
      "time_usec": 67490817144
    },
    {
      "frame_id": 327,
      "sensor_timestamp": 67490850390867,
      "time_usec": 67490850390
    },
    {
      "frame_id": 328,
      "sensor_timestamp": 67490883637204,
      "time_usec": 67490883637
    },
    {
      "frame_id": 329,
      "sensor_timestamp": 67490916883542,
      "time_usec": 67490916883
    },
    {
      "frame_id": 330,
      "sensor_timestamp": 67490950129880,
      "time_usec": 67490950129
    },
    {
      "frame_id": 331,
      "sensor_timestamp": 67490983376462,
      "time_usec": 67490983376
    },
    {
      "frame_id": 332,
      "sensor_timestamp": 67491016622800,
      "time_usec": 67491016622
    },
    {
      "frame_id": 333,
      "sensor_timestamp": 67491049869138,
      "time_usec": 67491049869
    },
    {
      "frame_id": 334,
      "sensor_timestamp": 67491083115476,
      "time_usec": 67491083115
    },
    {
      "frame_id": 335,
      "sensor_timestamp": 67491116361814,
      "time_usec": 67491116361
    },
    {
      "frame_id": 336,
      "sensor_timestamp": 67491149608396,
      "time_usec": 67491149608
    },
    {
      "frame_id": 337,
      "sensor_timestamp": 67491182854734,
      "time_usec": 67491182854
    },
    {
      "frame_id": 338,
      "sensor_timestamp": 67491216101072,
      "time_usec": 67491216101
    },
    {
      "frame_id": 339,
      "sensor_timestamp": 67491249347409,
      "time_usec": 67491249347
    },
    {
      "frame_id": 340,
      "sensor_timestamp": 67491282593992,
      "time_usec": 67491282593
    },
    {
      "frame_id": 341,
      "sensor_timestamp": 67491315840329,
      "time_usec": 67491315840
    },
    {
      "frame_id": 342,
      "sensor_timestamp": 67491349086667,
      "time_usec": 67491349086
    },
    {
      "frame_id": 343,
      "sensor_timestamp": 67491382333005,
      "time_usec": 67491382333
    },
    {
      "frame_id": 344,
      "sensor_timestamp": 67491415579587,
      "time_usec": 67491415579
    },
    {
      "frame_id": 345,
      "sensor_timestamp": 67491448825925,
      "time_usec": 67491448825
    },
    {
      "frame_id": 346,
      "sensor_timestamp": 67491482072263,
      "time_usec": 67491482072
    },
    {
      "frame_id": 347,
      "sensor_timestamp": 67491515318601,
      "time_usec": 67491515318
    },
    {
      "frame_id": 348,
      "sensor_timestamp": 67491548565183,
      "time_usec": 67491548565
    },
    {
      "frame_id": 349,
      "sensor_timestamp": 67491581811521,
      "time_usec": 67491581811
    },
    {
      "frame_id": 350,
      "sensor_timestamp": 67491615057859,
      "time_usec": 67491615057
    },
    {
      "frame_id": 351,
      "sensor_timestamp": 67491648304197,
      "time_usec": 67491648304
    },
    {
      "frame_id": 352,
      "sensor_timestamp": 67491681550779,
      "time_usec": 67491681550
    },
    {
      "frame_id": 353,
      "sensor_timestamp": 67491714797117,
      "time_usec": 67491714797
    },
    {
      "frame_id": 354,
      "sensor_timestamp": 67491748043454,
      "time_usec": 67491748043
    },
    {
      "frame_id": 355,
      "sensor_timestamp": 67491781289792,
      "time_usec": 67491781289
    },
    {
      "frame_id": 356,
      "sensor_timestamp": 67491814536374,
      "time_usec": 67491814536
    },
    {
      "frame_id": 357,
      "sensor_timestamp": 67491847782712,
      "time_usec": 67491847782
    },
    {
      "frame_id": 358,
      "sensor_timestamp": 67491881029050,
      "time_usec": 67491881029
    },
    {
      "frame_id": 359,
      "sensor_timestamp": 67491914275388,
      "time_usec": 67491914275
    },
    {
      "frame_id": 360,
      "sensor_timestamp": 67491947521970,
      "time_usec": 67491947521
    },
    {
      "frame_id": 361,
      "sensor_timestamp": 67491980768308,
      "time_usec": 67491980768
    },
    {
      "frame_id": 362,
      "sensor_timestamp": 67492014014646,
      "time_usec": 67492014014
    },
    {
      "frame_id": 363,
      "sensor_timestamp": 67492047260984,
      "time_usec": 67492047260
    },
    {
      "frame_id": 364,
      "sensor_timestamp": 67492080507566,
      "time_usec": 67492080507
    },
    {
      "frame_id": 365,
      "sensor_timestamp": 67492113753904,
      "time_usec": 67492113753
    },
    {
      "frame_id": 366,
      "sensor_timestamp": 67492147000242,
      "time_usec": 67492147000
    },
    {
      "frame_id": 367,
      "sensor_timestamp": 67492180246579,
      "time_usec": 67492180246
    },
    {
      "frame_id": 368,
      "sensor_timestamp": 67492213493161,
      "time_usec": 67492213493
    },
    {
      "frame_id": 369,
      "sensor_timestamp": 67492246739499,
      "time_usec": 67492246739
    },
    {
      "frame_id": 370,
      "sensor_timestamp": 67492279985837,
      "time_usec": 67492279985
    },
    {
      "frame_id": 371,
      "sensor_timestamp": 67492313187600,
      "time_usec": 67492313187
    },
    {
      "frame_id": 372,
      "sensor_timestamp": 67492346478513,
      "time_usec": 67492346478
    },
    {
      "frame_id": 373,
      "sensor_timestamp": 67492379725095,
      "time_usec": 67492379725
    },
    {
      "frame_id": 374,
      "sensor_timestamp": 67492412971433,
      "time_usec": 67492412971
    },
    {
      "frame_id": 375,
      "sensor_timestamp": 67492446217771,
      "time_usec": 67492446217
    },
    {
      "frame_id": 376,
      "sensor_timestamp": 67492479464109,
      "time_usec": 67492479464
    },
    {
      "frame_id": 377,
      "sensor_timestamp": 67492512710691,
      "time_usec": 67492512710
    },
    {
      "frame_id": 378,
      "sensor_timestamp": 67492545957029,
      "time_usec": 67492545957
    },
    {
      "frame_id": 379,
      "sensor_timestamp": 67492579203367,
      "time_usec": 67492579203
    },
    {
      "frame_id": 380,
      "sensor_timestamp": 67492612449704,
      "time_usec": 67492612449
    },
    {
      "frame_id": 381,
      "sensor_timestamp": 67492645696286,
      "time_usec": 67492645696
    },
    {
      "frame_id": 382,
      "sensor_timestamp": 67492678942624,
      "time_usec": 67492678942
    },
    {
      "frame_id": 383,
      "sensor_timestamp": 67492712188962,
      "time_usec": 67492712188
    },
    {
      "frame_id": 384,
      "sensor_timestamp": 67492745435300,
      "time_usec": 67492745435
    },
    {
      "frame_id": 385,
      "sensor_timestamp": 67492778681882,
      "time_usec": 67492778681
    },
    {
      "frame_id": 386,
      "sensor_timestamp": 67492811928220,
      "time_usec": 67492811928
    },
    {
      "frame_id": 387,
      "sensor_timestamp": 67492845174558,
      "time_usec": 67492845174
    },
    {
      "frame_id": 388,
      "sensor_timestamp": 67492878420896,
      "time_usec": 67492878420
    },
    {
      "frame_id": 389,
      "sensor_timestamp": 67492911667478,
      "time_usec": 67492911667
    },
    {
      "frame_id": 390,
      "sensor_timestamp": 67492944913816,
      "time_usec": 67492944913
    },
    {
      "frame_id": 391,
      "sensor_timestamp": 67492978160154,
      "time_usec": 67492978160
    },
    {
      "frame_id": 392,
      "sensor_timestamp": 67493011406492,
      "time_usec": 67493011406
    },
    {
      "frame_id": 393,
      "sensor_timestamp": 67493044653074,
      "time_usec": 67493044653
    },
    {
      "frame_id": 394,
      "sensor_timestamp": 67493077899411,
      "time_usec": 67493077899
    },
    {
      "frame_id": 395,
      "sensor_timestamp": 67493111145749,
      "time_usec": 67493111145
    },
    {
      "frame_id": 396,
      "sensor_timestamp": 67493144392087,
      "time_usec": 67493144392
    },
    {
      "frame_id": 397,
      "sensor_timestamp": 67493177638669,
      "time_usec": 67493177638
    },
    {
      "frame_id": 398,
      "sensor_timestamp": 67493210885007,
      "time_usec": 67493210885
    },
    {
      "frame_id": 399,
      "sensor_timestamp": 67493244131345,
      "time_usec": 67493244131
    },
    {
      "frame_id": 400,
      "sensor_timestamp": 67493277377683,
      "time_usec": 67493277377
    },
    {
      "frame_id": 401,
      "sensor_timestamp": 67493310624265,
      "time_usec": 67493310624
    },
    {
      "frame_id": 402,
      "sensor_timestamp": 67493343870603,
      "time_usec": 67493343870
    },
    {
      "frame_id": 403,
      "sensor_timestamp": 67493377116941,
      "time_usec": 67493377116
    },
    {
      "frame_id": 404,
      "sensor_timestamp": 67493410363279,
      "time_usec": 67493410363
    },
    {
      "frame_id": 405,
      "sensor_timestamp": 67493443609861,
      "time_usec": 67493443609
    },
    {
      "frame_id": 406,
      "sensor_timestamp": 67493476856199,
      "time_usec": 67493476856
    },
    {
      "frame_id": 407,
      "sensor_timestamp": 67493510102536,
      "time_usec": 67493510102
    },
    {
      "frame_id": 408,
      "sensor_timestamp": 67493543348874,
      "time_usec": 67493543348
    },
    {
      "frame_id": 409,
      "sensor_timestamp": 67493576595212,
      "time_usec": 67493576595
    },
    {
      "frame_id": 410,
      "sensor_timestamp": 67493609841794,
      "time_usec": 67493609841
    },
    {
      "frame_id": 411,
      "sensor_timestamp": 67493643088132,
      "time_usec": 67493643088
    },
    {
      "frame_id": 412,
      "sensor_timestamp": 67493676334470,
      "time_usec": 67493676334
    },
    {
      "frame_id": 413,
      "sensor_timestamp": 67493709580808,
      "time_usec": 67493709580
    },
    {
      "frame_id": 414,
      "sensor_timestamp": 67493742827390,
      "time_usec": 67493742827
    },
    {
      "frame_id": 415,
      "sensor_timestamp": 67493776073728,
      "time_usec": 67493776073
    },
    {
      "frame_id": 416,
      "sensor_timestamp": 67493809320066,
      "time_usec": 67493809320
    },
    {
      "frame_id": 417,
      "sensor_timestamp": 67493842566404,
      "time_usec": 67493842566
    },
    {
      "frame_id": 418,
      "sensor_timestamp": 67493875812986,
      "time_usec": 67493875812
    },
    {
      "frame_id": 419,
      "sensor_timestamp": 67493909059324,
      "time_usec": 67493909059
    },
    {
      "frame_id": 420,
      "sensor_timestamp": 67493942305661,
      "time_usec": 67493942305
    },
    {
      "frame_id": 421,
      "sensor_timestamp": 67493975551999,
      "time_usec": 67493975551
    },
    {
      "frame_id": 422,
      "sensor_timestamp": 67494008798581,
      "time_usec": 67494008798
    },
    {
      "frame_id": 423,
      "sensor_timestamp": 67494042044919,
      "time_usec": 67494042044
    },
    {
      "frame_id": 424,
      "sensor_timestamp": 67494075291257,
      "time_usec": 67494075291
    },
    {
      "frame_id": 425,
      "sensor_timestamp": 67494108537595,
      "time_usec": 67494108537
    },
    {
      "frame_id": 426,
      "sensor_timestamp": 67494141784177,
      "time_usec": 67494141784
    },
    {
      "frame_id": 427,
      "sensor_timestamp": 67494175030515,
      "time_usec": 67494175030
    },
    {
      "frame_id": 428,
      "sensor_timestamp": 67494208276853,
      "time_usec": 67494208276
    },
    {
      "frame_id": 429,
      "sensor_timestamp": 67494241523191,
      "time_usec": 67494241523
    },
    {
      "frame_id": 430,
      "sensor_timestamp": 67494274769773,
      "time_usec": 67494274769
    },
    {
      "frame_id": 431,
      "sensor_timestamp": 67494308016111,
      "time_usec": 67494308016
    },
    {
      "frame_id": 432,
      "sensor_timestamp": 67494341262449,
      "time_usec": 67494341262
    },
    {
      "frame_id": 433,
      "sensor_timestamp": 67494374508786,
      "time_usec": 67494374508
    },
    {
      "frame_id": 434,
      "sensor_timestamp": 67494407755368,
      "time_usec": 67494407755
    },
    {
      "frame_id": 435,
      "sensor_timestamp": 67494441001706,
      "time_usec": 67494441001
    },
    {
      "frame_id": 436,
      "sensor_timestamp": 67494474248044,
      "time_usec": 67494474248
    },
    {
      "frame_id": 437,
      "sensor_timestamp": 67494507494382,
      "time_usec": 67494507494
    },
    {
      "frame_id": 438,
      "sensor_timestamp": 67494540740964,
      "time_usec": 67494540740
    },
    {
      "frame_id": 439,
      "sensor_timestamp": 67494573987302,
      "time_usec": 67494573987
    },
    {
      "frame_id": 440,
      "sensor_timestamp": 67494607233640,
      "time_usec": 67494607233
    },
    {
      "frame_id": 441,
      "sensor_timestamp": 67494640479978,
      "time_usec": 67494640479
    },
    {
      "frame_id": 442,
      "sensor_timestamp": 67494673726316,
      "time_usec": 67494673726
    },
    {
      "frame_id": 443,
      "sensor_timestamp": 67494706972898,
      "time_usec": 67494706972
    },
    {
      "frame_id": 444,
      "sensor_timestamp": 67494740219236,
      "time_usec": 67494740219
    },
    {
      "frame_id": 445,
      "sensor_timestamp": 67494773465574,
      "time_usec": 67494773465
    },
    {
      "frame_id": 446,
      "sensor_timestamp": 67494806711911,
      "time_usec": 67494806711
    },
    {
      "frame_id": 447,
      "sensor_timestamp": 67494839958493,
      "time_usec": 67494839958
    },
    {
      "frame_id": 448,
      "sensor_timestamp": 67494873204831,
      "time_usec": 67494873204
    },
    {
      "frame_id": 449,
      "sensor_timestamp": 67494906451169,
      "time_usec": 67494906451
    },
    {
      "frame_id": 450,
      "sensor_timestamp": 67494939697507,
      "time_usec": 67494939697
    },
    {
      "frame_id": 451,
      "sensor_timestamp": 67494972944089,
      "time_usec": 67494972944
    },
    {
      "frame_id": 452,
      "sensor_timestamp": 67495006190427,
      "time_usec": 67495006190
    },
    {
      "frame_id": 453,
      "sensor_timestamp": 67495039436765,
      "time_usec": 67495039436
    },
    {
      "frame_id": 454,
      "sensor_timestamp": 67495072683103,
      "time_usec": 67495072683
    },
    {
      "frame_id": 455,
      "sensor_timestamp": 67495105929685,
      "time_usec": 67495105929
    },
    {
      "frame_id": 456,
      "sensor_timestamp": 67495139176023,
      "time_usec": 67495139176
    },
    {
      "frame_id": 457,
      "sensor_timestamp": 67495172422361,
      "time_usec": 67495172422
    },
    {
      "frame_id": 458,
      "sensor_timestamp": 67495205668699,
      "time_usec": 67495205668
    },
    {
      "frame_id": 459,
      "sensor_timestamp": 67495238915281,
      "time_usec": 67495238915
    },
    {
      "frame_id": 460,
      "sensor_timestamp": 67495272161618,
      "time_usec": 67495272161
    },
    {
      "frame_id": 461,
      "sensor_timestamp": 67495305407956,
      "time_usec": 67495305407
    },
    {
      "frame_id": 462,
      "sensor_timestamp": 67495338654294,
      "time_usec": 67495338654
    },
    {
      "frame_id": 463,
      "sensor_timestamp": 67495371900876,
      "time_usec": 67495371900
    },
    {
      "frame_id": 464,
      "sensor_timestamp": 67495405147214,
      "time_usec": 67495405147
    },
    {
      "frame_id": 465,
      "sensor_timestamp": 67495438393552,
      "time_usec": 67495438393
    },
    {
      "frame_id": 466,
      "sensor_timestamp": 67495471639890,
      "time_usec": 67495471639
    },
    {
      "frame_id": 467,
      "sensor_timestamp": 67495504886472,
      "time_usec": 67495504886
    },
    {
      "frame_id": 468,
      "sensor_timestamp": 67495538132810,
      "time_usec": 67495538132
    },
    {
      "frame_id": 469,
      "sensor_timestamp": 67495571379148,
      "time_usec": 67495571379
    },
    {
      "frame_id": 470,
      "sensor_timestamp": 67495604625486,
      "time_usec": 67495604625
    },
    {
      "frame_id": 471,
      "sensor_timestamp": 67495637872068,
      "time_usec": 67495637872
    },
    {
      "frame_id": 472,
      "sensor_timestamp": 67495671118406,
      "time_usec": 67495671118
    },
    {
      "frame_id": 473,
      "sensor_timestamp": 67495704364743,
      "time_usec": 67495704364
    },
    {
      "frame_id": 474,
      "sensor_timestamp": 67495737611081,
      "time_usec": 67495737611
    },
    {
      "frame_id": 475,
      "sensor_timestamp": 67495770857663,
      "time_usec": 67495770857
    },
    {
      "frame_id": 476,
      "sensor_timestamp": 67495804104001,
      "time_usec": 67495804104
    },
    {
      "frame_id": 477,
      "sensor_timestamp": 67495837350339,
      "time_usec": 67495837350
    },
    {
      "frame_id": 478,
      "sensor_timestamp": 67495870596677,
      "time_usec": 67495870596
    },
    {
      "frame_id": 479,
      "sensor_timestamp": 67495903843015,
      "time_usec": 67495903843
    },
    {
      "frame_id": 480,
      "sensor_timestamp": 67495937089597,
      "time_usec": 67495937089
    },
    {
      "frame_id": 481,
      "sensor_timestamp": 67495970335935,
      "time_usec": 67495970335
    },
    {
      "frame_id": 482,
      "sensor_timestamp": 67496003582273,
      "time_usec": 67496003582
    },
    {
      "frame_id": 483,
      "sensor_timestamp": 67496036828611,
      "time_usec": 67496036828
    },
    {
      "frame_id": 484,
      "sensor_timestamp": 67496070075193,
      "time_usec": 67496070075
    },
    {
      "frame_id": 485,
      "sensor_timestamp": 67496103321531,
      "time_usec": 67496103321
    },
    {
      "frame_id": 486,
      "sensor_timestamp": 67496136567868,
      "time_usec": 67496136567
    },
    {
      "frame_id": 487,
      "sensor_timestamp": 67496169814206,
      "time_usec": 67496169814
    },
    {
      "frame_id": 488,
      "sensor_timestamp": 67496203060788,
      "time_usec": 67496203060
    },
    {
      "frame_id": 489,
      "sensor_timestamp": 67496236307126,
      "time_usec": 67496236307
    },
    {
      "frame_id": 490,
      "sensor_timestamp": 67496269553464,
      "time_usec": 67496269553
    },
    {
      "frame_id": 491,
      "sensor_timestamp": 67496302799802,
      "time_usec": 67496302799
    },
    {
      "frame_id": 492,
      "sensor_timestamp": 67496336046384,
      "time_usec": 67496336046
    },
    {
      "frame_id": 493,
      "sensor_timestamp": 67496369292722,
      "time_usec": 67496369292
    },
    {
      "frame_id": 494,
      "sensor_timestamp": 67496402539060,
      "time_usec": 67496402539
    },
    {
      "frame_id": 495,
      "sensor_timestamp": 67496435785398,
      "time_usec": 67496435785
    },
    {
      "frame_id": 496,
      "sensor_timestamp": 67496469002951,
      "time_usec": 67496469002
    },
    {
      "frame_id": 497,
      "sensor_timestamp": 67496502278318,
      "time_usec": 67496502278
    },
    {
      "frame_id": 498,
      "sensor_timestamp": 67496535524656,
      "time_usec": 67496535524
    },
    {
      "frame_id": 499,
      "sensor_timestamp": 67496568770993,
      "time_usec": 67496568770
    },
    {
      "frame_id": 500,
      "sensor_timestamp": 67496602017575,
      "time_usec": 67496602017
    },
    {
      "frame_id": 501,
      "sensor_timestamp": 67496635263913,
      "time_usec": 67496635263
    },
    {
      "frame_id": 502,
      "sensor_timestamp": 67496668510251,
      "time_usec": 67496668510
    },
    {
      "frame_id": 503,
      "sensor_timestamp": 67496701756589,
      "time_usec": 67496701756
    },
    {
      "frame_id": 504,
      "sensor_timestamp": 67496735003171,
      "time_usec": 67496735003
    },
    {
      "frame_id": 505,
      "sensor_timestamp": 67496768249509,
      "time_usec": 67496768249
    },
    {
      "frame_id": 506,
      "sensor_timestamp": 67496801495847,
      "time_usec": 67496801495
    },
    {
      "frame_id": 507,
      "sensor_timestamp": 67496834742185,
      "time_usec": 67496834742
    },
    {
      "frame_id": 508,
      "sensor_timestamp": 67496867988767,
      "time_usec": 67496867988
    },
    {
      "frame_id": 509,
      "sensor_timestamp": 67496901235105,
      "time_usec": 67496901235
    },
    {
      "frame_id": 510,
      "sensor_timestamp": 67496934481443,
      "time_usec": 67496934481
    },
    {
      "frame_id": 511,
      "sensor_timestamp": 67496967727781,
      "time_usec": 67496967727
    },
    {
      "frame_id": 512,
      "sensor_timestamp": 67497000974363,
      "time_usec": 67497000974
    },
    {
      "frame_id": 513,
      "sensor_timestamp": 67497034220700,
      "time_usec": 67497034220
    },
    {
      "frame_id": 514,
      "sensor_timestamp": 67497067467038,
      "time_usec": 67497067467
    },
    {
      "frame_id": 515,
      "sensor_timestamp": 67497100713376,
      "time_usec": 67497100713
    },
    {
      "frame_id": 516,
      "sensor_timestamp": 67497133959714,
      "time_usec": 67497133959
    },
    {
      "frame_id": 517,
      "sensor_timestamp": 67497167206296,
      "time_usec": 67497167206
    },
    {
      "frame_id": 518,
      "sensor_timestamp": 67497200452634,
      "time_usec": 67497200452
    },
    {
      "frame_id": 519,
      "sensor_timestamp": 67497233698972,
      "time_usec": 67497233698
    },
    {
      "frame_id": 520,
      "sensor_timestamp": 67497266945310,
      "time_usec": 67497266945
    },
    {
      "frame_id": 521,
      "sensor_timestamp": 67497300191892,
      "time_usec": 67497300191
    },
    {
      "frame_id": 522,
      "sensor_timestamp": 67497333438230,
      "time_usec": 67497333438
    },
    {
      "frame_id": 523,
      "sensor_timestamp": 67497366684568,
      "time_usec": 67497366684
    },
    {
      "frame_id": 524,
      "sensor_timestamp": 67497399930906,
      "time_usec": 67497399930
    },
    {
      "frame_id": 525,
      "sensor_timestamp": 67497433177488,
      "time_usec": 67497433177
    },
    {
      "frame_id": 526,
      "sensor_timestamp": 67497466423825,
      "time_usec": 67497466423
    },
    {
      "frame_id": 527,
      "sensor_timestamp": 67497499670163,
      "time_usec": 67497499670
    },
    {
      "frame_id": 528,
      "sensor_timestamp": 67497532916501,
      "time_usec": 67497532916
    },
    {
      "frame_id": 529,
      "sensor_timestamp": 67497566163083,
      "time_usec": 67497566163
    },
    {
      "frame_id": 530,
      "sensor_timestamp": 67497599409421,
      "time_usec": 67497599409
    },
    {
      "frame_id": 531,
      "sensor_timestamp": 67497632655759,
      "time_usec": 67497632655
    },
    {
      "frame_id": 532,
      "sensor_timestamp": 67497665902097,
      "time_usec": 67497665902
    },
    {
      "frame_id": 533,
      "sensor_timestamp": 67497699148679,
      "time_usec": 67497699148
    },
    {
      "frame_id": 534,
      "sensor_timestamp": 67497732395017,
      "time_usec": 67497732395
    },
    {
      "frame_id": 535,
      "sensor_timestamp": 67497765641355,
      "time_usec": 67497765641
    },
    {
      "frame_id": 536,
      "sensor_timestamp": 67497798887693,
      "time_usec": 67497798887
    },
    {
      "frame_id": 537,
      "sensor_timestamp": 67497832134275,
      "time_usec": 67497832134
    },
    {
      "frame_id": 538,
      "sensor_timestamp": 67497865380613,
      "time_usec": 67497865380
    },
    {
      "frame_id": 539,
      "sensor_timestamp": 67497898626950,
      "time_usec": 67497898626
    },
    {
      "frame_id": 540,
      "sensor_timestamp": 67497931873288,
      "time_usec": 67497931873
    },
    {
      "frame_id": 541,
      "sensor_timestamp": 67497965119870,
      "time_usec": 67497965119
    },
    {
      "frame_id": 542,
      "sensor_timestamp": 67497998366208,
      "time_usec": 67497998366
    },
    {
      "frame_id": 543,
      "sensor_timestamp": 67498031612546,
      "time_usec": 67498031612
    },
    {
      "frame_id": 544,
      "sensor_timestamp": 67498064858884,
      "time_usec": 67498064858
    },
    {
      "frame_id": 545,
      "sensor_timestamp": 67498098105466,
      "time_usec": 67498098105
    },
    {
      "frame_id": 546,
      "sensor_timestamp": 67498131351804,
      "time_usec": 67498131351
    },
    {
      "frame_id": 547,
      "sensor_timestamp": 67498164598142,
      "time_usec": 67498164598
    },
    {
      "frame_id": 548,
      "sensor_timestamp": 67498197844480,
      "time_usec": 67498197844
    },
    {
      "frame_id": 549,
      "sensor_timestamp": 67498231091062,
      "time_usec": 67498231091
    },
    {
      "frame_id": 550,
      "sensor_timestamp": 67498264337400,
      "time_usec": 67498264337
    },
    {
      "frame_id": 551,
