{
  "rotations": [
    {
      "x": -0.01970040425658226,
      "y": -0.04612032696604729,
      "z": -0.01771509274840355,
      "time_usec": 83360430575
    },
    {
      "x": -0.010995574295520782,
      "y": -0.04138612002134323,
      "z": -0.013897184282541275,
      "time_usec": 83360432831
    },
    {
      "x": -0.004734205547720194,
      "y": -0.0354301854968071,
      "z": -0.015118914656341076,
      "time_usec": 83360435088
    },
    {
      "x": 3.054326225537807E-4,
      "y": -0.027183502912521362,
      "z": -0.015118914656341076,
      "time_usec": 83360437346
    },
    {
      "x": 3.054326225537807E-4,
      "y": -0.017562376335263252,
      "z": -0.014966198243200779,
      "time_usec": 83360439603
    },
    {
      "x": 0.001679879380390048,
      "y": -0.011453723534941673,
      "z": -0.012522737495601177,
      "time_usec": 83360441859
    },
    {
      "x": 0.005345070734620094,
      "y": -0.006719517521560192,
      "z": -0.01863138936460018,
      "time_usec": 83360444118
    },
    {
      "x": 0.0029016099870204926,
      "y": -7.635815418325365E-4,
      "z": -0.01863138936460018,
      "time_usec": 83360446376
    },
    {
      "x": 0.003054326167330146,
      "y": 0.004123340360820293,
      "z": -0.01863138936460018,
      "time_usec": 83360448635
    },
    {
      "x": -0.004428773187100887,
      "y": 0.007788531947880983,
      "z": -0.017409659922122955,
      "time_usec": 83360450890
    },
    {
      "x": -0.00809396430850029,
      "y": 0.003054326167330146,
      "z": -0.01878410577774048,
      "time_usec": 83360453144
    },
    {
      "x": -0.010537425056099892,
      "y": 0.001832595793530345,
      "z": -0.020005837082862854,
      "time_usec": 83360455406
    },
    {
      "x": -0.013133603148162365,
      "y": -0.0029016099870204926,
      "z": -0.01878410577774048,
      "time_usec": 83360457664
    },
    {
      "x": -0.016798794269561768,
      "y": -0.0064140851609408855,
      "z": -0.016340645030140877,
      "time_usec": 83360459922
    },
    {
      "x": -0.021838432177901268,
      "y": -0.013591751456260681,
      "z": -0.016340645030140877,
      "time_usec": 83360462179
    },
    {
      "x": -0.025503624230623245,
      "y": -0.01237002108246088,
      "z": -0.017562376335263252,
      "time_usec": 83360464436
    },
    {
      "x": -0.030543262138962746,
      "y": -0.015882495790719986,
      "z": -0.012828170321881771,
      "time_usec": 83360466695
    },
    {
      "x": -0.03298672288656235,
      "y": -0.018325956538319588,
      "z": -0.01160643994808197,
      "time_usec": 83360468951
    },
    {
      "x": -0.03680463135242462,
      "y": -0.014508049935102463,
      "z": -0.009162978269159794,
      "time_usec": 83360471208
    },
    {
      "x": -0.04046982154250145,
      "y": -0.016951510682702065,
      "z": -0.005497787147760391,
      "time_usec": 83360473466
    },
    {
      "x": -0.0429132841527462,
      "y": -0.018020525574684143,
      "z": -0.003054326167330146,
      "time_usec": 83360475724
    },
    {
      "x": -0.0503963828086853,
      "y": -0.015577063895761967,
      "z": -0.005497787147760391,
      "time_usec": 83360477981
    },
    {
      "x": -0.05406157299876213,
      "y": -0.015577063895761967,
      "z": -0.00427605677396059,
      "time_usec": 83360480238
    },
    {
      "x": -0.05650503560900688,
      "y": -0.01542434748262167,
      "z": -0.001832595793530345,
      "time_usec": 83360482496
    },
    {
      "x": -0.06154467165470123,
      "y": -0.01664607785642147,
      "z": 6.108652451075613E-4,
      "time_usec": 83360484754
    },
    {
      "x": -0.06276640295982361,
      "y": -0.01542434748262167,
      "z": 0.001832595793530345,
      "time_usec": 83360487011
    },
    {
      "x": -0.06276640295982361,
      "y": -0.01542434748262167,
      "z": 6.108652451075613E-4,
      "time_usec": 83360489268
    },
    {
      "x": -0.06398813426494598,
      "y": -0.016493361443281174,
      "z": 0.005497787147760391,
      "time_usec": 83360491526
    },
    {
      "x": -0.06154467165470123,
      "y": -0.01771509274840355,
      "z": 0.005497787147760391,
      "time_usec": 83360493784
    },
    {
      "x": -0.06276640295982361,
      "y": -0.01771509274840355,
      "z": 0.001832595793530345,
      "time_usec": 83360496041
    },
    {
      "x": -0.060322944074869156,
      "y": -0.017867809161543846,
      "z": 0.001832595793530345,
      "time_usec": 83360498295
    },
    {
      "x": -0.060322944074869156,
      "y": -0.01664607785642147,
      "z": 0.001832595793530345,
      "time_usec": 83360500541
    },
    {
      "x": -0.05910121276974678,
      "y": -0.018936822190880775,
      "z": 0.005497787147760391,
      "time_usec": 83360502798
    },
    {
      "x": -0.05910121276974678,
      "y": -0.02015855349600315,
      "z": 0.005497787147760391,
      "time_usec": 83360505054
    },
    {
      "x": -0.057879481464624405,
      "y": -0.017867809161543846,
      "z": 0.005497787147760391,
      "time_usec": 83360507317
    },
    {
      "x": -0.057879481464624405,
      "y": -0.01542434748262167,
      "z": 0.006719517521560192,
      "time_usec": 83360509583
    },
    {
      "x": -0.05543602257966995,
      "y": -0.01664607785642147,
      "z": 0.006719517521560192,
      "time_usec": 83360511847
    },
    {
      "x": -0.05543602257966995,
      "y": -0.014202617108821869,
      "z": 0.012828170321881771,
      "time_usec": 83360514102
    },
    {
      "x": -0.05421429127454758,
      "y": -0.017867809161543846,
      "z": 0.01038470957428217,
      "time_usec": 83360516349
    },
    {
      "x": -0.048105638474226,
      "y": -0.02275473065674305,
      "z": 0.014049900695681572,
      "time_usec": 83360518614
    },
    {
      "x": -0.04688390716910362,
      "y": -0.02382374368607998,
      "z": 0.015271631069481373,
      "time_usec": 83360520880
    },
    {
      "x": -0.044287730008363724,
      "y": -0.02275473065674305,
      "z": 0.01160643994808197,
      "time_usec": 83360523129
    },
    {
      "x": -0.03940080851316452,
      "y": -0.023976460099220276,
      "z": 0.014202617108821869,
      "time_usec": 83360525389
    },
    {
      "x": -0.038179077208042145,
      "y": -0.02275473065674305,
      "z": 0.01542434748262167,
      "time_usec": 83360527641
    },
    {
      "x": -0.03191770985722542,
      "y": -0.022907447069883347,
      "z": 0.014202617108821869,
      "time_usec": 83360529891
    },
    {
      "x": -0.027030786499381065,
      "y": -0.022907447069883347,
      "z": 0.019089538604021072,
      "time_usec": 83360532156
    },
    {
      "x": -0.023365596309304237,
      "y": -0.023060163483023643,
      "z": 0.01664607785642147,
      "time_usec": 83360534418
    },
    {
      "x": -0.01970040425658226,
      "y": -0.025503624230623245,
      "z": 0.018020525574684143,
      "time_usec": 83360536679
    },
    {
      "x": -0.018325956538319588,
      "y": -0.019394971430301666,
      "z": 0.018020525574684143,
      "time_usec": 83360538936
    },
    {
      "x": -0.010842857882380486,
      "y": -0.018325956538319588,
      "z": 0.014355333521962166,
      "time_usec": 83360541194
    },
    {
      "x": -0.012064588256180286,
      "y": -0.01710422709584236,
      "z": 0.01191187184303999,
      "time_usec": 83360543443
    },
    {
      "x": -0.012064588256180286,
      "y": -0.014813481830060482,
      "z": 0.007024950347840786,
      "time_usec": 83360545705
    },
    {
      "x": -0.008399397134780884,
      "y": -0.018478672951459885,
      "z": 0.005803219974040985,
      "time_usec": 83360547962
    },
    {
      "x": -0.008399397134780884,
      "y": -0.016035212203860283,
      "z": 0.004581489134579897,
      "time_usec": 83360550221
    },
    {
      "x": -0.005955935921519995,
      "y": -0.014813481830060482,
      "z": 0.005803219974040985,
      "time_usec": 83360552472
    },
    {
      "x": -0.005803219974040985,
      "y": -0.012522737495601177,
      "z": 9.162978967651725E-4,
      "time_usec": 83360554734
    },
    {
      "x": -0.007177666760981083,
      "y": -0.013744467869400978,
      "z": 0.002138028386980295,
      "time_usec": 83360556994
    },
    {
      "x": -0.003359758760780096,
      "y": -0.014966198243200779,
      "z": -3.054326225537807E-4,
      "time_usec": 83360559252
    },
    {
      "x": 0.001527163083665073,
      "y": -0.014966198243200779,
      "z": 0.002138028386980295,
      "time_usec": 83360561507
    },
    {
      "x": 0.001527163083665073,
      "y": -0.01618792861700058,
      "z": 0.004581489134579897,
      "time_usec": 83360563760
    },
    {
      "x": 3.054326225537807E-4,
      "y": -0.01618792861700058,
      "z": -0.0027488935738801956,
      "time_usec": 83360566022
    },
    {
      "x": 3.054326225537807E-4,
      "y": -0.012522737495601177,
      "z": 9.162978967651725E-4,
      "time_usec": 83360568276
    },
    {
      "x": 0.0039706239476799965,
      "y": -0.012675453908741474,
      "z": 0.002138028386980295,
      "time_usec": 83360570537
    },
    {
      "x": 3.054326225537807E-4,
      "y": -0.011453723534941673,
      "z": -0.001527163083665073,
      "time_usec": 83360572791
    },
    {
      "x": -9.162978967651725E-4,
      "y": -0.009010262787342072,
      "z": 0.003359758760780096,
      "time_usec": 83360575055
    },
    {
      "x": -0.002138028386980295,
      "y": -0.0065668015740811825,
      "z": -0.0027488935738801956,
      "time_usec": 83360577312
    },
    {
      "x": -7.635815418325365E-4,
      "y": -0.001679879380390048,
      "z": -3.054326225537807E-4,
      "time_usec": 83360579569
    },
    {
      "x": -0.0032070425804704428,
      "y": 0.001832595793530345,
      "z": -0.0027488935738801956,
      "time_usec": 83360581811
    },
    {
      "x": -7.635815418325365E-4,
      "y": 0.006719517521560192,
      "z": -3.054326225537807E-4,
      "time_usec": 83360584078
    },
    {
      "x": -0.0032070425804704428,
      "y": 0.007941247895359993,
      "z": -3.054326225537807E-4,
      "time_usec": 83360586340
    },
    {
      "x": -0.004428773187100887,
      "y": 0.006719517521560192,
      "z": 0.002138028386980295,
      "time_usec": 83360588597
    },
    {
      "x": -0.004428773187100887,
      "y": 0.003054326167330146,
      "z": 0.002138028386980295,
      "time_usec": 83360590856
    },
    {
      "x": -0.004581489134579897,
      "y": 7.635815418325365E-4,
      "z": -3.054326225537807E-4,
      "time_usec": 83360593111
    },
    {
      "x": -0.003359758760780096,
      "y": -0.001679879380390048,
      "z": 0.003359758760780096,
      "time_usec": 83360595372
    },
    {
      "x": -0.007024950347840786,
      "y": -0.004123340360820293,
      "z": -3.054326225537807E-4,
      "time_usec": 83360597628
    },
    {
      "x": -0.007024950347840786,
      "y": -0.004123340360820293,
      "z": 0.002138028386980295,
      "time_usec": 83360599883
    },
    {
      "x": -0.004581489134579897,
      "y": -0.0029016099870204926,
      "z": 0.003359758760780096,
      "time_usec": 83360602138
    },
    {
      "x": -0.007024950347840786,
      "y": -0.004123340360820293,
      "z": 0.003359758760780096,
      "time_usec": 83360604398
    },
    {
      "x": -0.008246680721640587,
      "y": -4.5814894838258624E-4,
      "z": 0.005803219974040985,
      "time_usec": 83360606647
    },
    {
      "x": -0.009468411095440388,
      "y": 0.005650503560900688,
      "z": 0.007024950347840786,
      "time_usec": 83360608917
    },
    {
      "x": -0.00809396430850029,
      "y": 0.01160643994808197,
      "z": 0.007024950347840786,
      "time_usec": 83360611173
    },
    {
      "x": -0.00931569468230009,
      "y": 0.015271631069481373,
      "z": 0.010690141469240189,
      "time_usec": 83360613428
    },
    {
      "x": -0.006872233934700489,
      "y": 0.020005837082862854,
      "z": 0.013133603148162365,
      "time_usec": 83360615688
    },
    {
      "x": -0.004428773187100887,
      "y": 0.024892758578062057,
      "z": 0.014508049935102463,
      "time_usec": 83360617945
    },
    {
      "x": -0.005650503560900688,
      "y": 0.029626963660120964,
      "z": 0.01572977937757969,
      "time_usec": 83360620203
    },
    {
      "x": -0.006872233934700489,
      "y": 0.02977968007326126,
      "z": 0.019394971430301666,
      "time_usec": 83360622456
    },
    {
      "x": -0.00427605677396059,
      "y": 0.03084869496524334,
      "z": 0.020616702735424042,
      "time_usec": 83360624718
    },
    {
      "x": -0.001832595793530345,
      "y": 0.03329215571284294,
      "z": 0.021838432177901268,
      "time_usec": 83360626976
    },
    {
      "x": -6.108652451075613E-4,
      "y": 0.03451388701796532,
      "z": 0.025503624230623245,
      "time_usec": 83360629235
    },
    {
      "x": 0.001832595793530345,
      "y": 0.03451388701796532,
      "z": 0.025503624230623245,
      "time_usec": 83360631489
    },
    {
      "x": 0.005497787147760391,
      "y": 0.035582900047302246,
      "z": 0.025503624230623245,
      "time_usec": 83360633743
    },
    {
      "x": 0.00427605677396059,
      "y": 0.03329215571284294,
      "z": 0.023060163483023643,
      "time_usec": 83360636005
    },
    {
      "x": 0.005650503560900688,
      "y": 0.03680463135242462,
      "z": 0.023060163483023643,
      "time_usec": 83360638263
    },
    {
      "x": 0.00809396430850029,
      "y": 0.035582900047302246,
      "z": 0.024434609338641167,
      "time_usec": 83360640521
    },
    {
      "x": 0.006719517521560192,
      "y": 0.027183502912521362,
      "z": 0.020616702735424042,
      "time_usec": 83360642773
    },
    {
      "x": 0.01160643994808197,
      "y": 0.02474004216492176,
      "z": 0.01817324012517929,
      "time_usec": 83360645032
    },
    {
      "x": 0.01160643994808197,
      "y": 0.021074850112199783,
      "z": 0.01817324012517929,
      "time_usec": 83360647278
    },
    {
      "x": 0.01160643994808197,
      "y": 0.013744467869400978,
      "z": 0.013286318629980087,
      "time_usec": 83360649536
    },
    {
      "x": 0.018936822190880775,
      "y": 0.007635815534740686,
      "z": 0.012064588256180286,
      "time_usec": 83360651794
    },
    {
      "x": 0.018936822190880775,
      "y": 0.004123340360820293,
      "z": 0.012064588256180286,
      "time_usec": 83360654063
    },
    {
      "x": 0.021380282938480377,
      "y": -0.0019853119738399982,
      "z": 0.009621127508580685,
      "time_usec": 83360656325
    },
    {
      "x": 0.022602014243602753,
      "y": -0.005650503560900688,
      "z": 0.008399397134780884,
      "time_usec": 83360658580
    },
    {
      "x": 0.02626720629632473,
      "y": -0.006872233934700489,
      "z": 0.008399397134780884,
      "time_usec": 83360660838
    },
    {
      "x": 0.02871066704392433,
      "y": -0.012980886735022068,
      "z": 0.004734205547720194,
      "time_usec": 83360663091
    },
    {
      "x": 0.031154127791523933,
      "y": -0.012980886735022068,
      "z": 0.004734205547720194,
      "time_usec": 83360665355
    },
    {
      "x": 0.03375030308961868,
      "y": -0.014202617108821869,
      "z": 0.0022907445672899485,
      "time_usec": 83360667613
    },
    {
      "x": 0.03375030308961868,
      "y": -0.012980886735022068,
      "z": 0.0022907445672899485,
      "time_usec": 83360669869
    },
    {
      "x": 0.03741549700498581,
      "y": -0.010690141469240189,
      "z": 0.00366519158706069,
      "time_usec": 83360672120
    },
    {
      "x": 0.038637228310108185,
      "y": -0.009468411095440388,
      "z": 0.0024434609804302454,
      "time_usec": 83360674383
    },
    {
      "x": 0.03985895588994026,
      "y": -0.008246680721640587,
      "z": 0.00366519158706069,
      "time_usec": 83360676638
    },
    {
      "x": 0.04245513305068016,
      "y": -0.008399397134780884,
      "z": 0.0,
      "time_usec": 83360678887
    },
    {
      "x": 0.04489859566092491,
      "y": -0.009621127508580685,
      "z": -0.0012217304902151227,
      "time_usec": 83360681154
    },
    {
      "x": 0.041233405470848083,
      "y": -0.005955935921519995,
      "z": 0.0,
      "time_usec": 83360683408
    },
    {
      "x": 0.041233405470848083,
      "y": -0.0022907445672899485,
      "z": 0.0012217304902151227,
      "time_usec": 83360685674
    },
    {
      "x": 0.043676864355802536,
      "y": -0.0,
      "z": -0.0012217304902151227,
      "time_usec": 83360687928
    },
    {
      "x": 0.04245513305068016,
      "y": 0.00366519158706069,
      "z": -0.0012217304902151227,
      "time_usec": 83360690185
    },
    {
      "x": 0.041233405470848083,
      "y": 0.00733038317412138,
      "z": -0.0024434609804302454,
      "time_usec": 83360692438
    },
    {
      "x": 0.04001167416572571,
      "y": 0.010995574295520782,
      "z": 0.0012217304902151227,
      "time_usec": 83360694701
    },
    {
      "x": 0.03634648025035858,
      "y": 0.013439035043120384,
      "z": 0.0,
      "time_usec": 83360696958
    },
    {
      "x": 0.032681290060281754,
      "y": 0.018325956538319588,
      "z": 0.0012217304902151227,
      "time_usec": 83360699217
    },
    {
      "x": 0.030237829312682152,
      "y": 0.018325956538319588,
      "z": 0.0012217304902151227,
      "time_usec": 83360701473
    },
    {
      "x": 0.02779436856508255,
      "y": 0.01710422709584236,
      "z": -1.5271631127689034E-4,
      "time_usec": 83360703723
    },
    {
      "x": 0.02535090781748295,
      "y": 0.02076941914856434,
      "z": -0.0013744467869400978,
      "time_usec": 83360705978
    },
    {
      "x": 0.02168571576476097,
      "y": 0.02076941914856434,
      "z": -0.0013744467869400978,
      "time_usec": 83360708245
    },
    {
      "x": 0.014202617108821869,
      "y": 0.025656340643763542,
      "z": -1.5271631127689034E-4,
      "time_usec": 83360710503
    },
    {
      "x": 0.011759156361222267,
      "y": 0.024587325751781464,
      "z": -0.0013744467869400978,
      "time_usec": 83360712758
    },
    {
      "x": 0.00809396430850029,
      "y": 0.027030786499381065,
      "z": -1.5271631127689034E-4,
      "time_usec": 83360715018
    },
    {
      "x": 0.00427605677396059,
      "y": 0.024587325751781464,
      "z": -0.0013744467869400978,
      "time_usec": 83360717276
    },
    {
      "x": 0.003054326167330146,
      "y": 0.024587325751781464,
      "z": -1.5271631127689034E-4,
      "time_usec": 83360719534
    },
    {
      "x": 6.108652451075613E-4,
      "y": 0.027030786499381065,
      "z": -0.001527163083665073,
      "time_usec": 83360721784
    },
    {
      "x": -0.001832595793530345,
      "y": 0.02825251780450344,
      "z": -0.001527163083665073,
      "time_usec": 83360724043
    },
    {
      "x": -0.006719517521560192,
      "y": 0.02474004216492176,
      "z": -0.001527163083665073,
      "time_usec": 83360726307
    },
    {
      "x": -0.00427605677396059,
      "y": 0.023518312722444534,
      "z": -3.054326225537807E-4,
      "time_usec": 83360728570
    },
    {
      "x": -0.006872233934700489,
      "y": 0.022449297830462456,
      "z": -3.054326225537807E-4,
      "time_usec": 83360730820
    },
    {
      "x": -0.00809396430850029,
      "y": 0.020005837082862854,
      "z": -0.001527163083665073,
      "time_usec": 83360733065
    },
    {
      "x": -0.010537425056099892,
      "y": 0.01878410577774048,
      "z": 0.003359758760780096,
      "time_usec": 83360735333
    },
    {
      "x": -0.011759156361222267,
      "y": 0.015271631069481373,
      "z": 0.004581489134579897,
      "time_usec": 83360737589
    },
    {
      "x": -0.014355333521962166,
      "y": 0.00931569468230009,
      "z": -3.054326225537807E-4,
      "time_usec": 83360739852
    },
    {
      "x": -0.01924225501716137,
      "y": 0.00809396430850029,
      "z": -0.001679879380390048,
      "time_usec": 83360742103
    },
    {
      "x": -0.020616702735424042,
      "y": 0.003359758760780096,
      "z": -4.5814894838258624E-4,
      "time_usec": 83360744366
    },
    {
      "x": -0.018020525574684143,
      "y": 0.002138028386980295,
      "z": -4.5814894838258624E-4,
      "time_usec": 83360746624
    },
    {
      "x": -0.020616702735424042,
      "y": -3.054326225537807E-4,
      "z": 0.0019853119738399982,
      "time_usec": 83360748887
    },
    {
      "x": -0.025503624230623245,
      "y": -0.0013744467869400978,
      "z": 0.005650503560900688,
      "time_usec": 83360751135
    },
    {
      "x": -0.025503624230623245,
      "y": -0.0013744467869400978,
      "z": 0.005650503560900688,
      "time_usec": 83360753385
    },
    {
      "x": -0.028099801391363144,
      "y": -0.0025961773935705423,
      "z": 0.006872233934700489,
      "time_usec": 83360755651
    },
    {
      "x": -0.02932153269648552,
      "y": -1.5271631127689034E-4,
      "z": 0.00931569468230009,
      "time_usec": 83360757905
    },
    {
      "x": -0.02932153269648552,
      "y": -0.0025961773935705423,
      "z": 0.00809396430850029,
      "time_usec": 83360760169
    },
    {
      "x": -0.030543262138962746,
      "y": -0.003817907767370343,
      "z": 0.0032070425804704428,
      "time_usec": 83360762420
    },
    {
      "x": -0.02687807008624077,
      "y": -0.00733038317412138,
      "z": 0.004428773187100887,
      "time_usec": 83360764684
    },
    {
      "x": -0.028099801391363144,
      "y": -0.01710422709584236,
      "z": -4.5814894838258624E-4,
      "time_usec": 83360766942
    },
    {
      "x": -0.02932153269648552,
      "y": -0.019394971430301666,
      "z": -0.001679879380390048,
      "time_usec": 83360769199
    },
    {
      "x": -0.029474247246980667,
      "y": -0.030237829312682152,
      "z": -0.005497787147760391,
      "time_usec": 83360771459
    },
    {
      "x": -0.029474247246980667,
      "y": -0.035124752670526505,
      "z": -0.007941247895359993,
      "time_usec": 83360773709
    },
    {
      "x": -0.029474247246980667,
      "y": -0.03878994286060333,
      "z": -0.012828170321881771,
      "time_usec": 83360775970
    },
    {
      "x": -0.032070424407720566,
      "y": -0.04230241850018501,
      "z": -0.014049900695681572,
      "time_usec": 83360778227
    },
    {
      "x": -0.029626963660120964,
      "y": -0.04596760869026184,
      "z": -0.014049900695681572,
      "time_usec": 83360780485
    },
    {
      "x": -0.03084869496524334,
      "y": -0.044745877385139465,
      "z": -0.016493361443281174,
      "time_usec": 83360782738
    },
    {
      "x": -0.030695978552103043,
      "y": -0.04245513305068016,
      "z": -0.018936822190880775,
      "time_usec": 83360785000
    },
    {
      "x": -0.02825251780450344,
      "y": -0.041233405470848083,
      "z": -0.021380282938480377,
      "time_usec": 83360787258
    },
    {
      "x": -0.030695978552103043,
      "y": -0.031612277030944824,
      "z": -0.016493361443281174,
      "time_usec": 83360789516
    },
    {
      "x": -0.02687807008624077,
      "y": -0.024434609338641167,
      "z": -0.021380282938480377,
      "time_usec": 83360791767
    },
    {
      "x": -0.02321287989616394,
      "y": -0.02321287989616394,
      "z": -0.022602014243602753,
      "time_usec": 83360794025
    },
    {
      "x": -0.023060163483023643,
      "y": -0.018478672951459885,
      "z": -0.02382374368607998,
      "time_usec": 83360796286
    },
    {
      "x": -0.01817324012517929,
      "y": -0.01970040425658226,
      "z": -0.01878410577774048,
      "time_usec": 83360798536
    },
    {
      "x": -0.016951510682702065,
      "y": -0.01618792861700058,
      "z": -0.02122756652534008,
      "time_usec": 83360800791
    },
    {
      "x": -0.010690141469240189,
      "y": -0.012675453908741474,
      "z": -0.02367102913558483,
      "time_usec": 83360803053
    },
    {
      "x": -0.007024950347840786,
      "y": -0.010231993161141872,
      "z": -0.024892758578062057,
      "time_usec": 83360805306
    },
    {
      "x": -0.0032070425804704428,
      "y": -0.006719517521560192,
      "z": -0.024892758578062057,
      "time_usec": 83360807577
    },
    {
      "x": -0.0019853119738399982,
      "y": -0.006719517521560192,
      "z": -0.026114489883184433,
      "time_usec": 83360809834
    },
    {
      "x": -0.0019853119738399982,
      "y": -0.0019853119738399982,
      "z": -0.02733621932566166,
      "time_usec": 83360812085
    },
    {
      "x": 0.003054326167330146,
      "y": -7.635815418325365E-4,
      "z": -0.02977968007326126,
      "time_usec": 83360814335
    },
    {
      "x": 0.003054326167330146,
      "y": 3.054326225537807E-4,
      "z": -0.03344487398862839,
      "time_usec": 83360816598
    },
    {
      "x": 0.006719517521560192,
      "y": 0.001527163083665073,
      "z": -0.03451388701796532,
      "time_usec": 83360818851
    },
    {
      "x": 0.006719517521560192,
      "y": 0.001527163083665073,
      "z": -0.03588833287358284,
      "time_usec": 83360821122
    },
    {
      "x": 0.009162978269159794,
      "y": -0.002138028386980295,
      "z": -0.037110064178705215,
      "time_usec": 83360823371
    },
    {
      "x": 0.012980886735022068,
      "y": -9.162978967651725E-4,
      "z": -0.03695734590291977,
      "time_usec": 83360825626
    },
    {
      "x": 0.017867809161543846,
      "y": -0.003512475173920393,
      "z": -0.03940080851316452,
      "time_usec": 83360827890
    },
    {
      "x": 0.019089538604021072,
      "y": -0.008246680721640587,
      "z": -0.04184427112340927,
      "time_usec": 83360830150
    },
    {
      "x": 0.017867809161543846,
      "y": -0.007177666760981083,
      "z": -0.0455094613134861,
      "time_usec": 83360832406
    },
    {
      "x": 0.020311269909143448,
      "y": -0.008399397134780884,
      "z": -0.0455094613134861,
      "time_usec": 83360834666
    },
    {
      "x": 0.023976460099220276,
      "y": -0.013286318629980087,
      "z": -0.04795292019844055,
      "time_usec": 83360836923
    },
    {
      "x": 0.026419922709465027,
      "y": -0.016798794269561768,
      "z": -0.04795292019844055,
      "time_usec": 83360839182
    },
    {
      "x": 0.027641652151942253,
      "y": -0.01924225501716137,
      "z": -0.0503963828086853,
      "time_usec": 83360841437
    },
    {
      "x": 0.027641652151942253,
      "y": -0.01817324012517929,
      "z": -0.05406157299876213,
      "time_usec": 83360843691
    },
    {
      "x": 0.02886338345706463,
      "y": -0.020616702735424042,
      "z": -0.052839845418930054,
      "time_usec": 83360845954
    },
    {
      "x": 0.027641652151942253,
      "y": -0.022907447069883347,
      "z": -0.05543602257966995,
      "time_usec": 83360848210
    },
    {
      "x": 0.027641652151942253,
      "y": -0.020463986322283745,
      "z": -0.05161811411380768,
      "time_usec": 83360850468
    },
    {
      "x": 0.027641652151942253,
      "y": -0.020463986322283745,
      "z": -0.0503963828086853,
      "time_usec": 83360852717
    },
    {
      "x": 0.027641652151942253,
      "y": -0.020463986322283745,
      "z": -0.04917465150356293,
      "time_usec": 83360854970
    },
    {
      "x": 0.02275473065674305,
      "y": -0.021532999351620674,
      "z": -0.044287730008363724,
      "time_usec": 83360857237
    },
    {
      "x": 0.018936822190880775,
      "y": -0.020311269909143448,
      "z": -0.043218716979026794,
      "time_usec": 83360859485
    },
    {
      "x": 0.019089538604021072,
      "y": -0.016798794269561768,
      "z": -0.04306599870324135,
      "time_usec": 83360861754
    },
    {
      "x": 0.014049900695681572,
      "y": -0.01542434748262167,
      "z": -0.04199698567390442,
      "time_usec": 83360864009
    },
    {
      "x": 0.01038470957428217,
      "y": -0.01664607785642147,
      "z": -0.037110064178705215,
      "time_usec": 83360866274
    },
    {
      "x": 0.01038470957428217,
      "y": -0.01771509274840355,
      "z": -0.03588833287358284,
      "time_usec": 83360868529
    },
    {
      "x": 0.007788531947880983,
      "y": -0.01771509274840355,
      "z": -0.03344487398862839,
      "time_usec": 83360870785
    },
    {
      "x": 0.0065668015740811825,
      "y": -0.018936822190880775,
      "z": -0.02733621932566166,
      "time_usec": 83360873038
    },
    {
      "x": 0.004123340360820293,
      "y": -0.016493361443281174,
      "z": -0.024892758578062057,
      "time_usec": 83360875302
    },
    {
      "x": -9.162978967651725E-4,
      "y": -0.016340645030140877,
      "z": -0.02367102913558483,
      "time_usec": 83360877559
    },
    {
      "x": -0.003359758760780096,
      "y": -0.016340645030140877,
      "z": -0.020005837082862854,
      "time_usec": 83360879816
    },
    {
      "x": -0.009468411095440388,
      "y": -0.014966198243200779,
      "z": -0.016340645030140877,
      "time_usec": 83360882068
    },
    {
      "x": -0.012064588256180286,
      "y": -0.01618792861700058,
      "z": -0.013897184282541275,
      "time_usec": 83360884329
    },
    {
      "x": -0.01572977937757969,
      "y": -0.016035212203860283,
      "z": -0.010231993161141872,
      "time_usec": 83360886583
    },
    {
      "x": -0.019394971430301666,
      "y": -0.013591751456260681,
      "z": -0.005345070734620094,
      "time_usec": 83360888843
    },
    {
      "x": -0.02321287989616394,
      "y": -0.013439035043120384,
      "z": -0.0029016099870204926,
      "time_usec": 83360891088
    },
    {
      "x": -0.02687807008624077,
      "y": -0.009773843921720982,
      "z": -4.5814894838258624E-4,
      "time_usec": 83360893356
    },
    {
      "x": -0.030543262138962746,
      "y": -0.006108652334660292,
      "z": 7.635815418325365E-4,
      "time_usec": 83360895619
    },
    {
      "x": -0.03298672288656235,
      "y": -0.0025961773935705423,
      "z": 7.635815418325365E-4,
      "time_usec": 83360897886
    },
    {
      "x": -0.036651913076639175,
      "y": 0.004734205547720194,
      "z": 0.004428773187100887,
      "time_usec": 83360900134
    },
    {
      "x": -0.036651913076639175,
      "y": 0.005955935921519995,
      "z": 0.006872233934700489,
      "time_usec": 83360902382
    },
    {
      "x": -0.03787364438176155,
      "y": 0.008399397134780884,
      "z": 0.005650503560900688,
      "time_usec": 83360904633
    },
    {
      "x": -0.039095375686883926,
      "y": 0.012064588256180286,
      "z": 0.010537425056099892,
      "time_usec": 83360906904
    },
    {
      "x": -0.039095375686883926,
      "y": 0.016798794269561768,
      "z": 0.011759156361222267,
      "time_usec": 83360909164
    },
    {
      "x": -0.0403171069920063,
      "y": 0.016951510682702065,
      "z": 0.011759156361222267,
      "time_usec": 83360911422
    },
    {
      "x": -0.040164388716220856,
      "y": 0.02168571576476097,
      "z": 0.011759156361222267,
      "time_usec": 83360913673
    },
    {
      "x": -0.039095375686883926,
      "y": 0.01924225501716137,
      "z": 0.014202617108821869,
      "time_usec": 83360915936
    },
    {
      "x": -0.036651913076639175,
      "y": 0.016951510682702065,
      "z": 0.017867809161543846,
      "time_usec": 83360918192
    },
    {
      "x": -0.0354301854968071,
      "y": 0.014508049935102463,
      "z": 0.01542434748262167,
      "time_usec": 83360920440
    },
    {
      "x": -0.0354301854968071,
      "y": 0.014508049935102463,
      "z": 0.01664607785642147,
      "time_usec": 83360922702
    },
    {
      "x": -0.03420845419168472,
      "y": 0.012064588256180286,
      "z": 0.014202617108821869,
      "time_usec": 83360924965
    },
    {
      "x": -0.03420845419168472,
      "y": 0.013286318629980087,
      "z": 0.01664607785642147,
      "time_usec": 83360927225
    },
    {
      "x": -0.03298672288656235,
      "y": 0.010842857882380486,
      "z": 0.01664607785642147,
      "time_usec": 83360929483
    },
    {
      "x": -0.03298672288656235,
      "y": 0.007177666760981083,
      "z": 0.012980886735022068,
      "time_usec": 83360931741
    },
    {
      "x": -0.02932153269648552,
      "y": -0.0012217304902151227,
      "z": 0.014202617108821869,
      "time_usec": 83360933990
    },
    {
      "x": -0.028099801391363144,
      "y": -0.00855211354792118,
      "z": 0.011759156361222267,
      "time_usec": 83360936254
    },
    {
      "x": -0.029474247246980667,
      "y": -0.013286318629980087,
      "z": 0.011759156361222267,
      "time_usec": 83360938509
    },
    {
      "x": -0.024434609338641167,
      "y": -0.015882495790719986,
      "z": 0.00809396430850029,
      "time_usec": 83360940766
    },
    {
      "x": -0.02321287989616394,
      "y": -0.023060163483023643,
      "z": 0.00809396430850029,
      "time_usec": 83360943012
    },
    {
      "x": -0.020922135561704636,
      "y": -0.029168816283345222,
      "z": 0.006872233934700489,
      "time_usec": 83360945283
    },
    {
      "x": -0.01466076634824276,
      "y": -0.03039054572582245,
      "z": 0.004428773187100887,
      "time_usec": 83360947541
    },
    {
      "x": -0.009773843921720982,
      "y": -0.03649919852614403,
      "z": 7.635815418325365E-4,
      "time_usec": 83360949800
    },
    {
      "x": -0.009773843921720982,
      "y": -0.03405573591589928,
      "z": 7.635815418325365E-4,
      "time_usec": 83360952051
    },
    {
      "x": -0.00733038317412138,
      "y": -0.03527746722102165,
      "z": 7.635815418325365E-4,
      "time_usec": 83360954316
    },
    {
      "x": -0.004734205547720194,
      "y": -0.03420845419168472,
      "z": 0.003359758760780096,
      "time_usec": 83360956562
    },
    {
      "x": -0.0022907445672899485,
      "y": -0.03298672288656235,
      "z": 0.002138028386980295,
      "time_usec": 83360958824
    },
    {
      "x": 0.0025961773935705423,
      "y": -0.029474247246980667,
      "z": 0.002138028386980295,
      "time_usec": 83360961083
    },
    {
      "x": 0.0064140851609408855,
      "y": -0.02474004216492176,
      "z": 0.002138028386980295,
      "time_usec": 83360963338
    },
    {
      "x": 0.007635815534740686,
      "y": -0.01618792861700058,
      "z": 0.007024950347840786,
      "time_usec": 83360965598
    },
    {
      "x": 0.007788531947880983,
      "y": -0.009010262787342072,
      "z": 0.007024950347840786,
      "time_usec": 83360967858
    },
    {
      "x": 0.009010262787342072,
      "y": -0.001832595793530345,
      "z": 0.008399397134780884,
      "time_usec": 83360970116
    },
    {
      "x": 0.01160643994808197,
      "y": 0.001679879380390048,
      "z": 0.005955935921519995,
      "time_usec": 83360972370
    },
    {
      "x": 0.016493361443281174,
      "y": 0.008857546374201775,
      "z": 0.009621127508580685,
      "time_usec": 83360974630
    },
    {
      "x": 0.01771509274840355,
      "y": 0.011301007121801376,
      "z": 0.012064588256180286,
      "time_usec": 83360976885
    },
    {
      "x": 0.015271631069481373,
      "y": 0.014966198243200779,
      "z": 0.012064588256180286,
      "time_usec": 83360979146
    },
    {
      "x": 0.014049900695681572,
      "y": 0.01618792861700058,
      "z": 0.016951510682702065,
      "time_usec": 83360981402
    },
    {
      "x": 0.014049900695681572,
      "y": 0.01863138936460018,
      "z": 0.01572977937757969,
      "time_usec": 83360983656
    },
    {
      "x": 0.012980886735022068,
      "y": 0.023518312722444534,
      "z": 0.01817324012517929,
      "time_usec": 83360985918
    },
    {
      "x": 0.01038470957428217,
      "y": 0.027183502912521362,
      "z": 0.019394971430301666,
      "time_usec": 83360988174
    },
    {
      "x": 0.007941247895359993,
      "y": 0.029474247246980667,
      "z": 0.01817324012517929,
      "time_usec": 83360990427
    },
    {
      "x": 0.01160643994808197,
      "y": 0.025961773470044136,
      "z": 0.020616702735424042,
      "time_usec": 83360992685
    },
    {
      "x": 0.010537425056099892,
      "y": 0.030695978552103043,
      "z": 0.02321287989616394,
      "time_usec": 83360994948
    },
    {
      "x": 0.00809396430850029,
      "y": 0.035582900047302246,
      "z": 0.024434609338641167,
      "time_usec": 83360997207
    },
    {
      "x": 0.005497787147760391,
      "y": 0.03329215571284294,
      "z": 0.025503624230623245,
      "time_usec": 83360999464
    },
    {
      "x": 0.007941247895359993,
      "y": 0.032070424407720566,
      "z": 0.02687807008624077,
      "time_usec": 83361001717
    },
    {
      "x": 0.005497787147760391,
      "y": 0.032070424407720566,
      "z": 0.028099801391363144,
      "time_usec": 83361003965
    },
    {
      "x": 0.003054326167330146,
      "y": 0.03573561832308769,
      "z": 0.030543262138962746,
      "time_usec": 83361006236
    },
    {
      "x": 0.001832595793530345,
      "y": 0.03695734590291977,
      "z": 0.03039054572582245,
      "time_usec": 83361008494
    },
    {
      "x": -6.108652451075613E-4,
      "y": 0.04046982154250145,
      "z": 0.027947084978222847,
      "time_usec": 83361010752
    },
    {
      "x": -6.108652451075613E-4,
      "y": 0.044135015457868576,
      "z": 0.03039054572582245,
      "time_usec": 83361013001
    },
    {
      "x": -0.00427605677396059,
      "y": 0.044135015457868576,
      "z": 0.029168816283345222,
      "time_usec": 83361015257
    },
    {
      "x": -0.00427605677396059,
      "y": 0.047800205647945404,
      "z": 0.0328340083360672,
      "time_usec": 83361017507
    },
    {
      "x": -0.006719517521560192,
      "y": 0.0455094613134861,
      "z": 0.03039054572582245,
      "time_usec": 83361019767
    },
    {
      "x": -0.007941247895359993,
      "y": 0.044287730008363724,
      "z": 0.027947084978222847,
      "time_usec": 83361022023
    },
    {
      "x": -0.006719517521560192,
      "y": 0.04535674303770065,
      "z": 0.027947084978222847,
      "time_usec": 83361024286
    },
    {
      "x": -0.00931569468230009,
      "y": 0.04184427112340927,
      "z": 0.031612277030944824,
      "time_usec": 83361026557
    },
    {
      "x": -0.00809396430850029,
      "y": 0.037110064178705215,
      "z": 0.029168816283345222,
      "time_usec": 83361028813
    },
    {
      "x": -0.00931569468230009,
      "y": 0.03588833287358284,
      "z": 0.031612277030944824,
      "time_usec": 83361031069
    },
    {
      "x": -0.00809396430850029,
      "y": 0.03588833287358284,
      "z": 0.03039054572582245,
      "time_usec": 83361033318
    },
    {
      "x": -0.00809396430850029,
      "y": 0.034666601568460464,
      "z": 0.0328340083360672,
      "time_usec": 83361035578
    },
    {
      "x": -0.006872233934700489,
      "y": 0.031001411378383636,
      "z": 0.031612277030944824,
      "time_usec": 83361037840
    },
    {
      "x": -0.005650503560900688,
      "y": 0.02977968007326126,
      "z": 0.0328340083360672,
      "time_usec": 83361040097
    },
    {
      "x": -0.005650503560900688,
      "y": 0.025045474991202354,
      "z": 0.03039054572582245,
      "time_usec": 83361042352
    },
    {
      "x": -0.004428773187100887,
      "y": 0.02733621932566166,
      "z": 0.029168816283345222,
      "time_usec": 83361044614
    },
    {
      "x": -0.004428773187100887,
      "y": 0.024892758578062057,
      "z": 0.027947084978222847,
      "time_usec": 83361046872
    },
    {
      "x": -0.0032070425804704428,
      "y": 0.02367102913558483,
      "z": 0.029168816283345222,
      "time_usec": 83361049129
    },
    {
      "x": -0.006872233934700489,
      "y": 0.025045474991202354,
      "z": 0.027947084978222847,
      "time_usec": 83361051384
    },
    {
      "x": -0.006872233934700489,
      "y": 0.02382374368607998,
      "z": 0.025503624230623245,
      "time_usec": 83361053635
    },
    {
      "x": -0.006872233934700489,
      "y": 0.02015855349600315,
      "z": 0.025503624230623245,
      "time_usec": 83361055890
    },
    {
      "x": -0.00809396430850029,
      "y": 0.021380282938480377,
      "z": 0.023060163483023643,
      "time_usec": 83361058158
    },
    {
      "x": -0.006872233934700489,
      "y": 0.022602014243602753,
      "z": 0.020616702735424042,
      "time_usec": 83361060416
    },
    {
      "x": -0.0032070425804704428,
      "y": 0.020005837082862854,
      "z": 0.020616702735424042,
      "time_usec": 83361062671
    },
    {
      "x": -0.006872233934700489,
      "y": 0.02382374368607998,
      "z": 0.02428189292550087,
      "time_usec": 83361064930
    },
    {
      "x": -0.0032070425804704428,
      "y": 0.028557950630784035,
      "z": 0.023060163483023643,
      "time_usec": 83361067188
    },
    {
      "x": -0.0032070425804704428,
      "y": 0.02733621932566166,
      "z": 0.023060163483023643,
      "time_usec": 83361069446
    },
    {
      "x": -0.003054326167330146,
      "y": 0.02977968007326126,
      "z": 0.021838432177901268,
      "time_usec": 83361071701
    },
    {
      "x": -0.001832595793530345,
      "y": 0.029626963660120964,
      "z": 0.021838432177901268,
      "time_usec": 83361073955
    },
    {
      "x": 6.108652451075613E-4,
      "y": 0.03329215571284294,
      "z": 0.020616702735424042,
      "time_usec": 83361076215
    },
    {
      "x": 6.108652451075613E-4,
      "y": 0.03680463135242462,
      "z": 0.020616702735424042,
      "time_usec": 83361078463
    },
    {
      "x": -0.001832595793530345,
      "y": 0.039248090237379074,
      "z": 0.01817324012517929,
      "time_usec": 83361080734
    },
    {
      "x": -0.00427605677396059,
      "y": 0.0429132841527462,
      "z": 0.01817324012517929,
      "time_usec": 83361082985
    },
    {
      "x": -0.01160643994808197,
      "y": 0.044287730008363724,
      "z": 0.016951510682702065,
      "time_usec": 83361085251
    },
    {
      "x": -0.012828170321881771,
      "y": 0.04657847434282303,
      "z": 0.016951510682702065,
      "time_usec": 83361087504
    },
    {
      "x": -0.01160643994808197,
      "y": 0.04657847434282303,
      "z": 0.012064588256180286,
      "time_usec": 83361089758
    },
    {
      "x": -0.014049900695681572,
      "y": 0.04306599870324135,
      "z": 0.013286318629980087,
      "time_usec": 83361092016
    },
    {
      "x": -0.012980886735022068,
      "y": 0.03695734590291977,
      "z": 0.009468411095440388,
      "time_usec": 83361094278
    },
    {
      "x": -0.017867809161543846,
      "y": 0.034666601568460464,
      "z": 0.005803219974040985,
      "time_usec": 83361096537
    },
    {
      "x": -0.01542434748262167,
      "y": 0.031001411378383636,
      "z": 0.002138028386980295,
      "time_usec": 83361098795
    },
    {
      "x": -0.018020525574684143,
      "y": 0.021380282938480377,
      "z": 0.003359758760780096,
      "time_usec": 83361101049
    },
    {
      "x": -0.016798794269561768,
      "y": 0.01771509274840355,
      "z": -3.054326225537807E-4,
      "time_usec": 83361103304
    },
    {
      "x": -0.016798794269561768,
      "y": 0.010537425056099892,
      "z": -0.001527163083665073,
      "time_usec": 83361105570
    },
    {
      "x": -0.018020525574684143,
      "y": 0.005650503560900688,
      "z": -0.004123340360820293,
      "time_usec": 83361107823
    },
    {
      "x": -0.01924225501716137,
      "y": 0.0019853119738399982,
      "z": -0.007788531947880983,
      "time_usec": 83361110080
    },
    {
      "x": -0.020616702735424042,
      "y": -0.0039706239476799965,
      "z": -0.010231993161141872,
      "time_usec": 83361112330
    },
    {
      "x": -0.02672535367310047,
      "y": -0.0027488935738801956,
      "z": -0.013897184282541275,
      "time_usec": 83361114592
    },
    {
      "x": -0.029168816283345222,
      "y": -0.0025961773935705423,
      "z": -0.012675453908741474,
      "time_usec": 83361116855
    },
    {
      "x": -0.027947084978222847,
      "y": -0.003817907767370343,
      "z": -0.011453723534941673,
      "time_usec": 83361119099
    },
    {
      "x": -0.03039054572582245,
      "y": -0.003817907767370343,
      "z": -0.012675453908741474,
      "time_usec": 83361121368
    },
    {
      "x": -0.0328340083360672,
      "y": -0.0025961773935705423,
      "z": -0.015271631069481373,
      "time_usec": 83361123619
    },
    {
      "x": -0.0354301854968071,
      "y": -0.0013744467869400978,
      "z": -0.016493361443281174,
      "time_usec": 83361125887
    },
    {
      "x": -0.036651913076639175,
      "y": -0.0013744467869400978,
      "z": -0.02015855349600315,
      "time_usec": 83361128140
    },
    {
      "x": -0.039095375686883926,
      "y": -0.0013744467869400978,
      "z": -0.016493361443281174,
      "time_usec": 83361130398
    },
    {
      "x": -0.04153883829712868,
      "y": 0.0022907445672899485,
      "z": -0.016493361443281174,
      "time_usec": 83361132651
    },
    {
      "x": -0.0403171069920063,
      "y": -0.0025961773935705423,
      "z": -0.016493361443281174,
      "time_usec": 83361134915
    },
    {
      "x": -0.042760565876960754,
      "y": -0.004886921960860491,
      "z": -0.01771509274840355,
      "time_usec": 83361137170
    },
    {
      "x": -0.045204028487205505,
      "y": -0.00366519158706069,
      "z": -0.018936822190880775,
      "time_usec": 83361139429
    },
    {
      "x": -0.04398229718208313,
      "y": -0.004886921960860491,
      "z": -0.01771509274840355,
      "time_usec": 83361141683
    },
    {
      "x": -0.044135015457868576,
      "y": -0.010995574295520782,
      "z": -0.018936822190880775,
      "time_usec": 83361143937
    },
    {
      "x": -0.04535674303770065,
      "y": -0.012217304669320583,
      "z": -0.021380282938480377,
      "time_usec": 83361146200
    },
    {
      "x": -0.04657847434282303,
      "y": -0.01572977937757969,
      "z": -0.022602014243602753,
      "time_usec": 83361148458
    },
    {
      "x": -0.04657847434282303,
      "y": -0.01817324012517929,
      "z": -0.021380282938480377,
      "time_usec": 83361150716
    },
    {
      "x": -0.0503963828086853,
      "y": -0.02168571576476097,
      "z": -0.02275473065674305,
      "time_usec": 83361152969
    },
    {
      "x": -0.052839845418930054,
      "y": -0.022907447069883347,
      "z": -0.02275473065674305,
      "time_usec": 83361155230
    },
    {
      "x": -0.05650503560900688,
      "y": -0.02886338345706463,
      "z": -0.023976460099220276,
      "time_usec": 83361157488
    },
    {
      "x": -0.060322944074869156,
      "y": -0.03481931984424591,
      "z": -0.021532999351620674,
      "time_usec": 83361159745
    },
    {
      "x": -0.06276640295982361,
      "y": -0.036041051149368286,
      "z": -0.02275473065674305,
      "time_usec": 83361161998
    },
    {
      "x": -0.06398813426494598,
      "y": -0.033597588539123535,
      "z": -0.020311269909143448,
      "time_usec": 83361164261
    },
    {
      "x": -0.06520986557006836,
      "y": -0.03237585723400116,
      "z": -0.019089538604021072,
      "time_usec": 83361166518
    },
    {
      "x": -0.06658431142568588,
      "y": -0.029932396486401558,
      "z": -0.01542434748262167,
      "time_usec": 83361168777
    },
    {
      "x": -0.06902777403593063,
      "y": -0.02626720629632473,
      "z": -0.014202617108821869,
      "time_usec": 83361171032
    },
    {
      "x": -0.07391469180583954,
      "y": -0.024892758578062057,
      "z": -0.00809396430850029,
      "time_usec": 83361173285
    },
    {
      "x": -0.07391469180583954,
      "y": -0.02015855349600315,
      "z": -0.00809396430850029,
      "time_usec": 83361175547
    },
    {
      "x": -0.07880161702632904,
      "y": -0.01878410577774048,
      "z": -0.005650503560900688,
      "time_usec": 83361177805
    },
    {
      "x": -0.08491026610136032,
      "y": -0.012675453908741474,
      "z": -0.0019853119738399982,
      "time_usec": 83361180063
    },
    {
      "x": -0.08491026610136032,
      "y": -0.011453723534941673,
      "z": 4.5814894838258624E-4,
      "time_usec": 83361182314
    },
    {
      "x": -0.08857546001672745,
      "y": -0.0065668015740811825,
      "z": 0.0029016099870204926,
      "time_usec": 83361184573
    },
    {
      "x": -0.08735372871160507,
      "y": 0.001832595793530345,
      "z": 0.0065668015740811825,
      "time_usec": 83361186836
    },
    {
      "x": -0.09224065393209457,
      "y": 0.005497787147760391,
      "z": 0.007788531947880983,
      "time_usec": 83361189096
    },
    {
      "x": -0.09346238523721695,
      "y": 0.01160643994808197,
      "z": 0.009010262787342072,
      "time_usec": 83361191350
    },
    {
      "x": -0.09086620807647705,
      "y": 0.01878410577774048,
      "z": 0.009010262787342072,
      "time_usec": 83361193602
    },
    {
      "x": -0.0884227454662323,
      "y": 0.02229658141732216,
      "z": 0.015118914656341076,
      "time_usec": 83361195865
    },
    {
      "x": -0.08964447677135468,
      "y": 0.025961773470044136,
      "z": 0.013897184282541275,
      "time_usec": 83361198119
    },
    {
      "x": -0.08597928285598755,
      "y": 0.029474247246980667,
      "z": 0.016493361443281174,
      "time_usec": 83361200367
    },
    {
      "x": -0.08338310569524765,
      "y": 0.030695978552103043,
      "z": 0.014049900695681572,
      "time_usec": 83361202631
    },
    {
      "x": -0.07849618047475815,
      "y": 0.027030786499381065,
      "z": 0.016493361443281174,
      "time_usec": 83361204890
    },
    {
      "x": -0.07727445662021637,
      "y": 0.02580905705690384,
      "z": 0.018936822190880775,
      "time_usec": 83361207157
    },
    {
      "x": -0.07727445662021637,
      "y": 0.024587325751781464,
      "z": 0.016493361443281174,
      "time_usec": 83361209412
    },
    {
      "x": -0.06627888232469559,
      "y": 0.022143865004181862,
      "z": 0.01771509274840355,
      "time_usec": 83361211668
    },
    {
      "x": -0.06261368840932846,
      "y": 0.01725694350898266,
      "z": 0.015271631069481373,
      "time_usec": 83361213920
    },
    {
      "x": -0.058795779943466187,
      "y": 0.018325956538319588,
      "z": 0.01542434748262167,
      "time_usec": 83361216180
    },
    {
      "x": -0.05390885844826698,
      "y": 0.019547687843441963,
      "z": 0.012980886735022068,
      "time_usec": 83361218428
    },
    {
      "x": -0.04764748737215996,
      "y": 0.016951510682702065,
      "z": 0.012980886735022068,
      "time_usec": 83361220697
    },
    {
      "x": -0.04153883829712868,
      "y": 0.013286318629980087,
      "z": 0.010537425056099892,
      "time_usec": 83361222947
    },
    {
      "x": -0.03787364438176155,
      "y": 0.014508049935102463,
      "z": 0.010537425056099892,
      "time_usec": 83361225201
    },
    {
      "x": -0.03039054572582245,
      "y": 0.007177666760981083,
      "z": 0.00809396430850029,
      "time_usec": 83361227458
    },
    {
      "x": -0.02687807008624077,
      "y": -0.003817907767370343,
      "z": 0.005650503560900688,
      "time_usec": 83361229728
    },
    {
      "x": -0.01817324012517929,
      "y": -0.01237002108246088,
      "z": 7.635815418325365E-4,
      "time_usec": 83361231983
    },
    {
      "x": -0.009621127508580685,
      "y": -0.01725694350898266,
      "z": -0.001679879380390048,
      "time_usec": 83361234247
    },
    {
      "x": -0.003512475173920393,
      "y": -0.022143865004181862,
      "z": -0.001527163083665073,
      "time_usec": 83361236498
    },
    {
      "x": 0.0027488935738801956,
      "y": -0.029474247246980667,
      "z": -0.005192354787141085,
      "time_usec": 83361238746
    },
    {
      "x": 0.0064140851609408855,
      "y": -0.033139441162347794,
      "z": -0.010079276748001575,
      "time_usec": 83361241014
    },
    {
      "x": 0.013744467869400978,
      "y": -0.04046982154250145,
      "z": -0.012522737495601177,
      "time_usec": 83361243265
    },
    {
      "x": 0.019853120669722557,
      "y": -0.04657847434282303,
      "z": -0.01863138936460018,
      "time_usec": 83361245521
    },
    {
      "x": 0.02367102913558483,
      "y": -0.046731192618608475,
      "z": -0.01618792861700058,
      "time_usec": 83361247785
    },
    {
      "x": 0.02733621932566166,
      "y": -0.043218716979026794,
      "z": -0.023518312722444534,
      "time_usec": 83361250032
    },
    {
      "x": 0.031001411378383636,
      "y": -0.04444044828414917,
      "z": -0.023518312722444534,
      "time_usec": 83361252296
    },
    {
      "x": 0.03481931984424591,
      "y": -0.04688390716910362,
      "z": -0.025961773470044136,
      "time_usec": 83361254545
    },
    {
      "x": 0.03848451003432274,
      "y": -0.04581489413976669,
      "z": -0.028405234217643738,
      "time_usec": 83361256807
    },
    {
      "x": 0.04214970022439957,
      "y": -0.04459316283464432,
      "z": -0.03084869496524334,
      "time_usec": 83361259070
    },
    {
      "x": 0.04352414980530739,
      "y": -0.04230241850018501,
      "z": -0.03451388701796532,
      "time_usec": 83361261322
    },
    {
      "x": 0.050854530185461044,
      "y": -0.041233405470848083,
      "z": -0.035582900047302246,
      "time_usec": 83361263581
    },
    {
      "x": 0.05345070734620094,
      "y": -0.041233405470848083,
      "z": -0.038026362657547,
      "time_usec": 83361265849
    },
    {
      "x": 0.05467243865132332,
      "y": -0.041233405470848083,
      "z": -0.04046982154250145,
      "time_usec": 83361268105
    },
    {
      "x": 0.055894169956445694,
      "y": -0.041233405470848083,
      "z": -0.044135015457868576,
      "time_usec": 83361270352
    },
    {
      "x": 0.05711590126156807,
      "y": -0.03894266113638878,
      "z": -0.04535674303770065,
      "time_usec": 83361272612
    },
    {
      "x": 0.054825156927108765,
      "y": -0.031612277030944824,
      "z": -0.04535674303770065,
      "time_usec": 83361274862
    },
    {
      "x": 0.05971207842230797,
      "y": -0.02932153269648552,
      "z": -0.04902193695306778,
      "time_usec": 83361277122
    },
    {
      "x": 0.05849034711718559,
      "y": -0.028099801391363144,
      "z": -0.05146539583802223,
      "time_usec": 83361279379
    },
    {
      "x": 0.05849034711718559,
      "y": -0.023365596309304237,
      "z": -0.050243668258190155,
      "time_usec": 83361281638
    },
    {
      "x": 0.05360342562198639,
      "y": -0.018478672951459885,
      "z": -0.05513058975338936,
      "time_usec": 83361283897
    },
    {
      "x": 0.05375614017248154,
      "y": -0.016035212203860283,
      "z": -0.056352317333221436,
      "time_usec": 83361286156
    },
    {
      "x": 0.048716504126787186,
      "y": -0.013591751456260681,
      "z": -0.058948494493961334,
      "time_usec": 83361288426
    },
    {
      "x": 0.04505131021142006,
      "y": -0.014813481830060482,
      "z": -0.06017022579908371,
      "time_usec": 83361290683
    },
    {
      "x": 0.04260785132646561,
      "y": -0.01710422709584236,
      "z": -0.061391957104206085,
      "time_usec": 83361292936
    },
    {
      "x": 0.04260785132646561,
      "y": -0.018478672951459885,
      "z": -0.06505715101957321,
      "time_usec": 83361295195
    },
    {
      "x": 0.03878994286060333,
      "y": -0.02321287989616394,
      "z": -0.06383541971445084,
      "time_usec": 83361297450
    },
    {
      "x": 0.03390302136540413,
      "y": -0.020616702735424042,
      "z": -0.061391957104206085,
      "time_usec": 83361299697
    },
    {
      "x": 0.030085112899541855,
      "y": -0.02428189292550087,
      "z": -0.05910121276974678,
      "time_usec": 83361301960
    },
    {
      "x": 0.030085112899541855,
      "y": -0.02428189292550087,
      "z": -0.060322944074869156,
      "time_usec": 83361304220
    },
    {
      "x": 0.027641652151942253,
      "y": -0.02535090781748295,
      "z": -0.060322944074869156,
      "time_usec": 83361306483
    },
    {
      "x": 0.02519819140434265,
      "y": -0.022907447069883347,
      "z": -0.057879481464624405,
      "time_usec": 83361308730
    },
    {
      "x": 0.02275473065674305,
      "y": -0.020463986322283745,
      "z": -0.05665775015950203,
      "time_usec": 83361310996
    },
    {
      "x": 0.02275473065674305,
      "y": -0.01924225501716137,
      "z": -0.05421429127454758,
      "time_usec": 83361313240
    },
    {
      "x": 0.023976460099220276,
      "y": -0.016951510682702065,
      "z": -0.05421429127454758,
      "time_usec": 83361315501
    },
    {
      "x": 0.019089538604021072,
      "y": -0.018020525574684143,
      "z": -0.0529925599694252,
      "time_usec": 83361317754
    },
    {
      "x": 0.021532999351620674,
      "y": -0.018020525574684143,
      "z": -0.051770828664302826,
      "time_usec": 83361320015
    },
    {
      "x": 0.020311269909143448,
      "y": -0.015577063895761967,
      "z": -0.04932736977934837,
      "time_usec": 83361322272
    },
    {
      "x": 0.017867809161543846,
      "y": -0.016798794269561768,
      "z": -0.04932736977934837,
      "time_usec": 83361324533
    },
    {
      "x": 0.019089538604021072,
      "y": -0.015577063895761967,
      "z": -0.04932736977934837,
      "time_usec": 83361326804
    },
    {
      "x": 0.017867809161543846,
      "y": -0.015577063895761967,
      "z": -0.04688390716910362,
      "time_usec": 83361329061
    },
    {
      "x": 0.015271631069481373,
      "y": -0.019089538604021072,
      "z": -0.04566217586398125,
      "time_usec": 83361331318
    },
    {
      "x": 0.01038470957428217,
      "y": -0.012980886735022068,
      "z": -0.043218716979026794,
      "time_usec": 83361333569
    },
    {
      "x": 0.009162978269159794,
      "y": -0.011759156361222267,
      "z": -0.04199698567390442,
      "time_usec": 83361335830
    },
    {
      "x": 0.009162978269159794,
      "y": -0.011759156361222267,
      "z": -0.04077525436878204,
      "time_usec": 83361338088
    },
    {
      "x": 0.009162978269159794,
      "y": -0.012980886735022068,
      "z": -0.04077525436878204,
      "time_usec": 83361340346
    },
    {
      "x": 0.007941247895359993,
      "y": -0.011759156361222267,
      "z": -0.03833179548382759,
      "time_usec": 83361342600
    },
    {
      "x": 0.006719517521560192,
      "y": -0.010537425056099892,
      "z": -0.03588833287358284,
      "time_usec": 83361344860
    },
    {
      "x": 0.007941247895359993,
      "y": -0.010537425056099892,
      "z": -0.034666601568460464,
      "time_usec": 83361347117
    },
    {
      "x": 0.0029016099870204926,
      "y": -0.01160643994808197,
      "z": -0.034666601568460464,
      "time_usec": 83361349376
    },
    {
      "x": -0.0019853119738399982,
      "y": -0.006719517521560192,
      "z": -0.03344487398862839,
      "time_usec": 83361351635
    },
    {
      "x": -0.0019853119738399982,
      "y": -0.0019853119738399982,
      "z": -0.02977968007326126,
      "time_usec": 83361353894
    },
    {
      "x": -0.005650503560900688,
      "y": 4.5814894838258624E-4,
      "z": -0.028557950630784035,
      "time_usec": 83361356147
    },
    {
      "x": -0.006872233934700489,
      "y": 0.007788531947880983,
      "z": -0.02733621932566166,
      "time_usec": 83361358405
    },
    {
      "x": -0.011759156361222267,
      "y": 0.010231993161141872,
      "z": -0.02367102913558483,
      "time_usec": 83361360660
    },
    {
      "x": -0.01664607785642147,
      "y": 0.017562376335263252,
      "z": -0.022449297830462456,
      "time_usec": 83361362915
    },
    {
      "x": -0.01664607785642147,
      "y": 0.01878410577774048,
      "z": -0.022449297830462456,
      "time_usec": 83361365178
    },
    {
      "x": -0.019089538604021072,
      "y": 0.020005837082862854,
      "z": -0.02367102913558483,
      "time_usec": 83361367436
    },
    {
      "x": -0.023976460099220276,
      "y": 0.026114489883184433,
      "z": -0.02367102913558483,
      "time_usec": 83361369694
    },
    {
      "x": -0.026419922709465027,
