{
  "rotations": [
    {
      "x": -0.07024950534105301,
      "y": -0.03344487398862839,
      "z": 0.027641652151942253,
      "time_usec": 67479475355
    },
    {
      "x": -0.04917465150356293,
      "y": -0.02779436856508255,
      "z": 0.01542434748262167,
      "time_usec": 67479477613
    },
    {
      "x": -0.02932153269648552,
      "y": -0.02687807008624077,
      "z": 0.008246680721640587,
      "time_usec": 67479479869
    },
    {
      "x": -0.009468411095440388,
      "y": -0.02367102913558483,
      "z": -0.005192354787141085,
      "time_usec": 67479482126
    },
    {
      "x": 0.0065668015740811825,
      "y": -0.019089538604021072,
      "z": -0.0074830991216003895,
      "time_usec": 67479484383
    },
    {
      "x": 0.023976460099220276,
      "y": -0.016951510682702065,
      "z": -0.013591751456260681,
      "time_usec": 67479486640
    },
    {
      "x": 0.032681290060281754,
      "y": -0.013439035043120384,
      "z": -0.01710422709584236,
      "time_usec": 67479488897
    },
    {
      "x": 0.03894266113638878,
      "y": -0.008857546374201775,
      "z": -0.019547687843441963,
      "time_usec": 67479491155
    },
    {
      "x": 0.04505131021142006,
      "y": -0.007635815534740686,
      "z": -0.02321287989616394,
      "time_usec": 67479493412
    },
    {
      "x": 0.04138612002134323,
      "y": -0.007635815534740686,
      "z": -0.018325956538319588,
      "time_usec": 67479495670
    },
    {
      "x": 0.03894266113638878,
      "y": -0.008704829961061478,
      "z": -0.01710422709584236,
      "time_usec": 67479497923
    },
    {
      "x": 0.030237829312682152,
      "y": -0.0025961773935705423,
      "z": -0.009773843921720982,
      "time_usec": 67479500171
    },
    {
      "x": 0.02535090781748295,
      "y": 0.0010690141934901476,
      "z": -0.009773843921720982,
      "time_usec": 67479502439
    },
    {
      "x": 0.012980886735022068,
      "y": 0.00366519158706069,
      "z": -0.008704829961061478,
      "time_usec": 67479504694
    },
    {
      "x": 0.004428773187100887,
      "y": 0.006261368747800589,
      "z": -0.0025961773935705423,
      "time_usec": 67479506944
    },
    {
      "x": -0.00427605677396059,
      "y": 0.009926560334861279,
      "z": -1.5271631127689034E-4,
      "time_usec": 67479509212
    },
    {
      "x": -0.012980886735022068,
      "y": 0.0065668015740811825,
      "z": 0.005955935921519995,
      "time_usec": 67479511469
    },
    {
      "x": -0.02168571576476097,
      "y": 0.009010262787342072,
      "z": 0.008246680721640587,
      "time_usec": 67479513731
    },
    {
      "x": -0.032681290060281754,
      "y": 0.01160643994808197,
      "z": 0.01191187184303999,
      "time_usec": 67479515983
    },
    {
      "x": -0.03894266113638878,
      "y": 0.011759156361222267,
      "z": 0.013133603148162365,
      "time_usec": 67479518240
    },
    {
      "x": -0.04886921867728233,
      "y": 0.009468411095440388,
      "z": 0.013133603148162365,
      "time_usec": 67479520497
    },
    {
      "x": -0.05375614017248154,
      "y": 0.013133603148162365,
      "z": 0.012980886735022068,
      "time_usec": 67479522754
    },
    {
      "x": -0.05742133408784866,
      "y": 0.016798794269561768,
      "z": 0.011759156361222267,
      "time_usec": 67479525008
    },
    {
      "x": -0.062460970133543015,
      "y": 0.015577063895761967,
      "z": 0.012980886735022068,
      "time_usec": 67479527255
    },
    {
      "x": -0.06612616032361984,
      "y": 0.016951510682702065,
      "z": 0.01542434748262167,
      "time_usec": 67479529526
    },
    {
      "x": -0.06979135423898697,
      "y": 0.01817324012517929,
      "z": 0.014202617108821869,
      "time_usec": 67479531784
    },
    {
      "x": -0.07223481684923172,
      "y": 0.01817324012517929,
      "z": 0.011759156361222267,
      "time_usec": 67479534042
    },
    {
      "x": -0.076052725315094,
      "y": 0.013439035043120384,
      "z": 0.01664607785642147,
      "time_usec": 67479536291
    },
    {
      "x": -0.07483099400997162,
      "y": 0.00733038317412138,
      "z": 0.01160643994808197,
      "time_usec": 67479538538
    },
    {
      "x": -0.07727445662021637,
      "y": 0.003817907767370343,
      "z": 0.012828170321881771,
      "time_usec": 67479540796
    },
    {
      "x": -0.07727445662021637,
      "y": 0.0013744467869400978,
      "z": 0.015271631069481373,
      "time_usec": 67479543063
    },
    {
      "x": -0.07742717117071152,
      "y": -0.004581489134579897,
      "z": 0.014049900695681572,
      "time_usec": 67479545328
    },
    {
      "x": -0.08109235763549805,
      "y": -0.005803219974040985,
      "z": 0.014049900695681572,
      "time_usec": 67479547585
    },
    {
      "x": -0.07987063378095627,
      "y": -0.008246680721640587,
      "z": 0.007941247895359993,
      "time_usec": 67479549841
    },
    {
      "x": -0.07742717117071152,
      "y": -0.010690141469240189,
      "z": 0.01038470957428217,
      "time_usec": 67479552096
    },
    {
      "x": -0.07131851464509964,
      "y": -0.015577063895761967,
      "z": 0.005497787147760391,
      "time_usec": 67479554353
    },
    {
      "x": -0.06765332818031311,
      "y": -0.02168571576476097,
      "z": 0.00427605677396059,
      "time_usec": 67479556610
    },
    {
      "x": -0.058948494493961334,
      "y": -0.029016099870204926,
      "z": 0.005497787147760391,
      "time_usec": 67479558867
    },
    {
      "x": -0.0503963828086853,
      "y": -0.03634648025035858,
      "z": 0.005650503560900688,
      "time_usec": 67479561125
    },
    {
      "x": -0.044287730008363724,
      "y": -0.04001167416572571,
      "z": 0.010537425056099892,
      "time_usec": 67479563382
    },
    {
      "x": -0.038179077208042145,
      "y": -0.04612032696604729,
      "z": 0.0019853119738399982,
      "time_usec": 67479565636
    },
    {
      "x": -0.03084869496524334,
      "y": -0.05696318298578262,
      "z": 0.0019853119738399982,
      "time_usec": 67479567883
    },
    {
      "x": -0.027030786499381065,
      "y": -0.05711590126156807,
      "z": -4.5814894838258624E-4,
      "time_usec": 67479570148
    },
    {
      "x": -0.01970040425658226,
      "y": -0.0607810914516449,
      "z": -0.0065668015740811825,
      "time_usec": 67479572410
    },
    {
      "x": -0.020922135561704636,
      "y": -0.06200282275676727,
      "z": -0.007788531947880983,
      "time_usec": 67479574670
    },
    {
      "x": -0.00855211354792118,
      "y": -0.06459899991750717,
      "z": -0.011453723534941673,
      "time_usec": 67479576924
    },
    {
      "x": -0.00855211354792118,
      "y": -0.06230825558304787,
      "z": -0.015118914656341076,
      "time_usec": 67479579176
    },
    {
      "x": -0.003512475173920393,
      "y": -0.06108652427792549,
      "z": -0.01618792861700058,
      "time_usec": 67479581438
    },
    {
      "x": 0.003817907767370343,
      "y": -0.06001751124858856,
      "z": -0.019853120669722557,
      "time_usec": 67479583696
    },
    {
      "x": 0.005192354787141085,
      "y": -0.05161811411380768,
      "z": -0.01863138936460018,
      "time_usec": 67479585954
    },
    {
      "x": 0.015118914656341076,
      "y": -0.048105638474226,
      "z": -0.021074850112199783,
      "time_usec": 67479588197
    },
    {
      "x": 0.02015855349600315,
      "y": -0.04459316283464432,
      "z": -0.022143865004181862,
      "time_usec": 67479590463
    },
    {
      "x": 0.022602014243602753,
      "y": -0.03497203439474106,
      "z": -0.01970040425658226,
      "time_usec": 67479592730
    },
    {
      "x": 0.02626720629632473,
      "y": -0.035124752670526505,
      "z": -0.018478672951459885,
      "time_usec": 67479594971
    },
    {
      "x": 0.03375030308961868,
      "y": -0.03039054572582245,
      "z": -0.01970040425658226,
      "time_usec": 67479597236
    },
    {
      "x": 0.03756821155548096,
      "y": -0.024434609338641167,
      "z": -0.02076941914856434,
      "time_usec": 67479599478
    },
    {
      "x": 0.04260785132646561,
      "y": -0.020922135561704636,
      "z": -0.021991148591041565,
      "time_usec": 67479601751
    },
    {
      "x": 0.04505131021142006,
      "y": -0.013744467869400978,
      "z": -0.024434609338641167,
      "time_usec": 67479604011
    },
    {
      "x": 0.04749477282166481,
      "y": -0.012522737495601177,
      "z": -0.021991148591041565,
      "time_usec": 67479606269
    },
    {
      "x": 0.05009094998240471,
      "y": -0.01618792861700058,
      "z": -0.02687807008624077,
      "time_usec": 67479608518
    },
    {
      "x": 0.051312681287527084,
      "y": -0.009010262787342072,
      "z": -0.02687807008624077,
      "time_usec": 67479610772
    },
    {
      "x": 0.051312681287527084,
      "y": -0.00427605677396059,
      "z": -0.02932153269648552,
      "time_usec": 67479613026
    },
    {
      "x": 0.05268712714314461,
      "y": -0.00427605677396059,
      "z": -0.03298672288656235,
      "time_usec": 67479615296
    },
    {
      "x": 0.05513058975338936,
      "y": 0.001679879380390048,
      "z": -0.036651913076639175,
      "time_usec": 67479617552
    },
    {
      "x": 0.05390885844826698,
      "y": 0.001679879380390048,
      "z": -0.0354301854968071,
      "time_usec": 67479619808
    },
    {
      "x": 0.05513058975338936,
      "y": 0.001679879380390048,
      "z": -0.0403171069920063,
      "time_usec": 67479622070
    },
    {
      "x": 0.05390885844826698,
      "y": 0.0029016099870204926,
      "z": -0.0403171069920063,
      "time_usec": 67479624321
    },
    {
      "x": 0.05146539583802223,
      "y": 0.001679879380390048,
      "z": -0.04398229718208313,
      "time_usec": 67479626569
    },
    {
      "x": 0.05146539583802223,
      "y": 0.001679879380390048,
      "z": -0.045204028487205505,
      "time_usec": 67479628828
    },
    {
      "x": 0.05146539583802223,
      "y": 0.001679879380390048,
      "z": -0.04153883829712868,
      "time_usec": 67479631082
    },
    {
      "x": 0.05390885844826698,
      "y": 0.001679879380390048,
      "z": -0.045204028487205505,
      "time_usec": 67479633353
    },
    {
      "x": 0.05390885844826698,
      "y": 4.5814894838258624E-4,
      "z": -0.04398229718208313,
      "time_usec": 67479635601
    },
    {
      "x": 0.056352317333221436,
      "y": 4.5814894838258624E-4,
      "z": -0.04398229718208313,
      "time_usec": 67479637855
    },
    {
      "x": 0.056352317333221436,
      "y": -0.005497787147760391,
      "z": -0.042760565876960754,
      "time_usec": 67479640114
    },
    {
      "x": 0.06001751124858856,
      "y": -0.006872233934700489,
      "z": -0.04398229718208313,
      "time_usec": 67479642369
    },
    {
      "x": 0.058795779943466187,
      "y": -0.009162978269159794,
      "z": -0.045204028487205505,
      "time_usec": 67479644638
    },
    {
      "x": 0.06123924255371094,
      "y": -0.01160643994808197,
      "z": -0.04153883829712868,
      "time_usec": 67479646883
    },
    {
      "x": 0.06368270516395569,
      "y": -0.015271631069481373,
      "z": -0.045204028487205505,
      "time_usec": 67479649155
    },
    {
      "x": 0.06612616032361984,
      "y": -0.016493361443281174,
      "z": -0.04153883829712868,
      "time_usec": 67479651409
    },
    {
      "x": 0.06734789162874222,
      "y": -0.018936822190880775,
      "z": -0.0403171069920063,
      "time_usec": 67479653666
    },
    {
      "x": 0.06734789162874222,
      "y": -0.016493361443281174,
      "z": -0.036651913076639175,
      "time_usec": 67479655907
    },
    {
      "x": 0.06612616032361984,
      "y": -0.018936822190880775,
      "z": -0.036651913076639175,
      "time_usec": 67479658166
    },
    {
      "x": 0.06490442901849747,
      "y": -0.020005837082862854,
      "z": -0.030543262138962746,
      "time_usec": 67479660423
    },
    {
      "x": 0.06108652427792549,
      "y": -0.02229658141732216,
      "z": -0.02687807008624077,
      "time_usec": 67479662691
    },
    {
      "x": 0.05360342562198639,
      "y": -0.02229658141732216,
      "z": -0.024434609338641167,
      "time_usec": 67479664951
    },
    {
      "x": 0.04993823543190956,
      "y": -0.020922135561704636,
      "z": -0.021991148591041565,
      "time_usec": 67479667197
    },
    {
      "x": 0.04505131021142006,
      "y": -0.01725694350898266,
      "z": -0.015882495790719986,
      "time_usec": 67479669458
    },
    {
      "x": 0.03878994286060333,
      "y": -0.016035212203860283,
      "z": -0.01466076634824276,
      "time_usec": 67479671707
    },
    {
      "x": 0.032681290060281754,
      "y": -0.010995574295520782,
      "z": -0.00855211354792118,
      "time_usec": 67479673967
    },
    {
      "x": 0.026572637259960175,
      "y": -0.004886921960860491,
      "z": -0.006108652334660292,
      "time_usec": 67479676223
    },
    {
      "x": 0.022907447069883347,
      "y": -0.0,
      "z": -0.0024434609804302454,
      "time_usec": 67479678482
    },
    {
      "x": 0.01542434748262167,
      "y": 0.00733038317412138,
      "z": 0.0012217304902151227,
      "time_usec": 67479680741
    },
    {
      "x": 0.00931569468230009,
      "y": 0.009773843921720982,
      "z": 0.00366519158706069,
      "time_usec": 67479682999
    },
    {
      "x": 0.004428773187100887,
      "y": 0.01114829070866108,
      "z": 0.005955935921519995,
      "time_usec": 67479685268
    },
    {
      "x": -0.001832595793530345,
      "y": 0.01114829070866108,
      "z": 0.010842857882380486,
      "time_usec": 67479687524
    },
    {
      "x": -0.003054326167330146,
      "y": 0.010079276748001575,
      "z": 0.014508049935102463,
      "time_usec": 67479689778
    },
    {
      "x": -0.011759156361222267,
      "y": 0.007788531947880983,
      "z": 0.01817324012517929,
      "time_usec": 67479692045
    },
    {
      "x": -0.010690141469240189,
      "y": 0.001832595793530345,
      "z": 0.02428189292550087,
      "time_usec": 67479694295
    },
    {
      "x": -0.01191187184303999,
      "y": 0.001832595793530345,
      "z": 0.03039054572582245,
      "time_usec": 67479696551
    },
    {
      "x": -0.016798794269561768,
      "y": -0.001679879380390048,
      "z": 0.0328340083360672,
      "time_usec": 67479698798
    },
    {
      "x": -0.01817324012517929,
      "y": -0.0029016099870204926,
      "z": 0.03405573591589928,
      "time_usec": 67479701052
    },
    {
      "x": -0.01572977937757969,
      "y": -0.004123340360820293,
      "z": 0.03527746722102165,
      "time_usec": 67479703322
    },
    {
      "x": -0.01572977937757969,
      "y": -0.004123340360820293,
      "z": 0.0377209298312664,
      "time_usec": 67479705577
    },
    {
      "x": -0.015577063895761967,
      "y": -4.5814894838258624E-4,
      "z": 0.0377209298312664,
      "time_usec": 67479707826
    },
    {
      "x": -0.013133603148162365,
      "y": -0.0029016099870204926,
      "z": 0.03649919852614403,
      "time_usec": 67479710088
    },
    {
      "x": -0.013133603148162365,
      "y": -0.005345070734620094,
      "z": 0.03649919852614403,
      "time_usec": 67479712352
    },
    {
      "x": -0.014355333521962166,
      "y": -0.004123340360820293,
      "z": 0.03039054572582245,
      "time_usec": 67479714611
    },
    {
      "x": -0.010690141469240189,
      "y": -0.0065668015740811825,
      "z": 0.03039054572582245,
      "time_usec": 67479716865
    },
    {
      "x": -0.008246680721640587,
      "y": -0.007788531947880983,
      "z": 0.02428189292550087,
      "time_usec": 67479719116
    },
    {
      "x": -0.008246680721640587,
      "y": -0.012675453908741474,
      "z": 0.01817324012517929,
      "time_usec": 67479721379
    },
    {
      "x": -0.005803219974040985,
      "y": -0.01878410577774048,
      "z": 0.014508049935102463,
      "time_usec": 67479723633
    },
    {
      "x": -0.005803219974040985,
      "y": -0.028405234217643738,
      "z": 0.012064588256180286,
      "time_usec": 67479725880
    },
    {
      "x": -0.0022907445672899485,
      "y": -0.038179077208042145,
      "z": 0.005955935921519995,
      "time_usec": 67479728145
    },
    {
      "x": 0.0039706239476799965,
      "y": -0.040622539818286896,
      "z": 0.0022907445672899485,
      "time_usec": 67479730406
    },
    {
      "x": 0.0064140851609408855,
      "y": -0.044287730008363724,
      "z": -1.5271631127689034E-4,
      "time_usec": 67479732668
    },
    {
      "x": 0.007635815534740686,
      "y": -0.04917465150356293,
      "z": -0.005192354787141085,
      "time_usec": 67479734923
    },
    {
      "x": 0.012522737495601177,
      "y": -0.0503963828086853,
      "z": -0.006261368747800589,
      "time_usec": 67479737178
    },
    {
      "x": 0.01618792861700058,
      "y": -0.05406157299876213,
      "z": -0.0074830991216003895,
      "time_usec": 67479739430
    },
    {
      "x": 0.01618792861700058,
      "y": -0.055283304303884506,
      "z": -0.008704829961061478,
      "time_usec": 67479741690
    },
    {
      "x": 0.017562376335263252,
      "y": -0.05421429127454758,
      "z": -0.01114829070866108,
      "time_usec": 67479743937
    },
    {
      "x": 0.02122756652534008,
      "y": -0.0529925599694252,
      "z": -0.01237002108246088,
      "time_usec": 67479746207
    },
    {
      "x": 0.02871066704392433,
      "y": -0.04703662544488907,
      "z": -0.013591751456260681,
      "time_usec": 67479748461
    },
    {
      "x": 0.02871066704392433,
      "y": -0.04352414980530739,
      "z": -0.016035212203860283,
      "time_usec": 67479750726
    },
    {
      "x": 0.032528575509786606,
      "y": -0.03878994286060333,
      "z": -0.016035212203860283,
      "time_usec": 67479752965
    },
    {
      "x": 0.032528575509786606,
      "y": -0.03039054572582245,
      "z": -0.014813481830060482,
      "time_usec": 67479755236
    },
    {
      "x": 0.03130684420466423,
      "y": -0.02428189292550087,
      "z": -0.018478672951459885,
      "time_usec": 67479757490
    },
    {
      "x": 0.03145955875515938,
      "y": -0.01466076634824276,
      "z": -0.020922135561704636,
      "time_usec": 67479759749
    },
    {
      "x": 0.03405573591589928,
      "y": -0.0074830991216003895,
      "z": -0.021991148591041565,
      "time_usec": 67479762007
    },
    {
      "x": 0.03527746722102165,
      "y": 9.162978967651725E-4,
      "z": -0.021991148591041565,
      "time_usec": 67479764264
    },
    {
      "x": 0.03527746722102165,
      "y": 0.004428773187100887,
      "z": -0.024434609338641167,
      "time_usec": 67479766522
    },
    {
      "x": 0.031612277030944824,
      "y": 0.00809396430850029,
      "z": -0.021991148591041565,
      "time_usec": 67479768770
    },
    {
      "x": 0.03298672288656235,
      "y": 0.016493361443281174,
      "z": -0.024434609338641167,
      "time_usec": 67479771019
    },
    {
      "x": 0.03298672288656235,
      "y": 0.022602014243602753,
      "z": -0.02321287989616394,
      "time_usec": 67479773279
    },
    {
      "x": 0.03298672288656235,
      "y": 0.021380282938480377,
      "z": -0.025656340643763542,
      "time_usec": 67479775551
    },
    {
      "x": 0.030543262138962746,
      "y": 0.022602014243602753,
      "z": -0.028099801391363144,
      "time_usec": 67479777808
    },
    {
      "x": 0.02932153269648552,
      "y": 0.02382374368607998,
      "z": -0.02687807008624077,
      "time_usec": 67479780060
    },
    {
      "x": 0.03176499158143997,
      "y": 0.021380282938480377,
      "z": -0.02687807008624077,
      "time_usec": 67479782321
    },
    {
      "x": 0.02932153269648552,
      "y": 0.015271631069481373,
      "z": -0.030543262138962746,
      "time_usec": 67479784577
    },
    {
      "x": 0.02428189292550087,
      "y": 0.016493361443281174,
      "z": -0.033139441162347794,
      "time_usec": 67479786827
    },
    {
      "x": 0.024434609338641167,
      "y": 0.018936822190880775,
      "z": -0.03191770985722542,
      "time_usec": 67479789085
    },
    {
      "x": 0.020616702735424042,
      "y": 0.01664607785642147,
      "z": -0.03191770985722542,
      "time_usec": 67479791343
    },
    {
      "x": 0.01817324012517929,
      "y": 0.020311269909143448,
      "z": -0.03191770985722542,
      "time_usec": 67479793608
    },
    {
      "x": 0.021991148591041565,
      "y": 0.022602014243602753,
      "z": -0.033139441162347794,
      "time_usec": 67479795864
    },
    {
      "x": 0.021991148591041565,
      "y": 0.022602014243602753,
      "z": -0.033139441162347794,
      "time_usec": 67479798116
    },
    {
      "x": 0.021991148591041565,
      "y": 0.022602014243602753,
      "z": -0.03436116874217987,
      "time_usec": 67479800375
    },
    {
      "x": 0.021991148591041565,
      "y": 0.022602014243602753,
      "z": -0.035582900047302246,
      "time_usec": 67479802637
    },
    {
      "x": 0.024434609338641167,
      "y": 0.02367102913558483,
      "z": -0.039248090237379074,
      "time_usec": 67479804893
    },
    {
      "x": 0.02321287989616394,
      "y": 0.024892758578062057,
      "z": -0.04046982154250145,
      "time_usec": 67479807145
    },
    {
      "x": 0.025656340643763542,
      "y": 0.02122756652534008,
      "z": -0.041691552847623825,
      "time_usec": 67479809401
    },
    {
      "x": 0.028099801391363144,
      "y": 0.01878410577774048,
      "z": -0.04535674303770065,
      "time_usec": 67479811663
    },
    {
      "x": 0.02687807008624077,
      "y": 0.009162978269159794,
      "z": -0.04902193695306778,
      "time_usec": 67479813921
    },
    {
      "x": 0.02672535367310047,
      "y": -0.001679879380390048,
      "z": -0.05268712714314461,
      "time_usec": 67479816175
    },
    {
      "x": 0.02672535367310047,
      "y": -0.011301007121801376,
      "z": -0.058948494493961334,
      "time_usec": 67479818419
    },
    {
      "x": 0.02779436856508255,
      "y": -0.02580905705690384,
      "z": -0.058948494493961334,
      "time_usec": 67479820680
    },
    {
      "x": 0.027641652151942253,
      "y": -0.04138612002134323,
      "z": -0.06261368840932846,
      "time_usec": 67479822949
    },
    {
      "x": 0.027641652151942253,
      "y": -0.05100724846124649,
      "z": -0.06261368840932846,
      "time_usec": 67479825209
    },
    {
      "x": 0.02519819140434265,
      "y": -0.05711590126156807,
      "z": -0.06765332818031311,
      "time_usec": 67479827465
    },
    {
      "x": 0.02626720629632473,
      "y": -0.06185010448098183,
      "z": -0.06887505948543549,
      "time_usec": 67479829716
    },
    {
      "x": 0.025045474991202354,
      "y": -0.06429356336593628,
      "z": -0.06765332818031311,
      "time_usec": 67479831977
    },
    {
      "x": 0.02871066704392433,
      "y": -0.06673702597618103,
      "z": -0.06887505948543549,
      "time_usec": 67479834234
    },
    {
      "x": 0.030085112899541855,
      "y": -0.06444628536701202,
      "z": -0.07498370856046677,
      "time_usec": 67479836492
    },
    {
      "x": 0.03130684420466423,
      "y": -0.06444628536701202,
      "z": -0.07498370856046677,
      "time_usec": 67479838745
    },
    {
      "x": 0.03375030308961868,
      "y": -0.0607810914516449,
      "z": -0.07360926270484924,
      "time_usec": 67479841006
    },
    {
      "x": 0.03756821155548096,
      "y": -0.05971207842230797,
      "z": -0.07360926270484924,
      "time_usec": 67479843263
    },
    {
      "x": 0.04001167416572571,
      "y": -0.05604688450694084,
      "z": -0.07238753139972687,
      "time_usec": 67479845522
    },
    {
      "x": 0.041233405470848083,
      "y": -0.05360342562198639,
      "z": -0.06994406878948212,
      "time_usec": 67479847783
    },
    {
      "x": 0.04245513305068016,
      "y": -0.04642575979232788,
      "z": -0.06872233748435974,
      "time_usec": 67479850030
    },
    {
      "x": 0.04505131021142006,
      "y": -0.038026362657547,
      "z": -0.06750060617923737,
      "time_usec": 67479852291
    },
    {
      "x": 0.04642575979232788,
      "y": -0.027183502912521362,
      "z": -0.06490442901849747,
      "time_usec": 67479854539
    },
    {
      "x": 0.04886921867728233,
      "y": -0.024892758578062057,
      "z": -0.062460970133543015,
      "time_usec": 67479856805
    },
    {
      "x": 0.050243668258190155,
      "y": -0.015271631069481373,
      "z": -0.062460970133543015,
      "time_usec": 67479859055
    },
    {
      "x": 0.05513058975338936,
      "y": -0.0032070425804704428,
      "z": -0.05742133408784866,
      "time_usec": 67479861322
    },
    {
      "x": 0.055283304303884506,
      "y": 0.0039706239476799965,
      "z": -0.05375614017248154,
      "time_usec": 67479863576
    },
    {
      "x": 0.055283304303884506,
      "y": 0.010079276748001575,
      "z": -0.051312681287527084,
      "time_usec": 67479865836
    },
    {
      "x": 0.05910121276974678,
      "y": 0.019547687843441963,
      "z": -0.051312681287527084,
      "time_usec": 67479868086
    },
    {
      "x": 0.05910121276974678,
      "y": 0.025656340643763542,
      "z": -0.04886921867728233,
      "time_usec": 67479870350
    },
    {
      "x": 0.06154467165470123,
      "y": 0.029168816283345222,
      "z": -0.04886921867728233,
      "time_usec": 67479872605
    },
    {
      "x": 0.06414084881544113,
      "y": 0.03405573591589928,
      "z": -0.046273041516542435,
      "time_usec": 67479874866
    },
    {
      "x": 0.06658431142568588,
      "y": 0.029168816283345222,
      "z": -0.046273041516542435,
      "time_usec": 67479877117
    },
    {
      "x": 0.07024950534105301,
      "y": 0.03039054572582245,
      "z": -0.04505131021142006,
      "time_usec": 67479879368
    },
    {
      "x": 0.07269296050071716,
      "y": 0.029016099870204926,
      "z": -0.046273041516542435,
      "time_usec": 67479881617
    },
    {
      "x": 0.07391469180583954,
      "y": 0.020616702735424042,
      "z": -0.04505131021142006,
      "time_usec": 67479883877
    },
    {
      "x": 0.07880161702632904,
      "y": 0.013439035043120384,
      "z": -0.04505131021142006,
      "time_usec": 67479886146
    },
    {
      "x": 0.08002334833145142,
      "y": 0.00855211354792118,
      "z": -0.04749477282166481,
      "time_usec": 67479888403
    },
    {
      "x": 0.08368854224681854,
      "y": 0.004886921960860491,
      "z": -0.04993823543190956,
      "time_usec": 67479890665
    },
    {
      "x": 0.08491026610136032,
      "y": -0.0012217304902151227,
      "z": -0.048716504126787186,
      "time_usec": 67479892921
    },
    {
      "x": 0.08979719132184982,
      "y": -0.006108652334660292,
      "z": -0.04993823543190956,
      "time_usec": 67479895177
    },
    {
      "x": 0.09224065393209457,
      "y": -0.009621127508580685,
      "z": -0.048716504126787186,
      "time_usec": 67479897432
    },
    {
      "x": 0.0910189226269722,
      "y": -0.008399397134780884,
      "z": -0.048716504126787186,
      "time_usec": 67479899685
    },
    {
      "x": 0.09224065393209457,
      "y": -0.007177666760981083,
      "z": -0.04505131021142006,
      "time_usec": 67479901947
    },
    {
      "x": 0.09086620807647705,
      "y": -0.009621127508580685,
      "z": -0.04260785132646561,
      "time_usec": 67479904201
    },
    {
      "x": 0.0884227454662323,
      "y": -0.007177666760981083,
      "z": -0.040164388716220856,
      "time_usec": 67479906450
    },
    {
      "x": 0.0884227454662323,
      "y": -0.007177666760981083,
      "z": -0.03894266113638878,
      "time_usec": 67479908715
    },
    {
      "x": 0.08597928285598755,
      "y": -0.004734205547720194,
      "z": -0.03649919852614403,
      "time_usec": 67479910977
    },
    {
      "x": 0.08231408894062042,
      "y": 0.005039638374000788,
      "z": -0.0328340083360672,
      "time_usec": 67479913233
    },
    {
      "x": 0.07987063378095627,
      "y": 0.005039638374000788,
      "z": -0.03039054572582245,
      "time_usec": 67479915479
    },
    {
      "x": 0.07864890247583389,
      "y": 0.008704829961061478,
      "z": -0.03039054572582245,
      "time_usec": 67479917741
    },
    {
      "x": 0.08002334833145142,
      "y": 0.018325956538319588,
      "z": -0.026572637259960175,
      "time_usec": 67479920000
    },
    {
      "x": 0.07757988572120667,
      "y": 0.02672535367310047,
      "z": -0.02168571576476097,
      "time_usec": 67479922264
    },
    {
      "x": 0.07131851464509964,
      "y": 0.030543262138962746,
      "z": -0.01924225501716137,
      "time_usec": 67479924521
    },
    {
      "x": 0.07024950534105301,
      "y": 0.03649919852614403,
      "z": -0.015577063895761967,
      "time_usec": 67479926780
    },
    {
      "x": 0.06520986557006836,
      "y": 0.03787364438176155,
      "z": -0.01191187184303999,
      "time_usec": 67479929033
    },
    {
      "x": 0.060322944074869156,
      "y": 0.03787364438176155,
      "z": -0.008246680721640587,
      "time_usec": 67479931287
    },
    {
      "x": 0.055283304303884506,
      "y": 0.035582900047302246,
      "z": -0.007177666760981083,
      "time_usec": 67479933533
    },
    {
      "x": 0.0503963828086853,
      "y": 0.03680463135242462,
      "z": -0.008399397134780884,
      "time_usec": 67479935803
    },
    {
      "x": 0.04795292019844055,
      "y": 0.03695734590291977,
      "z": -0.008399397134780884,
      "time_usec": 67479938057
    },
    {
      "x": 0.044135015457868576,
      "y": 0.03451388701796532,
      "z": -0.007177666760981083,
      "time_usec": 67479940321
    },
    {
      "x": 0.038026362657547,
      "y": 0.03588833287358284,
      "z": -0.003512475173920393,
      "time_usec": 67479942575
    },
    {
      "x": 0.03176499158143997,
      "y": 0.02871066704392433,
      "z": -0.00366519158706069,
      "time_usec": 67479944834
    },
    {
      "x": 0.03039054572582245,
      "y": 0.023976460099220276,
      "z": -0.0012217304902151227,
      "time_usec": 67479947091
    },
    {
      "x": 0.025503624230623245,
      "y": 0.016798794269561768,
      "z": -0.0,
      "time_usec": 67479949342
    },
    {
      "x": 0.02168571576476097,
      "y": 0.012064588256180286,
      "z": -0.0012217304902151227,
      "time_usec": 67479951605
    },
    {
      "x": 0.016798794269561768,
      "y": 0.006108652334660292,
      "z": -0.0024434609804302454,
      "time_usec": 67479953860
    },
    {
      "x": 0.017867809161543846,
      "y": -0.0012217304902151227,
      "z": -0.0024434609804302454,
      "time_usec": 67479956118
    },
    {
      "x": 0.014202617108821869,
      "y": -0.008399397134780884,
      "z": -0.005039638374000788,
      "time_usec": 67479958370
    },
    {
      "x": 0.016493361443281174,
      "y": -0.014355333521962166,
      "z": -0.0025961773935705423,
      "time_usec": 67479960632
    },
    {
      "x": 0.012828170321881771,
      "y": -0.020311269909143448,
      "z": -0.003817907767370343,
      "time_usec": 67479962890
    },
    {
      "x": 0.016493361443281174,
      "y": -0.02886338345706463,
      "z": -0.0025961773935705423,
      "time_usec": 67479965149
    },
    {
      "x": 0.017562376335263252,
      "y": -0.036041051149368286,
      "z": -0.0013744467869400978,
      "time_usec": 67479967403
    },
    {
      "x": 0.013897184282541275,
      "y": -0.04077525436878204,
      "z": 0.0010690141934901476,
      "time_usec": 67479969659
    },
    {
      "x": 0.012522737495601177,
      "y": -0.046731192618608475,
      "z": 0.0022907445672899485,
      "time_usec": 67479971918
    },
    {
      "x": 0.012522737495601177,
      "y": -0.04795292019844055,
      "z": 0.0022907445672899485,
      "time_usec": 67479974175
    },
    {
      "x": 0.011301007121801376,
      "y": -0.04917465150356293,
      "z": 0.007177666760981083,
      "time_usec": 67479976431
    },
    {
      "x": 0.010079276748001575,
      "y": -0.050243668258190155,
      "z": 0.008399397134780884,
      "time_usec": 67479978684
    },
    {
      "x": 0.008857546374201775,
      "y": -0.046731192618608475,
      "z": 0.005955935921519995,
      "time_usec": 67479980946
    },
    {
      "x": 0.008857546374201775,
      "y": -0.046731192618608475,
      "z": 0.004734205547720194,
      "time_usec": 67479983204
    },
    {
      "x": 0.0074830991216003895,
      "y": -0.050243668258190155,
      "z": 0.009621127508580685,
      "time_usec": 67479985463
    },
    {
      "x": 0.007635815534740686,
      "y": -0.04795292019844055,
      "z": 0.005955935921519995,
      "time_usec": 67479987719
    },
    {
      "x": 0.008857546374201775,
      "y": -0.044287730008363724,
      "z": 0.007177666760981083,
      "time_usec": 67479989969
    },
    {
      "x": 0.008857546374201775,
      "y": -0.04306599870324135,
      "z": 0.003512475173920393,
      "time_usec": 67479992232
    },
    {
      "x": 0.010079276748001575,
      "y": -0.04184427112340927,
      "z": 0.004734205547720194,
      "time_usec": 67479994485
    },
    {
      "x": 0.005192354787141085,
      "y": -0.04306599870324135,
      "z": 0.003512475173920393,
      "time_usec": 67479996734
    },
    {
      "x": 0.0027488935738801956,
      "y": -0.03940080851316452,
      "z": 0.005955935921519995,
      "time_usec": 67479998998
    },
    {
      "x": 3.054326225537807E-4,
      "y": -0.03940080851316452,
      "z": 0.005955935921519995,
      "time_usec": 67480001261
    },
    {
      "x": -0.003512475173920393,
      "y": -0.04046982154250145,
      "z": 0.009621127508580685,
      "time_usec": 67480003520
    },
    {
      "x": -0.003512475173920393,
      "y": -0.0429132841527462,
      "z": 0.004581489134579897,
      "time_usec": 67480005775
    },
    {
      "x": -0.004734205547720194,
      "y": -0.047800205647945404,
      "z": 9.162978967651725E-4,
      "time_usec": 67480008027
    },
    {
      "x": -0.00855211354792118,
      "y": -0.04886921867728233,
      "z": 0.007024950347840786,
      "time_usec": 67480010286
    },
    {
      "x": -0.013439035043120384,
      "y": -0.04886921867728233,
      "z": 0.005803219974040985,
      "time_usec": 67480012546
    },
    {
      "x": -0.018325956538319588,
      "y": -0.05115996301174164,
      "z": 0.004581489134579897,
      "time_usec": 67480014803
    },
    {
      "x": -0.01725694350898266,
      "y": -0.054825156927108765,
      "z": 0.004581489134579897,
      "time_usec": 67480017057
    },
    {
      "x": -0.020922135561704636,
      "y": -0.05955936014652252,
      "z": 0.0019853119738399982,
      "time_usec": 67480019314
    },
    {
      "x": -0.024587325751781464,
      "y": -0.058337632566690445,
      "z": 0.0032070425804704428,
      "time_usec": 67480021571
    },
    {
      "x": -0.029474247246980667,
      "y": -0.05711590126156807,
      "z": -4.5814894838258624E-4,
      "time_usec": 67480023819
    },
    {
      "x": -0.03329215571284294,
      "y": -0.05696318298578262,
      "z": 0.004428773187100887,
      "time_usec": 67480026088
    },
    {
      "x": -0.04184427112340927,
      "y": -0.055741455405950546,
      "z": 7.635815418325365E-4,
      "time_usec": 67480028341
    },
    {
      "x": -0.043218716979026794,
      "y": -0.05925392732024193,
      "z": -6.108652451075613E-4,
      "time_usec": 67480030603
    },
    {
      "x": -0.048105638474226,
      "y": -0.05803219974040985,
      "z": -0.003054326167330146,
      "time_usec": 67480032850
    },
    {
      "x": -0.04932736977934837,
      "y": -0.05803219974040985,
      "z": -0.003054326167330146,
      "time_usec": 67480035118
    },
    {
      "x": -0.05054909735918045,
      "y": -0.06276640295982361,
      "z": -0.00427605677396059,
      "time_usec": 67480037374
    },
    {
      "x": -0.05314527451992035,
      "y": -0.06398813426494598,
      "z": -0.005497787147760391,
      "time_usec": 67480039628
    },
    {
      "x": -0.054367005825042725,
      "y": -0.06398813426494598,
      "z": -0.003054326167330146,
      "time_usec": 67480041888
    },
    {
      "x": -0.05314527451992035,
      "y": -0.06765332818031311,
      "z": 6.108652451075613E-4,
      "time_usec": 67480044145
    },
    {
      "x": -0.05314527451992035,
      "y": -0.07360926270484924,
      "z": 0.001832595793530345,
      "time_usec": 67480046402
    },
    {
      "x": -0.04948008432984352,
      "y": -0.07238753139972687,
      "z": 0.00427605677396059,
      "time_usec": 67480048653
    },
    {
      "x": -0.04948008432984352,
      "y": -0.07360926270484924,
      "z": 0.006719517521560192,
      "time_usec": 67480050911
    },
    {
      "x": -0.05314527451992035,
      "y": -0.06872233748435974,
      "z": 0.005497787147760391,
      "time_usec": 67480053174
    },
    {
      "x": -0.05314527451992035,
      "y": -0.07360926270484924,
      "z": 0.00427605677396059,
      "time_usec": 67480055433
    },
    {
      "x": -0.058184914290905,
      "y": -0.07467827945947647,
      "z": 0.005497787147760391,
      "time_usec": 67480057688
    },
    {
      "x": -0.06185010448098183,
      "y": -0.078343465924263,
      "z": 0.001832595793530345,
      "time_usec": 67480059940
    },
    {
      "x": -0.06933320313692093,
      "y": -0.08536841720342636,
      "z": 0.0029016099870204926,
      "time_usec": 67480062202
    },
    {
      "x": -0.07681630551815033,
      "y": -0.09254608303308487,
      "z": -0.0019853119738399982,
      "time_usec": 67480064456
    },
    {
      "x": -0.08429940044879913,
      "y": -0.10323622822761536,
      "z": -0.003359758760780096,
      "time_usec": 67480066704
    },
    {
      "x": -0.08811730891466141,
      "y": -0.11530081182718277,
      "z": -0.003359758760780096,
      "time_usec": 67480068968
    },
    {
      "x": -0.09056077152490616,
      "y": -0.1212567538022995,
      "z": -0.005803219974040985,
      "time_usec": 67480071231
    },
    {
      "x": -0.08811730891466141,
      "y": -0.12370020896196365,
      "z": -0.005803219974040985,
      "time_usec": 67480073491
    },
    {
      "x": -0.08689557760953903,
      "y": -0.12736541032791138,
      "z": -0.008246680721640587,
      "time_usec": 67480075739
    },
    {
      "x": -0.08445212244987488,
      "y": -0.12736541032791138,
      "z": -0.014355333521962166,
      "time_usec": 67480077996
    },
    {
      "x": -0.07941248267889023,
      "y": -0.12507465481758118,
      "z": -0.016798794269561768,
      "time_usec": 67480080254
    },
    {
      "x": -0.0757472887635231,
      "y": -0.1215621829032898,
      "z": -0.020463986322283745,
      "time_usec": 67480082517
    },
    {
      "x": -0.06948592513799667,
      "y": -0.12171489745378494,
      "z": -0.022907447069883347,
      "time_usec": 67480084776
    },
    {
      "x": -0.06459899991750717,
      "y": -0.12049316614866257,
      "z": -0.026572637259960175,
      "time_usec": 67480087036
    },
    {
      "x": -0.058337632566690445,
      "y": -0.11820242553949356,
      "z": -0.026572637259960175,
      "time_usec": 67480089283
    },
    {
      "x": -0.049785517156124115,
      "y": -0.11835514008998871,
      "z": -0.026419922709465027,
      "time_usec": 67480091547
    },
    {
      "x": -0.044745877385139465,
      "y": -0.11239920556545258,
      "z": -0.023976460099220276,
      "time_usec": 67480093798
    },
    {
      "x": -0.03848451003432274,
      "y": -0.10644327104091644,
      "z": -0.02519819140434265,
      "time_usec": 67480096049
    },
    {
      "x": -0.03222314268350601,
      "y": -0.09453139454126358,
      "z": -0.02626720629632473,
      "time_usec": 67480098310
    },
    {
      "x": -0.02580905705690384,
      "y": -0.07528914511203766,
      "z": -0.027488935738801956,
      "time_usec": 67480100573
    },
    {
      "x": -0.019547687843441963,
      "y": -0.051312681287527084,
      "z": -0.028557950630784035,
      "time_usec": 67480102833
    },
    {
      "x": -0.015577063895761967,
      "y": -0.025045474991202354,
      "z": -0.037110064178705215,
      "time_usec": 67480105086
    },
    {
      "x": -0.01038470957428217,
      "y": -0.003512475173920393,
      "z": -0.04077525436878204,
      "time_usec": 67480107330
    },
    {
      "x": -0.005497787147760391,
      "y": -0.003512475173920393,
      "z": -0.032070424407720566,
      "time_usec": 67480109597
    },
    {
      "x": 0.001832595793530345,
      "y": -0.008399397134780884,
      "z": -0.023518312722444534,
      "time_usec": 67480111859
    },
    {
      "x": 0.005345070734620094,
      "y": -0.019089538604021072,
      "z": -0.009926560334861279,
      "time_usec": 67480114119
    },
    {
      "x": 0.012828170321881771,
      "y": -0.018020525574684143,
      "z": -0.005039638374000788,
      "time_usec": 67480116372
    },
    {
      "x": 0.019089538604021072,
      "y": -0.008399397134780884,
      "z": -0.0024434609804302454,
      "time_usec": 67480118623
    },
    {
      "x": 0.02535090781748295,
      "y": 0.004734205547720194,
      "z": -0.0012217304902151227,
      "time_usec": 67480120882
    },
    {
      "x": 0.031612277030944824,
      "y": 0.019089538604021072,
      "z": 0.0025961773935705423,
      "time_usec": 67480123144
    },
    {
      "x": 0.036651913076639175,
      "y": 0.03344487398862839,
      "z": 0.0025961773935705423,
      "time_usec": 67480125403
    },
    {
      "x": 0.041691552847623825,
      "y": 0.046731192618608475,
      "z": 0.003817907767370343,
      "time_usec": 67480127658
    },
    {
      "x": 0.0529925599694252,
      "y": 0.05497787147760391,
      "z": 0.001527163083665073,
      "time_usec": 67480129899
    },
    {
      "x": 0.05910121276974678,
      "y": 0.05849034711718559,
      "z": 3.054326225537807E-4,
      "time_usec": 67480132160
    },
    {
      "x": 0.06536258012056351,
      "y": 0.058337632566690445,
      "z": 0.0027488935738801956,
      "time_usec": 67480134426
    },
    {
      "x": 0.06902777403593063,
      "y": 0.058337632566690445,
      "z": 0.004123340360820293,
      "time_usec": 67480136676
    },
    {
      "x": 0.07284568250179291,
      "y": 0.059406645596027374,
      "z": 0.001679879380390048,
      "time_usec": 67480138942
    },
    {
      "x": 0.07024950534105301,
      "y": 0.048716504126787186,
      "z": -0.004581489134579897,
      "time_usec": 67480141201
    },
    {
      "x": 0.07269296050071716,
      "y": 0.04489859566092491,
      "z": -0.009468411095440388,
      "time_usec": 67480143462
    },
    {
      "x": 0.07635815441608429,
      "y": 0.03894266113638878,
      "z": -0.015577063895761967,
      "time_usec": 67480145718
    },
    {
      "x": 0.07513642311096191,
      "y": 0.03649919852614403,
      "z": -0.016798794269561768,
      "time_usec": 67480147966
    },
    {
      "x": 0.07269296050071716,
      "y": 0.03527746722102165,
      "z": -0.022907447069883347,
      "time_usec": 67480150224
    },
    {
      "x": 0.07147123664617538,
      "y": 0.03756821155548096,
      "z": -0.027947084978222847,
      "time_usec": 67480152485
    },
    {
      "x": 0.07147123664617538,
      "y": 0.031612277030944824,
      "z": -0.031612277030944824,
      "time_usec": 67480154740
    },
    {
      "x": 0.06765332818031311,
      "y": 0.03039054572582245,
      "z": -0.031612277030944824,
      "time_usec": 67480157001
    },
    {
      "x": 0.06520986557006836,
      "y": 0.020922135561704636,
      "z": -0.03039054572582245,
      "time_usec": 67480159253
    },
    {
      "x": 0.05772676691412926,
      "y": 0.01618792861700058,
      "z": -0.02672535367310047,
      "time_usec": 67480161517
    },
    {
      "x": 0.050243668258190155,
      "y": 0.010231993161141872,
      "z": -0.030543262138962746,
      "time_usec": 67480163776
    },
    {
      "x": 0.044135015457868576,
      "y": 0.011453723534941673,
      "z": -0.02932153269648552,
      "time_usec": 67480166034
    },
    {
      "x": 0.0354301854968071,
      "y": 0.01160643994808197,
      "z": -0.02687807008624077,
      "time_usec": 67480168279
    },
    {
      "x": 0.029168816283345222,
      "y": 0.012980886735022068,
      "z": -0.024434609338641167,
      "time_usec": 67480170532
    },
    {
      "x": 0.021838432177901268,
      "y": 0.010690141469240189,
      "z": -0.02580905705690384,
      "time_usec": 67480172799
    },
    {
      "x": 0.014355333521962166,
      "y": 0.013133603148162365,
      "z": -0.020922135561704636,
      "time_usec": 67480175058
    },
    {
      "x": 0.009468411095440388,
      "y": 0.012064588256180286,
      "z": -0.024587325751781464,
      "time_usec": 67480177316
    },
    {
      "x": 0.0032070425804704428,
      "y": 0.009621127508580685,
      "z": -0.02580905705690384,
      "time_usec": 67480179567
    },
    {
      "x": -0.0029016099870204926,
      "y": 0.00733038317412138,
      "z": -0.025961773470044136,
      "time_usec": 67480181830
    },
    {
      "x": -0.006719517521560192,
      "y": 0.006261368747800589,
      "z": -0.025961773470044136,
      "time_usec": 67480184086
    },
    {
      "x": -0.012828170321881771,
      "y": 0.005039638374000788,
      "z": -0.027183502912521362,
      "time_usec": 67480186343
    },
    {
      "x": -0.016493361443281174,
      "y": 0.006261368747800589,
      "z": -0.03084869496524334,
      "time_usec": 67480188595
    },
    {
      "x": -0.021532999351620674,
      "y": 0.001527163083665073,
      "z": -0.02733621932566166,
      "time_usec": 67480190858
    },
    {
      "x": -0.021532999351620674,
      "y": 0.0039706239476799965,
      "z": -0.028557950630784035,
      "time_usec": 67480193115
    },
    {
      "x": -0.02519819140434265,
      "y": 0.005192354787141085,
      "z": -0.02977968007326126,
      "time_usec": 67480195375
    },
    {
      "x": -0.02886338345706463,
      "y": 0.0064140851609408855,
      "z": -0.031001411378383636,
      "time_usec": 67480197632
    },
    {
      "x": -0.032528575509786606,
      "y": 0.010079276748001575,
      "z": -0.02733621932566166,
      "time_usec": 67480199882
    },
    {
      "x": -0.03634648025035858,
      "y": 0.011453723534941673,
      "z": -0.026114489883184433,
      "time_usec": 67480202142
    },
    {
      "x": -0.04001167416572571,
      "y": 0.011453723534941673,
      "z": -0.022449297830462456,
      "time_usec": 67480204399
    },
    {
      "x": -0.04382958263158798,
      "y": 0.01038470957428217,
      "z": -0.017562376335263252,
      "time_usec": 67480206657
    },
    {
      "x": -0.04993823543190956,
      "y": 0.006872233934700489,
      "z": -0.010231993161141872,
      "time_usec": 67480208909
    },
    {
      "x": -0.05253441259264946,
      "y": 0.003359758760780096,
      "z": -0.0065668015740811825,
      "time_usec": 67480211171
    },
    {
      "x": -0.05742133408784866,
      "y": 0.002138028386980295,
      "z": -0.004123340360820293,
      "time_usec": 67480213428
    },
    {
      "x": -0.06001751124858856,
      "y": -0.004886921960860491,
      "z": -4.5814894838258624E-4,
      "time_usec": 67480215686
    },
    {
      "x": -0.06872233748435974,
      "y": -0.007177666760981083,
      "z": 0.001832595793530345,
      "time_usec": 67480217938
    },
    {
      "x": -0.06994406878948212,
      "y": -0.014355333521962166,
      "z": 0.00427605677396059,
      "time_usec": 67480220195
    },
    {
      "x": -0.07864890247583389,
      "y": -0.021532999351620674,
      "z": 0.00427605677396059,
      "time_usec": 67480222457
    },
    {
      "x": -0.08368854224681854,
      "y": -0.02382374368607998,
      "z": 0.009162978269159794,
      "time_usec": 67480224717
    },
    {
      "x": -0.08750644326210022,
      "y": -0.02733621932566166,
      "z": 0.010231993161141872,
      "time_usec": 67480226975
    },
    {
      "x": -0.09239336848258972,
      "y": -0.03084869496524334,
      "z": 0.012675453908741474,
      "time_usec": 67480229223
    },
    {
      "x": -0.09117163717746735,
      "y": -0.03084869496524334,
      "z": 0.015118914656341076,
      "time_usec": 67480231482
    },
    {
      "x": -0.09865473955869675,
      "y": -0.029626963660120964,
      "z": 0.016340645030140877,
      "time_usec": 67480233729
    },
    {
      "x": -0.1010981947183609,
      "y": -0.030695978552103043,
      "z": 0.022449297830462456,
      "time_usec": 67480236001
    },
    {
      "x": -0.10354165732860565,
      "y": -0.030695978552103043,
      "z": 0.022449297830462456,
      "time_usec": 67480238251
    },
    {
      "x": -0.10231992602348328,
      "y": -0.033139441162347794,
      "z": 0.024892758578062057,
      "time_usec": 67480240517
    },
    {
      "x": -0.10735956579446793,
      "y": -0.0377209298312664,
      "z": 0.031001411378383636,
      "time_usec": 67480242771
    },
    {
      "x": -0.11239920556545258,
      "y": -0.04138612002134323,
      "z": 0.031001411378383636,
      "time_usec": 67480245028
    },
    {
      "x": -0.1186605766415596,
      "y": -0.04963280260562897,
      "z": 0.028405234217643738,
      "time_usec": 67480247271
    },
    {
      "x": -0.11988230794668198,
      "y": -0.05925392732024193,
      "z": 0.03329215571284294,
      "time_usec": 67480249537
    },
    {
      "x": -0.12492194026708603,
      "y": -0.07116580009460449,
      "z": 0.03329215571284294,
      "time_usec": 67480251799
    },
    {
      "x": -0.13118331134319305,
      "y": -0.078343465924263,
      "z": 0.03329215571284294,
      "time_usec": 67480254060
    },
    {
      "x": -0.13744467496871948,
      "y": -0.08429940044879913,
      "z": 0.03191770985722542,
      "time_usec": 67480256313
    },
    {
      "x": -0.14248432219028473,
      "y": -0.08781187981367111,
      "z": 0.035582900047302246,
      "time_usec": 67480258565
    },
    {
      "x": -0.1437060534954071,
      "y": -0.08903361111879349,
      "z": 0.038026362657547,
      "time_usec": 67480260827
    },
    {
      "x": -0.14614951610565186,
      "y": -0.09010262042284012,
      "z": 0.039248090237379074,
      "time_usec": 67480263085
    },
    {
      "x": -0.1511891484260559,
      "y": -0.0913243517279625,
      "z": 0.044135015457868576,
      "time_usec": 67480265340
    },
    {
      "x": -0.15729780495166779,
      "y": -0.08750644326210022,
      "z": 0.047800205647945404,
      "time_usec": 67480267585
    },
    {
      "x": -0.1598939746618271,
      "y": -0.08979719132184982,
      "z": 0.05390885844826698,
      "time_usec": 67480269855
    },
    {
      "x": -0.16111570596694946,
      "y": -0.09346238523721695,
      "z": 0.06123924255371094,
      "time_usec": 67480272114
    },
    {
      "x": -0.1647808998823166,
      "y": -0.08964447677135468,
      "z": 0.06734789162874222,
      "time_usec": 67480274374
    },
    {
      "x": -0.16737708449363708,
      "y": -0.0884227454662323,
      "z": 0.07467827945947647,
      "time_usec": 67480276625
    },
    {
      "x": -0.16233743727207184,
      "y": -0.08368854224681854,
      "z": 0.0809396430850029,
      "time_usec": 67480278871
    },
    {
      "x": -0.16233743727207184,
      "y": -0.08124507963657379,
      "z": 0.08704829961061478,
      "time_usec": 67480281142
    },
    {
      "x": -0.16233743727207184,
      "y": -0.07391469180583954,
      "z": 0.0907134860754013,
      "time_usec": 67480283399
    },
    {
      "x": -0.1598939746618271,
      "y": -0.06918048858642578,
      "z": 0.09682214260101318,
      "time_usec": 67480285658
    },
    {
      "x": -0.1598939746618271,
      "y": -0.06918048858642578,
      "z": 0.09560041129589081,
      "time_usec": 67480287908
    },
    {
      "x": -0.15622878074645996,
      "y": -0.07269296050071716,
      "z": 0.09941831976175308,
      "time_usec": 67480290166
    },
    {
      "x": -0.1537853181362152,
      "y": -0.07757988572120667,
      "z": 0.10186178237199783,
      "time_usec": 67480292427
    },
    {
      "x": -0.1537853181362152,
      "y": -0.08002334833145142,
      "z": 0.09941831976175308,
      "time_usec": 67480294685
    },
    {
      "x": -0.15256360173225403,
      "y": -0.08246681094169617,
      "z": 0.10308351367712021,
      "time_usec": 67480296941
    },
    {
      "x": -0.15256360173225403,
      "y": -0.08246681094169617,
      "z": 0.10064005106687546,
      "time_usec": 67480299193
    },
    {
      "x": -0.1488984078168869,
      "y": -0.08246681094169617,
      "z": 0.10186178237199783,
      "time_usec": 67480301456
    },
    {
      "x": -0.14508049190044403,
      "y": -0.08139779418706894,
      "z": 0.09941831976175308,
      "time_usec": 67480303714
    },
    {
      "x": -0.1414152979850769,
      "y": -0.07895433157682419,
      "z": 0.10186178237199783,
      "time_usec": 67480305970
    },
    {
      "x": -0.1414152979850769,
      "y": -0.07528914511203766,
      "z": 0.10430523753166199,
      "time_usec": 67480308223
    },
    {
      "x": -0.14263702929019928,
      "y": -0.07040221989154816,
      "z": 0.10919216275215149,
      "time_usec": 67480310478
    },
    {
      "x": -0.14508049190044403,
      "y": -0.06673702597618103,
      "z": 0.11163562536239624,
      "time_usec": 67480312737
    },
    {
      "x": -0.1463022232055664,
      "y": -0.06200282275676727,
      "z": 0.11545353382825851,
      "time_usec": 67480315001
    },
    {
      "x": -0.1511891484260559,
      "y": -0.05467243865132332,
      "z": 0.12034045159816742,
      "time_usec": 67480317256
    },
    {
      "x": -0.1511891484260559,
      "y": -0.04489859566092491,
      "z": 0.12767083942890167,
      "time_usec": 67480319509
    },
    {
      "x": -0.15103642642498016,
      "y": -0.04138612002134323,
      "z": 0.13011430203914642,
      "time_usec": 67480321770
    },
    {
      "x": -0.15729780495166779,
      "y": -0.03649919852614403,
      "z": 0.13377949595451355,
      "time_usec": 67480324028
    },
    {
      "x": -0.15851953625679016,
      "y": -0.0328340083360672,
      "z": 0.13744467496871948,
      "time_usec": 67480326285
    },
    {
      "x": -0.1621847152709961,
      "y": -0.02428189292550087,
      "z": 0.13866640627384186,
      "time_usec": 67480328536
    },
    {
      "x": -0.16951510310173035,
      "y": -0.019394971430301666,
      "z": 0.1411098688840866,
      "time_usec": 67480330796
    },
    {
      "x": -0.17073683440685272,
      "y": -0.014508049935102463,
      "z": 0.1411098688840866,
      "time_usec": 67480333047
    },
    {
      "x": -0.16691893339157104,
      "y": -0.006108652334660292,
      "z": 0.14233160018920898,
      "time_usec": 67480335313
    },
    {
      "x": -0.16691893339157104,
      "y": -0.0025961773935705423,
      "z": 0.1459967941045761,
      "time_usec": 67480337568
    },
    {
      "x": -0.1644754707813263,
      "y": 0.0022907445672899485,
      "z": 0.14477506279945374,
      "time_usec": 67480339824
    },
    {
      "x": -0.16310101747512817,
      "y": 0.007024950347840786,
      "z": 0.15103642642498016,
      "time_usec": 67480342084
    },
    {
      "x": -0.16432274878025055,
      "y": 0.010690141469240189,
      "z": 0.1498146951198578,
      "time_usec": 67480344338
    },
    {
      "x": -0.15943582355976105,
      "y": 0.008246680721640587,
      "z": 0.15225815773010254,
      "time_usec": 67480346585
    },
    {
      "x": -0.1569923609495163,
      "y": 0.010537425056099892,
      "z": 0.15225815773010254,
      "time_usec": 67480348850
    },
    {
      "x": -0.15195272862911224,
      "y": 0.011759156361222267,
      "z": 0.15592335164546967,
      "time_usec": 67480351112
    },
    {
      "x": -0.14340060949325562,
      "y": 0.01160643994808197,
      "z": 0.15363261103630066,
      "time_usec": 67480353372
    },
    {
      "x": -0.13958270847797394,
      "y": 0.015271631069481373,
      "z": 0.15363261103630066,
      "time_usec": 67480355627
    },
    {
      "x": -0.12965615093708038,
      "y": 0.02229658141732216,
      "z": 0.14996741712093353,
      "time_usec": 67480357882
    },
    {
      "x": -0.12339477986097336,
      "y": 0.03176499158143997,
      "z": 0.14385876059532166,
      "time_usec": 67480360135
    },
    {
      "x": -0.1134682223200798,
      "y": 0.03527746722102165,
      "z": 0.14156801998615265,
      "time_usec": 67480362399
    },
    {
      "x": -0.10354165732860565,
      "y": 0.04108068719506264,
      "z": 0.1342376321554184,
      "time_usec": 67480364652
    },
    {
      "x": -0.09346238523721695,
      "y": 0.05054909735918045,
      "z": 0.1293507218360901,
      "time_usec": 67480366899
    },
    {
      "x": -0.08475755155086517,
      "y": 0.058795779943466187,
      "z": 0.1258382350206375,
      "time_usec": 67480369163
    },
    {
      "x": -0.07223481684923172,
      "y": 0.07177666574716568,
      "z": 0.12217304855585098,
      "time_usec": 67480371426
    },
    {
      "x": -0.059864792972803116,
      "y": 0.08124507963657379,
      "z": 0.1186605766415596,
      "time_usec": 67480373686
    },
    {
      "x": -0.04856378585100174,
      "y": 0.09193521738052368,
      "z": 0.1137736514210701,
      "time_usec": 67480375940
    },
    {
      "x": -0.038637228310108185,
      "y": 0.10018189996480942,
      "z": 0.10659598559141159,
      "time_usec": 67480378190
    },
    {
      "x": -0.031154127791523933,
      "y": 0.10842858254909515,
      "z": 0.10659598559141159,
      "time_usec": 67480380443
    },
    {
      "x": -0.02229658141732216,
      "y": 0.11560624837875366,
      "z": 0.10048733651638031,
      "time_usec": 67480382696
    },
    {
      "x": -0.01237002108246088,
      "y": 0.12140946835279465,
      "z": 0.09697485715150833,
      "time_usec": 67480384954
    },
    {
      "x": -0.004886921960860491,
      "y": 0.12492194026708603,
      "z": 0.09208793938159943,
      "time_usec": 67480387214
    },
    {
      "x": 0.006108652334660292,
      "y": 0.11988230794668198,
      "z": 0.0884227454662323,
      "time_usec": 67480389480
    },
    {
      "x": 0.013591751456260681,
      "y": 0.1137736514210701,
      "z": 0.08475755155086517,
      "time_usec": 67480391738
    },
    {
      "x": 0.018325956538319588,
      "y": 0.10048733651638031,
      "z": 0.08109235763549805,
      "time_usec": 67480393998
    },
    {
      "x": 0.02825251780450344,
      "y": 0.08949175477027893,
      "z": 0.07498370856046677,
      "time_usec": 67480396243
    },
    {
      "x": 0.03680463135242462,
      "y": 0.0809396430850029,
      "z": 0.07254024595022202,
      "time_usec": 67480398509
    },
    {
      "x": 0.047800205647945404,
      "y": 0.06750060617923737,
      "z": 0.06520986557006836,
      "time_usec": 67480400771
    },
    {
      "x": 0.06261368840932846,
      "y": 0.06001751124858856,
      "z": 0.0555887371301651,
      "time_usec": 67480403029
    },
    {
      "x": 0.07254024595022202,
      "y": 0.05497787147760391,
      "z": 0.04459316283464432,
      "time_usec": 67480405284
    },
    {
      "x": 0.08368854224681854,
      "y": 0.04764748737215996,
      "z": 0.04092797264456749,
      "time_usec": 67480407538
    },
    {
      "x": 0.0936150997877121,
      "y": 0.04612032696604729,
      "z": 0.03237585723400116,
      "time_usec": 67480409789
    },
    {
      "x": 0.10965031385421753,
      "y": 0.044745877385139465,
      "z": 0.022602014243602753,
      "time_usec": 67480412043
    },
    {
      "x": 0.11957687139511108,
      "y": 0.04092797264456749,
      "z": 0.021532999351620674,
      "time_usec": 67480414311
    },
    {
      "x": 0.1293507218360901,
      "y": 0.04077525436878204,
      "z": 0.017867809161543846,
      "time_usec": 67480416569
    },
    {
      "x": 0.14309518039226532,
      "y": 0.04184427112340927,
      "z": 0.018020525574684143,
      "time_usec": 67480418823
    },
    {
      "x": 0.1492038369178772,
      "y": 0.040622539818286896,
      "z": 0.020463986322283745,
