{
  "rotations": [
    {
      "x": 0.02779436856508255,
      "y": 0.013591751456260681,
      "z": -0.013897184282541275,
      "time_usec": 54302964857
    },
    {
      "x": 0.02779436856508255,
      "y": 0.016035212203860283,
      "z": -0.013897184282541275,
      "time_usec": 54302967111
    },
    {
      "x": 0.029016099870204926,
      "y": 0.014813481830060482,
      "z": -0.009010262787342072,
      "time_usec": 54302969368
    },
    {
      "x": 0.026572637259960175,
      "y": 0.01237002108246088,
      "z": -0.0065668015740811825,
      "time_usec": 54302971626
    },
    {
      "x": 0.032681290060281754,
      "y": 0.01237002108246088,
      "z": -0.0027488935738801956,
      "time_usec": 54302973884
    },
    {
      "x": 0.032681290060281754,
      "y": 0.007635815534740686,
      "z": -3.054326225537807E-4,
      "time_usec": 54302976142
    },
    {
      "x": 0.030085112899541855,
      "y": 0.005192354787141085,
      "z": 0.004581489134579897,
      "time_usec": 54302978399
    },
    {
      "x": 0.030085112899541855,
      "y": 0.0039706239476799965,
      "z": 0.0032070425804704428,
      "time_usec": 54302980656
    },
    {
      "x": 0.03375030308961868,
      "y": -0.004428773187100887,
      "z": 0.0032070425804704428,
      "time_usec": 54302982910
    },
    {
      "x": 0.03497203439474106,
      "y": -0.012828170321881771,
      "z": 0.0019853119738399982,
      "time_usec": 54302985157
    },
    {
      "x": 0.033597588539123535,
      "y": -0.016340645030140877,
      "z": 0.00931569468230009,
      "time_usec": 54302987415
    },
    {
      "x": 0.03848451003432274,
      "y": -0.02122756652534008,
      "z": 0.009468411095440388,
      "time_usec": 54302989686
    },
    {
      "x": 0.04352414980530739,
      "y": -0.02382374368607998,
      "z": 0.008246680721640587,
      "time_usec": 54302991946
    },
    {
      "x": 0.04596760869026184,
      "y": -0.02733621932566166,
      "z": 0.010690141469240189,
      "time_usec": 54302994205
    },
    {
      "x": 0.04963280260562897,
      "y": -0.025045474991202354,
      "z": 0.009468411095440388,
      "time_usec": 54302996455
    },
    {
      "x": 0.04963280260562897,
      "y": -0.017867809161543846,
      "z": 0.009468411095440388,
      "time_usec": 54302998716
    },
    {
      "x": 0.05345070734620094,
      "y": -0.008246680721640587,
      "z": 0.01572977937757969,
      "time_usec": 54303000973
    },
    {
      "x": 0.054825156927108765,
      "y": 0.005039638374000788,
      "z": 0.014508049935102463,
      "time_usec": 54303003232
    },
    {
      "x": 0.05864306539297104,
      "y": 0.01817324012517929,
      "z": 0.014508049935102463,
      "time_usec": 54303005487
    },
    {
      "x": 0.05757404863834381,
      "y": 0.036193765699863434,
      "z": 0.014508049935102463,
      "time_usec": 54303007740
    },
    {
      "x": 0.056352317333221436,
      "y": 0.04948008432984352,
      "z": 0.014508049935102463,
      "time_usec": 54303009997
    },
    {
      "x": 0.05650503560900688,
      "y": 0.06505715101957321,
      "z": 0.015882495790719986,
      "time_usec": 54303012262
    },
    {
      "x": 0.0529925599694252,
      "y": 0.07956519722938538,
      "z": 0.01466076634824276,
      "time_usec": 54303014519
    },
    {
      "x": 0.04932736977934837,
      "y": 0.08567385375499725,
      "z": 0.013439035043120384,
      "time_usec": 54303016778
    },
    {
      "x": 0.04444044828414917,
      "y": 0.08933904021978378,
      "z": 0.010842857882380486,
      "time_usec": 54303019033
    },
    {
      "x": 0.043218716979026794,
      "y": 0.09178250283002853,
      "z": 0.010842857882380486,
      "time_usec": 54303021287
    },
    {
      "x": 0.03695734590291977,
      "y": 0.08933904021978378,
      "z": 0.007177666760981083,
      "time_usec": 54303023532
    },
    {
      "x": 0.028405234217643738,
      "y": 0.0907134860754013,
      "z": 0.005955935921519995,
      "time_usec": 54303025794
    },
    {
      "x": 0.020922135561704636,
      "y": 0.09193521738052368,
      "z": 0.005803219974040985,
      "time_usec": 54303028064
    },
    {
      "x": 0.00733038317412138,
      "y": 0.0910189226269722,
      "z": 0.005803219974040985,
      "time_usec": 54303030324
    },
    {
      "x": -0.0013744467869400978,
      "y": 0.08750644326210022,
      "z": 0.005650503560900688,
      "time_usec": 54303032577
    },
    {
      "x": -0.017409659922122955,
      "y": 0.08414668589830399,
      "z": 0.00931569468230009,
      "time_usec": 54303034832
    },
    {
      "x": -0.033597588539123535,
      "y": 0.078343465924263,
      "z": 0.009162978269159794,
      "time_usec": 54303037081
    },
    {
      "x": -0.04734205827116966,
      "y": 0.06398813426494598,
      "z": 0.010231993161141872,
      "time_usec": 54303039357
    },
    {
      "x": -0.06352998316287994,
      "y": 0.05467243865132332,
      "z": 0.011453723534941673,
      "time_usec": 54303041608
    },
    {
      "x": -0.078343465924263,
      "y": 0.04642575979232788,
      "z": 0.013744467869400978,
      "time_usec": 54303043869
    },
    {
      "x": -0.09575312584638596,
      "y": 0.034666601568460464,
      "z": 0.014813481830060482,
      "time_usec": 54303046121
    },
    {
      "x": -0.11316278576850891,
      "y": 0.02275473065674305,
      "z": 0.013439035043120384,
      "time_usec": 54303048377
    },
    {
      "x": -0.1293507218360901,
      "y": 0.010995574295520782,
      "z": 0.013439035043120384,
      "time_usec": 54303050638
    },
    {
      "x": -0.14049901068210602,
      "y": 3.054326225537807E-4,
      "z": 0.013286318629980087,
      "time_usec": 54303052895
    },
    {
      "x": -0.15057829022407532,
      "y": -0.01160643994808197,
      "z": 0.01572977937757969,
      "time_usec": 54303055154
    },
    {
      "x": -0.16554448008537292,
      "y": -0.023365596309304237,
      "z": 0.013133603148162365,
      "time_usec": 54303057410
    },
    {
      "x": -0.17302757501602173,
      "y": -0.030543262138962746,
      "z": 0.016798794269561768,
      "time_usec": 54303059668
    },
    {
      "x": -0.17806722223758698,
      "y": -0.04001167416572571,
      "z": 0.019089538604021072,
      "time_usec": 54303061924
    },
    {
      "x": -0.18417587876319885,
      "y": -0.04489859566092491,
      "z": 0.012980886735022068,
      "time_usec": 54303064178
    },
    {
      "x": -0.18555031716823578,
      "y": -0.04963280260562897,
      "z": 0.014202617108821869,
      "time_usec": 54303066442
    },
    {
      "x": -0.18677204847335815,
      "y": -0.047189339995384216,
      "z": 0.012980886735022068,
      "time_usec": 54303068699
    },
    {
      "x": -0.19028452038764954,
      "y": -0.04230241850018501,
      "z": 0.010537425056099892,
      "time_usec": 54303070956
    },
    {
      "x": -0.1866193264722824,
      "y": -0.041233405470848083,
      "z": 0.006872233934700489,
      "time_usec": 54303073208
    },
    {
      "x": -0.18539759516716003,
      "y": -0.03756821155548096,
      "z": 0.00931569468230009,
      "time_usec": 54303075455
    },
    {
      "x": -0.18280142545700073,
      "y": -0.0328340083360672,
      "z": 0.0019853119738399982,
      "time_usec": 54303077716
    },
    {
      "x": -0.17898350954055786,
      "y": -0.02580905705690384,
      "z": -4.5814894838258624E-4,
      "time_usec": 54303079986
    },
    {
      "x": -0.1716531366109848,
      "y": -0.024587325751781464,
      "z": -4.5814894838258624E-4,
      "time_usec": 54303082246
    },
    {
      "x": -0.16661348938941956,
      "y": -0.025961773470044136,
      "z": -0.007788531947880983,
      "time_usec": 54303084498
    },
    {
      "x": -0.164170041680336,
      "y": -0.02474004216492176,
      "z": -0.007788531947880983,
      "time_usec": 54303086751
    },
    {
      "x": -0.16172657907009125,
      "y": -0.027183502912521362,
      "z": -0.012675453908741474,
      "time_usec": 54303089003
    },
    {
      "x": -0.15790866315364838,
      "y": -0.024892758578062057,
      "z": -0.015118914656341076,
      "time_usec": 54303091271
    },
    {
      "x": -0.156686931848526,
      "y": -0.031001411378383636,
      "z": -0.020005837082862854,
      "time_usec": 54303093516
    },
    {
      "x": -0.15424346923828125,
      "y": -0.03222314268350601,
      "z": -0.015118914656341076,
      "time_usec": 54303095776
    },
    {
      "x": -0.15561792254447937,
      "y": -0.03573561832308769,
      "z": -0.01878410577774048,
      "time_usec": 54303098029
    },
    {
      "x": -0.15683965384960175,
      "y": -0.04184427112340927,
      "z": -0.022449297830462456,
      "time_usec": 54303100292
    },
    {
      "x": -0.15806138515472412,
      "y": -0.04902193695306778,
      "z": -0.022449297830462456,
      "time_usec": 54303102558
    },
    {
      "x": -0.15821409225463867,
      "y": -0.05375614017248154,
      "z": -0.02122756652534008,
      "time_usec": 54303104815
    },
    {
      "x": -0.16325373947620392,
      "y": -0.060933809727430344,
      "z": -0.017562376335263252,
      "time_usec": 54303107078
    },
    {
      "x": -0.16325373947620392,
      "y": -0.06688974797725677,
      "z": -0.016340645030140877,
      "time_usec": 54303109330
    },
    {
      "x": -0.1595885455608368,
      "y": -0.0754418596625328,
      "z": -0.017562376335263252,
      "time_usec": 54303111576
    },
    {
      "x": -0.16081027686595917,
      "y": -0.07788532227277756,
      "z": -0.01771509274840355,
      "time_usec": 54303113832
    },
    {
      "x": -0.1595885455608368,
      "y": -0.07895433157682419,
      "z": -0.016340645030140877,
      "time_usec": 54303116089
    },
    {
      "x": -0.1595885455608368,
      "y": -0.07910704612731934,
      "z": -0.018936822190880775,
      "time_usec": 54303118354
    },
    {
      "x": -0.16340644657611847,
      "y": -0.08017606288194656,
      "z": -0.016493361443281174,
      "time_usec": 54303120623
    },
    {
      "x": -0.16340644657611847,
      "y": -0.07895433157682419,
      "z": -0.01771509274840355,
      "time_usec": 54303122873
    },
    {
      "x": -0.16584990918636322,
      "y": -0.07895433157682419,
      "z": -0.016493361443281174,
      "time_usec": 54303125127
    },
    {
      "x": -0.1670716404914856,
      "y": -0.08017606288194656,
      "z": -0.015271631069481373,
      "time_usec": 54303127399
    },
    {
      "x": -0.1670716404914856,
      "y": -0.08261952549219131,
      "z": -0.01771509274840355,
      "time_usec": 54303129652
    },
    {
      "x": -0.17088955640792847,
      "y": -0.08735372871160507,
      "z": -0.014049900695681572,
      "time_usec": 54303131908
    },
    {
      "x": -0.17333301901817322,
      "y": -0.09208793938159943,
      "z": -0.014049900695681572,
      "time_usec": 54303134151
    },
    {
      "x": -0.17837265133857727,
      "y": -0.09193521738052368,
      "z": -0.012828170321881771,
      "time_usec": 54303136423
    },
    {
      "x": -0.1820378452539444,
      "y": -0.09193521738052368,
      "z": -0.01160643994808197,
      "time_usec": 54303138677
    },
    {
      "x": -0.18325957655906677,
      "y": -0.09437867999076843,
      "z": -0.01160643994808197,
      "time_usec": 54303140927
    },
    {
      "x": -0.18570303916931152,
      "y": -0.08827003091573715,
      "z": -0.01542434748262167,
      "time_usec": 54303143186
    },
    {
      "x": -0.18188512325286865,
      "y": -0.07742717117071152,
      "z": -0.01160643994808197,
      "time_usec": 54303145439
    },
    {
      "x": -0.1843285858631134,
      "y": -0.06902777403593063,
      "z": -0.01038470957428217,
      "time_usec": 54303147710
    },
    {
      "x": -0.17928895354270935,
      "y": -0.05345070734620094,
      "z": -0.007941247895359993,
      "time_usec": 54303149969
    },
    {
      "x": -0.17547103762626648,
      "y": -0.04138612002134323,
      "z": -0.004123340360820293,
      "time_usec": 54303152227
    },
    {
      "x": -0.17043140530586243,
      "y": -0.03191770985722542,
      "z": -4.5814894838258624E-4,
      "time_usec": 54303154477
    },
    {
      "x": -0.16539175808429718,
      "y": -0.011453723534941673,
      "z": 0.002138028386980295,
      "time_usec": 54303156726
    },
    {
      "x": -0.16019940376281738,
      "y": 0.005345070734620094,
      "z": 0.003359758760780096,
      "time_usec": 54303158987
    },
    {
      "x": -0.15271630883216858,
      "y": 0.02321287989616394,
      "z": 0.004734205547720194,
      "time_usec": 54303161253
    },
    {
      "x": -0.14645494520664215,
      "y": 0.041233405470848083,
      "z": 0.007177666760981083,
      "time_usec": 54303163503
    },
    {
      "x": -0.14004085958003998,
      "y": 0.0555887371301651,
      "z": 0.004886921960860491,
      "time_usec": 54303165773
    },
    {
      "x": -0.13500121235847473,
      "y": 0.06750060617923737,
      "z": 0.006108652334660292,
      "time_usec": 54303168027
    },
    {
      "x": -0.1287398487329483,
      "y": 0.07712173461914062,
      "z": 0.00855211354792118,
      "time_usec": 54303170272
    },
    {
      "x": -0.1238529309630394,
      "y": 0.08185594528913498,
      "z": 0.008704829961061478,
      "time_usec": 54303172529
    },
    {
      "x": -0.11636982858181,
      "y": 0.08903361111879349,
      "z": 0.008704829961061478,
      "time_usec": 54303174796
    },
    {
      "x": -0.11621711403131485,
      "y": 0.09376781433820724,
      "z": 0.0074830991216003895,
      "time_usec": 54303177061
    },
    {
      "x": -0.11010845750570297,
      "y": 0.09605856239795685,
      "z": 0.005039638374000788,
      "time_usec": 54303179315
    },
    {
      "x": -0.11010845750570297,
      "y": 0.09483683109283447,
      "z": 0.003817907767370343,
      "time_usec": 54303181561
    },
    {
      "x": -0.10262536257505417,
      "y": 0.09712757170200348,
      "z": 0.0027488935738801956,
      "time_usec": 54303183825
    },
    {
      "x": -0.09773843735456467,
      "y": 0.0959058403968811,
      "z": 0.0027488935738801956,
      "time_usec": 54303186086
    },
    {
      "x": -0.09529497474431992,
      "y": 0.0910189226269722,
      "z": 0.0027488935738801956,
      "time_usec": 54303188332
    },
    {
      "x": -0.08292495459318161,
      "y": 0.08964447677135468,
      "z": 0.0027488935738801956,
      "time_usec": 54303190588
    },
    {
      "x": -0.07299839705228806,
      "y": 0.08720101416110992,
      "z": 4.5814894838258624E-4,
      "time_usec": 54303192844
    },
    {
      "x": -0.06688974797725677,
      "y": 0.0835358202457428,
      "z": 0.001679879380390048,
      "time_usec": 54303195106
    },
    {
      "x": -0.053297992795705795,
      "y": 0.0809396430850029,
      "z": 4.5814894838258624E-4,
      "time_usec": 54303197372
    },
    {
      "x": -0.04214970022439957,
      "y": 0.07956519722938538,
      "z": -0.001832595793530345,
      "time_usec": 54303199635
    },
    {
      "x": -0.03344487398862839,
      "y": 0.08292495459318161,
      "z": -0.005497787147760391,
      "time_usec": 54303201892
    },
    {
      "x": -0.023518312722444534,
      "y": 0.08888089656829834,
      "z": -0.007941247895359993,
      "time_usec": 54303204143
    },
    {
      "x": -0.018478672951459885,
      "y": 0.0959058403968811,
      "z": -0.014049900695681572,
      "time_usec": 54303206407
    },
    {
      "x": -0.018325956538319588,
      "y": 0.11392636597156525,
      "z": -0.02015855349600315,
      "time_usec": 54303208670
    },
    {
      "x": -0.021838432177901268,
      "y": 0.13805554807186127,
      "z": -0.027488935738801956,
      "time_usec": 54303210921
    },
    {
      "x": -0.024129176512360573,
      "y": 0.15974126756191254,
      "z": -0.02977968007326126,
      "time_usec": 54303213172
    },
    {
      "x": -0.02535090781748295,
      "y": 0.1693623960018158,
      "z": -0.024892758578062057,
      "time_usec": 54303215430
    },
    {
      "x": -0.019089538604021072,
      "y": 0.1788308024406433,
      "z": -0.02367102913558483,
      "time_usec": 54303217680
    },
    {
      "x": -0.02015855349600315,
      "y": 0.18616119027137756,
      "z": -0.01878410577774048,
      "time_usec": 54303219951
    },
    {
      "x": -0.014049900695681572,
      "y": 0.19089539349079132,
      "z": -0.01618792861700058,
      "time_usec": 54303222206
    },
    {
      "x": -0.0065668015740811825,
      "y": 0.19807305932044983,
      "z": -0.01618792861700058,
      "time_usec": 54303224463
    },
    {
      "x": 0.007177666760981083,
      "y": 0.20616702735424042,
      "z": -0.020922135561704636,
      "time_usec": 54303226723
    },
    {
      "x": 0.018325956538319588,
      "y": 0.21319197118282318,
      "z": -0.027030786499381065,
      "time_usec": 54303228981
    },
    {
      "x": 0.03695734590291977,
      "y": 0.22143864631652832,
      "z": -0.03420845419168472,
      "time_usec": 54303231237
    },
    {
      "x": 0.05314527451992035,
      "y": 0.22831088304519653,
      "z": -0.042760565876960754,
      "time_usec": 54303233489
    },
    {
      "x": 0.07177666574716568,
      "y": 0.23411411046981812,
      "z": -0.04505131021142006,
      "time_usec": 54303235752
    },
    {
      "x": 0.08659014850854874,
      "y": 0.23747386038303375,
      "z": -0.048716504126787186,
      "time_usec": 54303238010
    },
    {
      "x": 0.10277807712554932,
      "y": 0.24327708780765533,
      "z": -0.049785517156124115,
      "time_usec": 54303240268
    },
    {
      "x": 0.11514809727668762,
      "y": 0.24678955972194672,
      "z": -0.04841107130050659,
      "time_usec": 54303242523
    },
    {
      "x": 0.1287398487329483,
      "y": 0.2513710558414459,
      "z": -0.044745877385139465,
      "time_usec": 54303244777
    },
    {
      "x": 0.13866640627384186,
      "y": 0.2583959996700287,
      "z": -0.04581489413976669,
      "time_usec": 54303247041
    },
    {
      "x": 0.14874568581581116,
      "y": 0.26801711320877075,
      "z": -0.04337143152952194,
      "time_usec": 54303249297
    },
    {
      "x": 0.16233743727207184,
      "y": 0.2822197377681732,
      "z": -0.03833179548382759,
      "time_usec": 54303251555
    },
    {
      "x": 0.1748601794242859,
      "y": 0.29168814420700073,
      "z": -0.03573561832308769,
      "time_usec": 54303253806
    },
    {
      "x": 0.18600846827030182,
      "y": 0.29764407873153687,
      "z": -0.03695734590291977,
      "time_usec": 54303256069
    },
    {
      "x": 0.19593502581119537,
      "y": 0.30344730615615845,
      "z": -0.033139441162347794,
      "time_usec": 54303258329
    },
    {
      "x": 0.20952677726745605,
      "y": 0.31062498688697815,
      "z": -0.030543262138962746,
      "time_usec": 54303260594
    },
    {
      "x": 0.22311852872371674,
      "y": 0.3139847218990326,
      "z": -0.0354301854968071,
      "time_usec": 54303262837
    },
    {
      "x": 0.23182335495948792,
      "y": 0.3150537610054016,
      "z": -0.0354301854968071,
      "time_usec": 54303265100
    },
    {
      "x": 0.24419337511062622,
      "y": 0.318566232919693,
      "z": -0.03649919852614403,
      "time_usec": 54303267352
    },
    {
      "x": 0.2541199326515198,
      "y": 0.323147714138031,
      "z": -0.03649919852614403,
      "time_usec": 54303269616
    },
    {
      "x": 0.25671613216400146,
      "y": 0.3219259977340698,
      "z": -0.04260785132646561,
      "time_usec": 54303271870
    },
    {
      "x": 0.2616030275821686,
      "y": 0.31932979822158813,
      "z": -0.04749477282166481,
      "time_usec": 54303274123
    },
    {
      "x": 0.2603813111782074,
      "y": 0.31459560990333557,
      "z": -0.04993823543190956,
      "time_usec": 54303276383
    },
    {
      "x": 0.2577851414680481,
      "y": 0.30863967537879944,
      "z": -0.054825156927108765,
      "time_usec": 54303278641
    },
    {
      "x": 0.2541199326515198,
      "y": 0.30024027824401855,
      "z": -0.05619960278272629,
      "time_usec": 54303280888
    },
    {
      "x": 0.2454151064157486,
      "y": 0.2955060601234436,
      "z": -0.06108652427792549,
      "time_usec": 54303283156
    },
    {
      "x": 0.23426681756973267,
      "y": 0.2871066629886627,
      "z": -0.06368270516395569,
      "time_usec": 54303285416
    },
    {
      "x": 0.2217440903186798,
      "y": 0.2776382565498352,
      "z": -0.06368270516395569,
      "time_usec": 54303287672
    },
    {
      "x": 0.21059578657150269,
      "y": 0.2646573781967163,
      "z": -0.06505715101957321,
      "time_usec": 54303289920
    },
    {
      "x": 0.19807305932044983,
      "y": 0.24556782841682434,
      "z": -0.06398813426494598,
      "time_usec": 54303292188
    },
    {
      "x": 0.18555031716823578,
      "y": 0.22892175614833832,
      "z": -0.06520986557006836,
      "time_usec": 54303294439
    },
    {
      "x": 0.1742493063211441,
      "y": 0.2096794992685318,
      "z": -0.06536258012056351,
      "time_usec": 54303296692
    },
    {
      "x": 0.16172657907009125,
      "y": 0.1918116807937622,
      "z": -0.06551529467105865,
      "time_usec": 54303298947
    },
    {
      "x": 0.14798210561275482,
      "y": 0.17409659922122955,
      "z": -0.06444628536701202,
      "time_usec": 54303301206
    },
    {
      "x": 0.14156801998615265,
      "y": 0.15485434234142303,
      "z": -0.0607810914516449,
      "time_usec": 54303303464
    },
    {
      "x": 0.1316414624452591,
      "y": 0.1394299864768982,
      "z": -0.05955936014652252,
      "time_usec": 54303305721
    },
    {
      "x": 0.12522737681865692,
      "y": 0.11667526513338089,
      "z": -0.05849034711718559,
      "time_usec": 54303307979
    },
    {
      "x": 0.11774427443742752,
      "y": 0.09987647086381912,
      "z": -0.05604688450694084,
      "time_usec": 54303310236
    },
    {
      "x": 0.11499538272619247,
      "y": 0.08307767659425735,
      "z": -0.04886921867728233,
      "time_usec": 54303312494
    },
    {
      "x": 0.10506882518529892,
      "y": 0.07009678333997726,
      "z": -0.04886921867728233,
      "time_usec": 54303314752
    },
    {
      "x": 0.09254608303308487,
      "y": 0.05345070734620094,
      "z": -0.0429132841527462,
      "time_usec": 54303317013
    },
    {
      "x": 0.08506298810243607,
      "y": 0.042760565876960754,
      "z": -0.038026362657547,
      "time_usec": 54303319284
    },
    {
      "x": 0.07742717117071152,
      "y": 0.029626963660120964,
      "z": -0.038026362657547,
      "time_usec": 54303321539
    },
    {
      "x": 0.07116580009460449,
      "y": 0.012828170321881771,
      "z": -0.03695734590291977,
      "time_usec": 54303323792
    },
    {
      "x": 0.06352998316287994,
      "y": -0.003817907767370343,
      "z": -0.03573561832308769,
      "time_usec": 54303326051
    },
    {
      "x": 0.05726861581206322,
      "y": -0.020616702735424042,
      "z": -0.031001411378383636,
      "time_usec": 54303328309
    },
    {
      "x": 0.052228979766368866,
      "y": -0.03497203439474106,
      "z": -0.028557950630784035,
      "time_usec": 54303330565
    },
    {
      "x": 0.048258353024721146,
      "y": -0.05054909735918045,
      "z": -0.026114489883184433,
      "time_usec": 54303332812
    },
    {
      "x": 0.04444044828414917,
      "y": -0.07208210229873657,
      "z": -0.025045474991202354,
      "time_usec": 54303335082
    },
    {
      "x": 0.04046982154250145,
      "y": -0.09498954564332962,
      "z": -0.02382374368607998,
      "time_usec": 54303337341
    },
    {
      "x": 0.036651913076639175,
      "y": -0.11530081182718277,
      "z": -0.021532999351620674,
      "time_usec": 54303339600
    },
    {
      "x": 0.03405573591589928,
      "y": -0.1333213448524475,
      "z": -0.020311269909143448,
      "time_usec": 54303341853
    },
    {
      "x": 0.02886338345706463,
      "y": -0.15363261103630066,
      "z": -0.021532999351620674,
      "time_usec": 54303344105
    },
    {
      "x": 0.018936822190880775,
      "y": -0.1739438772201538,
      "z": -0.02168571576476097,
      "time_usec": 54303346364
    },
    {
      "x": 0.01863138936460018,
      "y": -0.19562959671020508,
      "z": -0.02168571576476097,
      "time_usec": 54303348627
    },
    {
      "x": 0.0074830991216003895,
      "y": -0.21349740028381348,
      "z": -0.020616702735424042,
      "time_usec": 54303350884
    },
    {
      "x": -0.0025961773935705423,
      "y": -0.22907446324825287,
      "z": -0.02076941914856434,
      "time_usec": 54303353138
    },
    {
      "x": -0.012675453908741474,
      "y": -0.24205535650253296,
      "z": -0.01466076634824276,
      "time_usec": 54303355399
    },
    {
      "x": -0.022602014243602753,
      "y": -0.2503020465373993,
      "z": -0.009773843921720982,
      "time_usec": 54303357653
    },
    {
      "x": -0.03130684420466423,
      "y": -0.25992316007614136,
      "z": -0.0074830991216003895,
      "time_usec": 54303359915
    },
    {
      "x": -0.041233405470848083,
      "y": -0.26572638750076294,
      "z": -0.0025961773935705423,
      "time_usec": 54303362169
    },
    {
      "x": -0.052381694316864014,
      "y": -0.265573650598526,
      "z": 0.0022907445672899485,
      "time_usec": 54303364425
    },
    {
      "x": -0.06230825558304787,
      "y": -0.2664899528026581,
      "z": 0.007024950347840786,
      "time_usec": 54303366685
    },
    {
      "x": -0.06979135423898697,
      "y": -0.2664899528026581,
      "z": 0.009468411095440388,
      "time_usec": 54303368945
    },
    {
      "x": -0.07467827945947647,
      "y": -0.2638937830924988,
      "z": 0.01191187184303999,
      "time_usec": 54303371203
    },
    {
      "x": -0.07712173461914062,
      "y": -0.25671613216400146,
      "z": 0.015577063895761967,
      "time_usec": 54303373455
    },
    {
      "x": -0.07590000331401825,
      "y": -0.2483167201280594,
      "z": 0.020463986322283745,
      "time_usec": 54303375716
    },
    {
      "x": -0.07696902006864548,
      "y": -0.23380866646766663,
      "z": 0.020616702735424042,
      "time_usec": 54303377974
    },
    {
      "x": -0.0780380368232727,
      "y": -0.21700987219810486,
      "z": 0.019394971430301666,
      "time_usec": 54303380233
    },
    {
      "x": -0.07177666574716568,
      "y": -0.20265454053878784,
      "z": 0.021838432177901268,
      "time_usec": 54303382488
    },
    {
      "x": -0.07040221989154816,
      "y": -0.18936823308467865,
      "z": 0.019394971430301666,
      "time_usec": 54303384741
    },
    {
      "x": -0.06536258012056351,
      "y": -0.1774563491344452,
      "z": 0.019547687843441963,
      "time_usec": 54303387004
    },
    {
      "x": -0.06154467165470123,
      "y": -0.16783522069454193,
      "z": 0.018325956538319588,
      "time_usec": 54303389262
    },
    {
      "x": -0.060322944074869156,
      "y": -0.15225815773010254,
      "z": 0.02076941914856434,
      "time_usec": 54303391521
    },
    {
      "x": -0.05390885844826698,
      "y": -0.1391245573759079,
      "z": 0.022143865004181862,
      "time_usec": 54303393771
    },
    {
      "x": -0.04886921867728233,
      "y": -0.12476922571659088,
      "z": 0.01970040425658226,
      "time_usec": 54303396034
    },
    {
      "x": -0.04382958263158798,
      "y": -0.11285735666751862,
      "z": 0.014813481830060482,
      "time_usec": 54303398291
    },
    {
      "x": -0.04245513305068016,
      "y": -0.09605856239795685,
      "z": 0.012522737495601177,
      "time_usec": 54303400547
    },
    {
      "x": -0.04596760869026184,
      "y": -0.08399397134780884,
      "z": 0.006261368747800589,
      "time_usec": 54303402794
    },
    {
      "x": -0.044745877385139465,
      "y": -0.0731511116027832,
      "z": 0.0013744467869400978,
      "time_usec": 54303405064
    },
    {
      "x": -0.0507018156349659,
      "y": -0.06230825558304787,
      "z": -0.0022907445672899485,
      "time_usec": 54303407319
    },
    {
      "x": -0.06062837690114975,
      "y": -0.05375614017248154,
      "z": -0.008399397134780884,
      "time_usec": 54303409570
    },
    {
      "x": -0.07284568250179291,
      "y": -0.04642575979232788,
      "z": -0.009773843921720982,
      "time_usec": 54303411835
    },
    {
      "x": -0.08261952549219131,
      "y": -0.0354301854968071,
      "z": -0.00855211354792118,
      "time_usec": 54303414090
    },
    {
      "x": -0.09498954564332962,
      "y": -0.03405573591589928,
      "z": -0.010995574295520782,
      "time_usec": 54303416359
    },
    {
      "x": -0.10735956579446793,
      "y": -0.029168816283345222,
      "z": -0.01237002108246088,
      "time_usec": 54303418609
    },
    {
      "x": -0.12095131725072861,
      "y": -0.030237829312682152,
      "z": -0.008704829961061478,
      "time_usec": 54303420866
    },
    {
      "x": -0.13576480746269226,
      "y": -0.02519819140434265,
      "z": -0.010079276748001575,
      "time_usec": 54303423116
    },
    {
      "x": -0.14569136500358582,
      "y": -0.027488935738801956,
      "z": -0.007635815534740686,
      "time_usec": 54303425375
    },
    {
      "x": -0.15424346923828125,
      "y": -0.02977968007326126,
      "z": -0.010079276748001575,
      "time_usec": 54303427629
    },
    {
      "x": -0.16050484776496887,
      "y": -0.03329215571284294,
      "z": -0.009010262787342072,
      "time_usec": 54303429897
    },
    {
      "x": -0.16920967400074005,
      "y": -0.035582900047302246,
      "z": -0.009010262787342072,
      "time_usec": 54303432154
    },
    {
      "x": -0.17531833052635193,
      "y": -0.036651913076639175,
      "z": -0.009010262787342072,
      "time_usec": 54303434408
    },
    {
      "x": -0.1791362315416336,
      "y": -0.03787364438176155,
      "z": -0.005345070734620094,
      "time_usec": 54303436667
    },
    {
      "x": -0.18524488806724548,
      "y": -0.03894266113638878,
      "z": -0.00427605677396059,
      "time_usec": 54303438925
    },
    {
      "x": -0.18906278908252716,
      "y": -0.03878994286060333,
      "z": -0.003054326167330146,
      "time_usec": 54303441180
    },
    {
      "x": -0.1915062516927719,
      "y": -0.03878994286060333,
      "z": 6.108652451075613E-4,
      "time_usec": 54303443438
    },
    {
      "x": -0.1963931769132614,
      "y": -0.03634648025035858,
      "z": 0.00427605677396059,
      "time_usec": 54303445700
    },
    {
      "x": -0.19517144560813904,
      "y": -0.03634648025035858,
      "z": 0.00427605677396059,
      "time_usec": 54303447957
    },
    {
      "x": -0.19898934662342072,
      "y": -0.036193765699863434,
      "z": 0.006719517521560192,
      "time_usec": 54303450215
    },
    {
      "x": -0.20387627184391022,
      "y": -0.03497203439474106,
      "z": 0.009162978269159794,
      "time_usec": 54303452470
    },
    {
      "x": -0.20387627184391022,
      "y": -0.04092797264456749,
      "z": 0.009162978269159794,
      "time_usec": 54303454724
    },
    {
      "x": -0.20387627184391022,
      "y": -0.04214970022439957,
      "z": 0.01038470957428217,
      "time_usec": 54303456986
    },
    {
      "x": -0.20525072515010834,
      "y": -0.04337143152952194,
      "z": 0.01160643994808197,
      "time_usec": 54303459244
    },
    {
      "x": -0.2064724564552307,
      "y": -0.04703662544488907,
      "z": 0.009162978269159794,
      "time_usec": 54303461501
    },
    {
      "x": -0.2076941877603531,
      "y": -0.04459316283464432,
      "z": 0.01038470957428217,
      "time_usec": 54303463753
    },
    {
      "x": -0.21013765037059784,
      "y": -0.04214970022439957,
      "z": 0.01038470957428217,
      "time_usec": 54303466015
    },
    {
      "x": -0.2076941877603531,
      "y": -0.03848451003432274,
      "z": 0.01038470957428217,
      "time_usec": 54303468269
    },
    {
      "x": -0.2064724564552307,
      "y": -0.03848451003432274,
      "z": 0.01160643994808197,
      "time_usec": 54303470532
    },
    {
      "x": -0.21013765037059784,
      "y": -0.03481931984424591,
      "z": 0.012828170321881771,
      "time_usec": 54303472783
    },
    {
      "x": -0.2050980031490326,
      "y": -0.03497203439474106,
      "z": 0.015271631069481373,
      "time_usec": 54303475047
    },
    {
      "x": -0.20143280923366547,
      "y": -0.036193765699863434,
      "z": 0.012828170321881771,
      "time_usec": 54303477303
    },
    {
      "x": -0.2002110779285431,
      "y": -0.03375030308961868,
      "z": 0.012828170321881771,
      "time_usec": 54303479563
    },
    {
      "x": -0.2002110779285431,
      "y": -0.03497203439474106,
      "z": 0.016493361443281174,
      "time_usec": 54303481818
    },
    {
      "x": -0.2002110779285431,
      "y": -0.03497203439474106,
      "z": 0.015271631069481373,
      "time_usec": 54303484071
    },
    {
      "x": -0.19288070499897003,
      "y": -0.038637228310108185,
      "z": 0.01664607785642147,
      "time_usec": 54303486334
    },
    {
      "x": -0.18799377977848053,
      "y": -0.04596760869026184,
      "z": 0.01542434748262167,
      "time_usec": 54303488591
    },
    {
      "x": -0.18310685455799103,
      "y": -0.055741455405950546,
      "z": 0.011759156361222267,
      "time_usec": 54303490848
    },
    {
      "x": -0.17699819803237915,
      "y": -0.06658431142568588,
      "z": 0.012980886735022068,
      "time_usec": 54303493100
    },
    {
      "x": -0.17333301901817322,
      "y": -0.07391469180583954,
      "z": 0.011759156361222267,
      "time_usec": 54303495359
    },
    {
      "x": -0.16722436249256134,
      "y": -0.08597928285598755,
      "z": 0.01664607785642147,
      "time_usec": 54303497620
    },
    {
      "x": -0.16233743727207184,
      "y": -0.09682214260101318,
      "z": 0.01664607785642147,
      "time_usec": 54303499881
    },
    {
      "x": -0.15622878074645996,
      "y": -0.1088867336511612,
      "z": 0.014202617108821869,
      "time_usec": 54303502136
    },
    {
      "x": -0.15271630883216858,
      "y": -0.11743884533643723,
      "z": 0.017867809161543846,
      "time_usec": 54303504386
    },
    {
      "x": -0.14523321390151978,
      "y": -0.12232576310634613,
      "z": 0.020311269909143448,
      "time_usec": 54303506635
    },
    {
      "x": -0.14156801998615265,
      "y": -0.12461651116609573,
      "z": 0.022907447069883347,
      "time_usec": 54303508896
    },
    {
      "x": -0.13545936346054077,
      "y": -0.12599095702171326,
      "z": 0.026572637259960175,
      "time_usec": 54303511166
    },
    {
      "x": -0.13057245314121246,
      "y": -0.12232576310634613,
      "z": 0.029016099870204926,
      "time_usec": 54303513419
    },
    {
      "x": -0.1267545372247696,
      "y": -0.11881329119205475,
      "z": 0.03405573591589928,
      "time_usec": 54303515675
    },
    {
      "x": -0.12553280591964722,
      "y": -0.11163562536239624,
      "z": 0.03405573591589928,
      "time_usec": 54303517940
    },
    {
      "x": -0.12049316614866257,
      "y": -0.10567969083786011,
      "z": 0.0328340083360672,
      "time_usec": 54303520197
    },
    {
      "x": -0.11545353382825851,
      "y": -0.09972374886274338,
      "z": 0.03405573591589928,
      "time_usec": 54303522455
    },
    {
      "x": -0.11178833991289139,
      "y": -0.09605856239795685,
      "z": 0.03405573591589928,
      "time_usec": 54303524703
    },
    {
      "x": -0.10552696883678436,
      "y": -0.09498954564332962,
      "z": 0.0354301854968071,
      "time_usec": 54303526958
    },
    {
      "x": -0.10552696883678436,
      "y": -0.08781187981367111,
      "z": 0.03176499158143997,
      "time_usec": 54303529226
    },
    {
      "x": -0.10048733651638031,
      "y": -0.08781187981367111,
      "z": 0.030543262138962746,
      "time_usec": 54303531483
    },
    {
      "x": -0.09437867999076843,
      "y": -0.08552113175392151,
      "z": 0.02932153269648552,
      "time_usec": 54303533739
    },
    {
      "x": -0.08933904021978378,
      "y": -0.08567385375499725,
      "z": 0.025656340643763542,
      "time_usec": 54303535999
    },
    {
      "x": -0.08445212244987488,
      "y": -0.08216137439012527,
      "z": 0.025656340643763542,
      "time_usec": 54303538252
    },
    {
      "x": -0.0757472887635231,
      "y": -0.08109235763549805,
      "z": 0.023365596309304237,
      "time_usec": 54303540514
    },
    {
      "x": -0.07208210229873657,
      "y": -0.08109235763549805,
      "z": 0.023365596309304237,
      "time_usec": 54303542763
    },
    {
      "x": -0.06459899991750717,
      "y": -0.08002334833145142,
      "z": 0.020922135561704636,
      "time_usec": 54303545017
    },
    {
      "x": -0.05955936014652252,
      "y": -0.07651086896657944,
      "z": 0.020922135561704636,
      "time_usec": 54303547274
    },
    {
      "x": -0.055894169956445694,
      "y": -0.07406741380691528,
      "z": 0.021074850112199783,
      "time_usec": 54303549529
    },
    {
      "x": -0.047189339995384216,
      "y": -0.07422012835741043,
      "z": 0.01863138936460018,
      "time_usec": 54303551787
    },
    {
      "x": -0.038637228310108185,
      "y": -0.07437284290790558,
      "z": 0.01618792861700058,
      "time_usec": 54303554042
    },
    {
      "x": -0.03237585723400116,
      "y": -0.0708603709936142,
      "z": 0.012522737495601177,
      "time_usec": 54303556303
    },
    {
      "x": -0.02977968007326126,
      "y": -0.06368270516395569,
      "z": 0.007635815534740686,
      "time_usec": 54303558576
    },
    {
      "x": -0.02733621932566166,
      "y": -0.06368270516395569,
      "z": 0.011453723534941673,
      "time_usec": 54303560833
    },
    {
      "x": -0.019853120669722557,
      "y": -0.06017022579908371,
      "z": 0.009010262787342072,
      "time_usec": 54303563091
    },
    {
      "x": -0.013591751456260681,
      "y": -0.05192354694008827,
      "z": 0.007788531947880983,
      "time_usec": 54303565348
    },
    {
      "x": -0.009926560334861279,
      "y": -0.044745877385139465,
      "z": 0.0065668015740811825,
      "time_usec": 54303567604
    },
    {
      "x": -0.00366519158706069,
      "y": -0.03878994286060333,
      "z": 0.005497787147760391,
      "time_usec": 54303569862
    },
    {
      "x": 0.003817907767370343,
      "y": -0.03527746722102165,
      "z": 0.006719517521560192,
      "time_usec": 54303572118
    },
    {
      "x": 0.008857546374201775,
      "y": -0.03298672288656235,
      "z": 0.00427605677396059,
      "time_usec": 54303574371
    },
    {
      "x": 0.013744467869400978,
      "y": -0.03298672288656235,
      "z": 0.00427605677396059,
      "time_usec": 54303576634
    },
    {
      "x": 0.01618792861700058,
      "y": -0.030695978552103043,
      "z": -6.108652451075613E-4,
      "time_usec": 54303578890
    },
    {
      "x": 0.020005837082862854,
      "y": -0.02825251780450344,
      "z": 0.0019853119738399982,
      "time_usec": 54303581148
    },
    {
      "x": 0.026114489883184433,
      "y": -0.027183502912521362,
      "z": 7.635815418325365E-4,
      "time_usec": 54303583401
    },
    {
      "x": 0.031154127791523933,
      "y": -0.028405234217643738,
      "z": 0.0019853119738399982,
      "time_usec": 54303585668
    },
    {
      "x": 0.036041051149368286,
      "y": -0.028557950630784035,
      "z": -4.5814894838258624E-4,
      "time_usec": 54303587922
    },
    {
      "x": 0.04230241850018501,
      "y": -0.02382374368607998,
      "z": -0.004123340360820293,
      "time_usec": 54303590181
    },
    {
      "x": 0.04352414980530739,
      "y": -0.017867809161543846,
      "z": -3.054326225537807E-4,
      "time_usec": 54303592433
    },
    {
      "x": 0.04612032696604729,
      "y": -0.014202617108821869,
      "z": -0.001527163083665073,
      "time_usec": 54303594685
    },
    {
      "x": 0.04734205827116966,
      "y": -0.008246680721640587,
      "z": 0.002138028386980295,
      "time_usec": 54303596947
    },
    {
      "x": 0.052228979766368866,
      "y": -0.007024950347840786,
      "z": 0.002138028386980295,
      "time_usec": 54303599195
    },
    {
      "x": 0.05360342562198639,
      "y": -0.0022907445672899485,
      "z": 0.005803219974040985,
      "time_usec": 54303601466
    },
    {
      "x": 0.05360342562198639,
      "y": 0.005039638374000788,
      "z": 0.008399397134780884,
      "time_usec": 54303603718
    },
    {
      "x": 0.05360342562198639,
      "y": 0.00855211354792118,
      "z": 0.010842857882380486,
      "time_usec": 54303605984
    },
    {
      "x": 0.05360342562198639,
      "y": 0.01710422709584236,
      "z": 0.014508049935102463,
      "time_usec": 54303608236
    },
    {
      "x": 0.052381694316864014,
      "y": 0.023060163483023643,
      "z": 0.020616702735424042,
      "time_usec": 54303610482
    },
    {
      "x": 0.052381694316864014,
      "y": 0.02076941914856434,
      "z": 0.019394971430301666,
      "time_usec": 54303612740
    },
    {
      "x": 0.05115996301174164,
      "y": 0.021991148591041565,
      "z": 0.021838432177901268,
      "time_usec": 54303615011
    },
    {
      "x": 0.04993823543190956,
      "y": 0.02321287989616394,
      "z": 0.02428189292550087,
      "time_usec": 54303617271
    },
    {
      "x": 0.048716504126787186,
      "y": 0.019547687843441963,
      "z": 0.02672535367310047,
      "time_usec": 54303619529
    },
    {
      "x": 0.05115996301174164,
      "y": 0.016035212203860283,
      "z": 0.027947084978222847,
      "time_usec": 54303621782
    },
    {
      "x": 0.04734205827116966,
      "y": 0.01114829070866108,
      "z": 0.027947084978222847,
      "time_usec": 54303624033
    },
    {
      "x": 0.04734205827116966,
      "y": 0.01237002108246088,
      "z": 0.03039054572582245,
      "time_usec": 54303626286
    },
    {
      "x": 0.04489859566092491,
      "y": 0.007635815534740686,
      "z": 0.03039054572582245,
      "time_usec": 54303628555
    },
    {
      "x": 0.044745877385139465,
      "y": 0.004123340360820293,
      "z": 0.0328340083360672,
      "time_usec": 54303630813
    },
    {
      "x": 0.04352414980530739,
      "y": 0.005345070734620094,
      "z": 0.03405573591589928,
      "time_usec": 54303633069
    },
    {
      "x": 0.03985895588994026,
      "y": 0.0029016099870204926,
      "z": 0.03649919852614403,
      "time_usec": 54303635328
    },
    {
      "x": 0.04108068719506264,
      "y": -0.001832595793530345,
      "z": 0.03527746722102165,
      "time_usec": 54303637586
    },
    {
      "x": 0.03985895588994026,
      "y": -0.003054326167330146,
      "z": 0.0377209298312664,
      "time_usec": 54303639844
    },
    {
      "x": 0.036041051149368286,
      "y": -0.001832595793530345,
      "z": 0.04260785132646561,
      "time_usec": 54303642100
    },
    {
      "x": 0.033597588539123535,
      "y": -4.5814894838258624E-4,
      "z": 0.046273041516542435,
      "time_usec": 54303644355
    },
    {
      "x": 0.031154127791523933,
      "y": -0.001679879380390048,
      "z": 0.04993823543190956,
      "time_usec": 54303646615
    },
    {
      "x": 0.02977968007326126,
      "y": -0.0029016099870204926,
      "z": 0.052381694316864014,
      "time_usec": 54303648870
    },
    {
      "x": 0.028557950630784035,
      "y": -4.5814894838258624E-4,
      "z": 0.054825156927108765,
      "time_usec": 54303651119
    },
    {
      "x": 0.024892758578062057,
      "y": 0.004428773187100887,
      "z": 0.05726861581206322,
      "time_usec": 54303653387
    },
    {
      "x": 0.02122756652534008,
      "y": 0.011759156361222267,
      "z": 0.060933809727430344,
      "time_usec": 54303655644
    },
    {
      "x": 0.01878410577774048,
      "y": 0.014202617108821869,
      "z": 0.0633772686123848,
      "time_usec": 54303657901
    },
    {
      "x": 0.015118914656341076,
      "y": 0.014355333521962166,
      "z": 0.06582073122262955,
      "time_usec": 54303660159
    },
    {
      "x": 0.013897184282541275,
      "y": 0.01191187184303999,
      "z": 0.06948592513799667,
      "time_usec": 54303662405
    },
    {
      "x": 0.008857546374201775,
      "y": 0.009621127508580685,
      "z": 0.07192938029766083,
      "time_usec": 54303664672
    },
    {
      "x": 0.003817907767370343,
      "y": 0.006108652334660292,
      "z": 0.07788532227277756,
      "time_usec": 54303666933
    },
    {
      "x": 1.5271631127689034E-4,
      "y": 0.00366519158706069,
      "z": 0.07666359096765518,
      "time_usec": 54303669194
    },
    {
      "x": -0.0024434609804302454,
      "y": -0.0010690141934901476,
      "z": 0.07788532227277756,
      "time_usec": 54303671448
    },
    {
      "x": -0.006108652334660292,
      "y": 3.054326225537807E-4,
      "z": 0.08032877743244171,
      "time_usec": 54303673700
    },
    {
      "x": -0.013591751456260681,
      "y": 3.054326225537807E-4,
      "z": 0.08399397134780884,
      "time_usec": 54303675963
    },
    {
      "x": -0.013591751456260681,
      "y": -0.0032070425804704428,
      "z": 0.08521570265293121,
      "time_usec": 54303678221
    },
    {
      "x": -0.01725694350898266,
      "y": -0.004428773187100887,
      "z": 0.08888089656829834,
      "time_usec": 54303680479
    },
    {
      "x": -0.020922135561704636,
      "y": -7.635815418325365E-4,
      "z": 0.0913243517279625,
      "time_usec": 54303682729
    },
    {
      "x": -0.02474004216492176,
      "y": -6.108652451075613E-4,
      "z": 0.0913243517279625,
      "time_usec": 54303684989
    },
    {
      "x": -0.029626963660120964,
      "y": 6.108652451075613E-4,
      "z": 0.09117163717746735,
      "time_usec": 54303687250
    },
    {
      "x": -0.03588833287358284,
      "y": 7.635815418325365E-4,
      "z": 0.0936150997877121,
      "time_usec": 54303689509
    },
    {
      "x": -0.03833179548382759,
      "y": 0.0032070425804704428,
      "z": 0.09483683109283447,
      "time_usec": 54303691765
    },
    {
      "x": -0.043218716979026794,
      "y": 7.635815418325365E-4,
      "z": 0.09483683109283447,
      "time_usec": 54303694018
    },
    {
      "x": -0.04948008432984352,
      "y": -0.0039706239476799965,
      "z": 0.0936150997877121,
      "time_usec": 54303696278
    },
    {
      "x": -0.04948008432984352,
      "y": -0.009926560334861279,
      "z": 0.0936150997877121,
      "time_usec": 54303698529
    },
    {
      "x": -0.04703662544488907,
      "y": -0.01114829070866108,
      "z": 0.09117163717746735,
      "time_usec": 54303700795
    },
    {
      "x": -0.048258353024721146,
      "y": -0.014813481830060482,
      "z": 0.08979719132184982,
      "time_usec": 54303703048
    },
    {
      "x": -0.053297992795705795,
      "y": -0.02076941914856434,
      "z": 0.08491026610136032,
      "time_usec": 54303705312
    },
    {
      "x": -0.05451972410082817,
      "y": -0.019547687843441963,
      "z": 0.08246681094169617,
      "time_usec": 54303707568
    },
    {
      "x": -0.05192354694008827,
      "y": -0.019547687843441963,
      "z": 0.07880161702632904,
      "time_usec": 54303709826
    },
    {
      "x": -0.048258353024721146,
      "y": -0.01970040425658226,
      "z": 0.07880161702632904,
      "time_usec": 54303712082
    },
    {
      "x": -0.04948008432984352,
      "y": -0.014813481830060482,
      "z": 0.07635815441608429,
      "time_usec": 54303714332
    },
    {
      "x": -0.05054909735918045,
      "y": -4.5814894838258624E-4,
      "z": 0.07269296050071716,
      "time_usec": 54303716586
    },
    {
      "x": -0.04932736977934837,
      "y": 0.005497787147760391,
      "z": 0.07269296050071716,
      "time_usec": 54303718852
    },
    {
      "x": -0.04795292019844055,
      "y": 0.013897184282541275,
      "z": 0.07147123664617538,
      "time_usec": 54303721099
    },
    {
      "x": -0.04917465150356293,
      "y": 0.02122756652534008,
      "z": 0.07024950534105301,
      "time_usec": 54303723363
    },
    {
      "x": -0.04902193695306778,
      "y": 0.028405234217643738,
      "z": 0.07024950534105301,
      "time_usec": 54303725624
    },
    {
      "x": -0.0503963828086853,
      "y": 0.028405234217643738,
      "z": 0.07147123664617538,
      "time_usec": 54303727883
    },
    {
      "x": -0.055283304303884506,
      "y": 0.029626963660120964,
      "z": 0.06780604273080826,
      "time_usec": 54303730145
    },
    {
      "x": -0.05650503560900688,
      "y": 0.028405234217643738,
      "z": 0.06658431142568588,
      "time_usec": 54303732398
    },
    {
      "x": -0.05772676691412926,
      "y": 0.028405234217643738,
      "z": 0.060475658625364304,
      "time_usec": 54303734656
    },
    {
      "x": -0.06017022579908371,
      "y": 0.02367102913558483,
      "z": 0.05803219974040985,
      "time_usec": 54303736915
    },
    {
      "x": -0.06383541971445084,
      "y": 0.024892758578062057,
      "z": 0.051770828664302826,
      "time_usec": 54303739173
    },
    {
      "x": -0.06887505948543549,
      "y": 0.02015855349600315,
      "z": 0.05054909735918045,
      "time_usec": 54303741430
    },
    {
      "x": -0.07131851464509964,
      "y": 0.018936822190880775,
      "z": 0.04932736977934837,
      "time_usec": 54303743685
    },
    {
      "x": -0.07376197725534439,
      "y": 0.014049900695681572,
      "z": 0.04444044828414917,
      "time_usec": 54303745945
    },
    {
      "x": -0.07757988572120667,
      "y": 0.010537425056099892,
      "z": 0.040622539818286896,
      "time_usec": 54303748203
    },
    {
      "x": -0.07880161702632904,
      "y": 0.004428773187100887,
      "z": 0.038179077208042145,
      "time_usec": 54303750460
    },
    {
      "x": -0.08384125679731369,
      "y": 0.002138028386980295,
      "z": 0.03695734590291977,
      "time_usec": 54303752713
    },
    {
      "x": -0.08750644326210022,
      "y": -0.0025961773935705423,
      "z": 0.03329215571284294,
      "time_usec": 54303754973
    },
    {
      "x": -0.08506298810243607,
      "y": -0.0027488935738801956,
      "z": 0.03084869496524334,
      "time_usec": 54303757233
    },
    {
      "x": -0.08628471940755844,
      "y": -0.0027488935738801956,
      "z": 0.027030786499381065,
      "time_usec": 54303759492
    },
    {
      "x": -0.08368854224681854,
      "y": 9.162978967651725E-4,
      "z": 0.02474004216492176,
      "time_usec": 54303761748
    },
    {
      "x": -0.08246681094169617,
      "y": 0.0032070425804704428,
      "z": 0.02229658141732216,
      "time_usec": 54303764000
    },
    {
      "x": -0.08246681094169617,
      "y": 0.007941247895359993,
      "z": 0.01863138936460018,
      "time_usec": 54303766261
    },
    {
      "x": -0.07987063378095627,
      "y": 0.017562376335263252,
      "z": 0.013744467869400978,
      "time_usec": 54303768514
    },
    {
      "x": -0.07849618047475815,
      "y": 0.02474004216492176,
      "z": 0.012522737495601177,
      "time_usec": 54303770779
    },
    {
      "x": -0.07483099400997162,
      "y": 0.03436116874217987,
      "z": 0.011301007121801376,
      "time_usec": 54303773027
    },
    {
      "x": -0.07223481684923172,
      "y": 0.04153883829712868,
      "z": 0.011301007121801376,
      "time_usec": 54303775281
    },
    {
      "x": -0.07330382615327835,
      "y": 0.04993823543190956,
      "z": 0.0064140851609408855,
      "time_usec": 54303777550
    },
    {
      "x": -0.06719517707824707,
      "y": 0.05711590126156807,
      "z": 0.007788531947880983,
      "time_usec": 54303779809
    },
    {
      "x": -0.06582073122262955,
      "y": 0.0630718395113945,
      "z": 0.007788531947880983,
      "time_usec": 54303782066
    },
    {
      "x": -0.06582073122262955,
      "y": 0.06551529467105865,
      "z": 0.007788531947880983,
      "time_usec": 54303784317
    },
    {
      "x": -0.05955936014652252,
      "y": 0.06902777403593063,
      "z": 0.004123340360820293,
      "time_usec": 54303786580
    },
    {
      "x": -0.058337632566690445,
      "y": 0.07498370856046677,
      "z": 0.0065668015740811825,
      "time_usec": 54303788839
    },
    {
      "x": -0.05467243865132332,
      "y": 0.07498370856046677,
      "z": 0.005345070734620094,
      "time_usec": 54303791096
    },
    {
      "x": -0.05345070734620094,
      "y": 0.076052725315094,
      "z": 0.005345070734620094,
      "time_usec": 54303793346
    },
    {
      "x": -0.05345070734620094,
      "y": 0.07498370856046677,
      "z": 0.007788531947880983,
      "time_usec": 54303795593
    },
    {
      "x": -0.05467243865132332,
      "y": 0.07849618047475815,
      "z": 0.009010262787342072,
      "time_usec": 54303797855
    },
    {
      "x": -0.055894169956445694,
      "y": 0.07620543986558914,
      "z": 0.010231993161141872,
      "time_usec": 54303800124
    },
    {
      "x": -0.05711590126156807,
      "y": 0.07971791177988052,
      "z": 0.010231993161141872,
      "time_usec": 54303802380
    },
    {
      "x": -0.058337632566690445,
      "y": 0.0858265683054924,
      "z": 0.011453723534941673,
      "time_usec": 54303804639
    },
    {
      "x": -0.05696318298578262,
      "y": 0.08949175477027893,
      "z": 0.011453723534941673,
      "time_usec": 54303806899
    },
    {
      "x": -0.059406645596027374,
      "y": 0.09666942805051804,
      "z": 0.018936822190880775,
      "time_usec": 54303809156
    },
    {
      "x": -0.06062837690114975,
      "y": 0.10751228034496307,
      "z": 0.016493361443281174,
      "time_usec": 54303811413
    },
    {
      "x": -0.06673702597618103,
      "y": 0.11484266817569733,
      "z": 0.02015855349600315,
      "time_usec": 54303813667
    },
    {
      "x": -0.0679587572813034,
      "y": 0.12095131725072861,
      "z": 0.021380282938480377,
      "time_usec": 54303815927
    },
    {
      "x": -0.0679587572813034,
      "y": 0.11728613078594208,
      "z": 0.02015855349600315,
      "time_usec": 54303818185
    },
    {
      "x": -0.07284568250179291,
      "y": 0.11728613078594208,
      "z": 0.02122756652534008,
      "time_usec": 54303820442
    },
    {
      "x": -0.07788532227277756,
      "y": 0.11499538272619247,
      "z": 0.020005837082862854,
      "time_usec": 54303822699
    },
    {
      "x": -0.07788532227277756,
      "y": 0.10781771689653397,
      "z": 0.017562376335263252,
      "time_usec": 54303824973
    },
    {
      "x": -0.07681630551815033,
      "y": 0.09575312584638596,
      "z": 0.016340645030140877,
      "time_usec": 54303827205
    },
    {
      "x": -0.08048149943351746,
      "y": 0.0861319974064827,
      "z": 0.015118914656341076,
      "time_usec": 54303829474
    },
    {
      "x": -0.08185594528913498,
      "y": 0.07773260027170181,
      "z": 0.012522737495601177,
      "time_usec": 54303831724
    },
    {
      "x": -0.08307767659425735,
      "y": 0.06933320313692093,
      "z": 0.010079276748001575,
      "time_usec": 54303833982
    },
    {
      "x": -0.08567385375499725,
      "y": 0.05971207842230797,
      "z": 0.013744467869400978,
      "time_usec": 54303836233
    },
    {
      "x": -0.08567385375499725,
      "y": 0.051312681287527084,
      "z": 0.011301007121801376,
      "time_usec": 54303838503
    },
    {
      "x": -0.08704829961061478,
      "y": 0.04764748737215996,
      "z": 0.012522737495601177,
      "time_usec": 54303840760
    },
    {
      "x": -0.0858265683054924,
      "y": 0.039248090237379074,
      "z": 0.011301007121801376,
      "time_usec": 54303843016
    },
    {
      "x": -0.08460483700037003,
      "y": 0.029626963660120964,
      "z": 0.010079276748001575,
      "time_usec": 54303845274
    },
    {
      "x": -0.08475755155086517,
      "y": 0.024892758578062057,
      "z": 0.012522737495601177,
      "time_usec": 54303847529
    },
    {
      "x": -0.08231408894062042,
      "y": 0.015271631069481373,
      "z": 0.014966198243200779,
      "time_usec": 54303849778
    },
    {
      "x": -0.08231408894062042,
      "y": 0.007941247895359993,
      "z": 0.009926560334861279,
      "time_usec": 54303852046
    },
    {
      "x": -0.07880161702632904,
      "y": -0.001679879380390048,
      "z": 0.01237002108246088,
      "time_usec": 54303854300
    },
    {
      "x": -0.07757988572120667,
      "y": -0.009010262787342072,
      "z": 0.01114829070866108,
      "time_usec": 54303856565
    },
    {
      "x": -0.07635815441608429,
      "y": -0.012522737495601177,
      "z": 0.009926560334861279,
      "time_usec": 54303858818
    },
    {
      "x": -0.07895433157682419,
      "y": -0.020922135561704636,
      "z": 0.01237002108246088,
      "time_usec": 54303861069
    },
    {
      "x": -0.07528914511203766,
      "y": -0.02825251780450344,
      "z": 0.0074830991216003895,
      "time_usec": 54303863330
    },
    {
      "x": -0.07284568250179291,
      "y": -0.03787364438176155,
      "z": 0.0074830991216003895,
      "time_usec": 54303865592
    },
    {
      "x": -0.07162395119667053,
      "y": -0.0403171069920063,
      "z": 0.008704829961061478,
      "time_usec": 54303867852
    },
    {
      "x": -0.06918048858642578,
      "y": -0.048716504126787186,
      "z": 0.009926560334861279,
      "time_usec": 54303870107
    },
    {
      "x": -0.0656680166721344,
      "y": -0.05604688450694084,
      "z": 0.0074830991216003895,
      "time_usec": 54303872357
    },
    {
      "x": -0.059406645596027374,
      "y": -0.060933809727430344,
      "z": 0.005039638374000788,
      "time_usec": 54303874610
    },
    {
      "x": -0.059406645596027374,
      "y": -0.0633772686123848,
      "z": 0.006261368747800589,
      "time_usec": 54303876881
    },
    {
      "x": -0.05451972410082817,
      "y": -0.06582073122262955,
      "z": 0.005039638374000788,
      "time_usec": 54303879140
    },
    {
      "x": -0.04841107130050659,
      "y": -0.07192938029766083,
      "z": 0.0064140851609408855,
      "time_usec": 54303881400
    },
    {
      "x": -0.04596760869026184,
      "y": -0.06948592513799667,
      "z": 0.0064140851609408855,
      "time_usec": 54303883647
    },
    {
      "x": -0.03848451003432274,
      "y": -0.0659734457731247,
      "z": 0.0039706239476799965,
      "time_usec": 54303885909
    },
    {
      "x": -0.02977968007326126,
      "y": -0.06734789162874222,
      "z": 0.0039706239476799965,
      "time_usec": 54303888163
    },
    {
      "x": -0.026114489883184433,
      "y": -0.06490442901849747,
      "z": 0.005192354787141085,
      "time_usec": 54303890410
    },
    {
      "x": -0.019853120669722557,
      "y": -0.057879481464624405,
      "z": 0.004123340360820293,
      "time_usec": 54303892670
    },
    {
      "x": -0.008704829961061478,
      "y": -0.0555887371301651,
      "z": 0.004123340360820293,
      "time_usec": 54303894936
    },
    {
      "x": -0.004886921960860491,
      "y": -0.050854530185461044,
      "z": 0.004123340360820293,
      "time_usec": 54303897201
    },
    {
      "x": 0.00366519158706069,
      "y": -0.05100724846124649,
      "z": 0.001832595793530345,
      "time_usec": 54303899457
    },
    {
      "x": 0.009926560334861279,
      "y": -0.04382958263158798,
      "z": -0.001832595793530345,
      "time_usec": 54303901712
    },
    {
      "x": 0.017409659922122955,
      "y": -0.042760565876960754,
      "z": -0.003054326167330146,
      "time_usec": 54303903964
    },
    {
      "x": 0.02474004216492176,
      "y": -0.04046982154250145,
      "z": -4.5814894838258624E-4,
      "time_usec": 54303906227
    },
    {
      "x": 0.03344487398862839,
      "y": -0.03940080851316452,
      "z": -0.0029016099870204926,
      "time_usec": 54303908485
    },
    {
      "x": 0.03726277872920036,
      "y": -0.03573561832308769,
      "z": -0.004123340360820293,
      "time_usec": 54303910742
    },
    {
      "x": 0.044745877385139465,
      "y": -0.03222314268350601,
      "z": -0.005345070734620094,
