{
  "accelerations": [
    {
      "x": 10.14616584777832,
      "y": -0.39062830805778503,
      "z": 0.5688936114311218,
      "time_usec": 83336738684
    },
    {
      "x": 10.188638687133789,
      "y": -0.4001995921134949,
      "z": 0.6598208546638489,
      "time_usec": 83336740941
    },
    {
      "x": 10.155138969421387,
      "y": -0.357128769159317,
      "z": 0.6981059908866882,
      "time_usec": 83336743195
    },
    {
      "x": 10.140782356262207,
      "y": -0.3565305769443512,
      "z": 0.7405785918235779,
      "time_usec": 83336745457
    },
    {
      "x": 10.083952903747559,
      "y": -0.33738797903060913,
      "z": 0.7262216806411743,
      "time_usec": 83336747716
    },
    {
      "x": 10.046265602111816,
      "y": -0.3080759048461914,
      "z": 0.7070791125297546,
      "time_usec": 83336749972
    },
    {
      "x": 10.00857925415039,
      "y": -0.28893333673477173,
      "z": 0.6969096064567566,
      "time_usec": 83336752229
    },
    {
      "x": 9.961320877075195,
      "y": -0.25064817070961,
      "z": 0.706480860710144,
      "time_usec": 83336754487
    },
    {
      "x": 9.9140625,
      "y": -0.2021935135126114,
      "z": 0.6969096064567566,
      "time_usec": 83336756742
    },
    {
      "x": 9.89013385772705,
      "y": -0.16869398951530457,
      "z": 0.6819544434547424,
      "time_usec": 83336758993
    },
    {
      "x": 9.838089942932129,
      "y": -0.14416755735874176,
      "z": 0.6628118753433228,
      "time_usec": 83336761258
    },
    {
      "x": 9.809974670410156,
      "y": -0.12023933976888657,
      "z": 0.6293123364448547,
      "time_usec": 83336763516
    },
    {
      "x": 9.80100154876709,
      "y": -0.08673982322216034,
      "z": 0.6101697683334351,
      "time_usec": 83336765775
    },
    {
      "x": 9.734601020812988,
      "y": -0.09152546525001526,
      "z": 0.600000262260437,
      "time_usec": 83336768030
    },
    {
      "x": 9.715457916259766,
      "y": -0.10049854964017868,
      "z": 0.5760720372200012,
      "time_usec": 83336770287
    },
    {
      "x": 9.710672378540039,
      "y": -0.09571290761232376,
      "z": 0.600000262260437,
      "time_usec": 83336772546
    },
    {
      "x": 9.677172660827637,
      "y": -0.09571290761232376,
      "z": 0.6287141442298889,
      "time_usec": 83336774803
    },
    {
      "x": 9.681958198547363,
      "y": -0.11006984114646912,
      "z": 0.6382854580879211,
      "time_usec": 83336777060
    },
    {
      "x": 9.7005033493042,
      "y": -0.15314064919948578,
      "z": 0.6478567123413086,
      "time_usec": 83336779317
    },
    {
      "x": 9.705288887023926,
      "y": -0.17706887423992157,
      "z": 0.6957131624221802,
      "time_usec": 83336781575
    },
    {
      "x": 9.752547264099121,
      "y": -0.2111666053533554,
      "z": 0.7052844762802124,
      "time_usec": 83336783832
    },
    {
      "x": 9.742377281188965,
      "y": -0.24945175647735596,
      "z": 0.7004988193511963,
      "time_usec": 83336786090
    },
    {
      "x": 9.77109146118164,
      "y": -0.29730820655822754,
      "z": 0.6622136831283569,
      "time_usec": 83336788347
    },
    {
      "x": 9.775876998901367,
      "y": -0.32123643159866333,
      "z": 0.6293123364448547,
      "time_usec": 83336790606
    },
    {
      "x": 9.80399227142334,
      "y": -0.3601198196411133,
      "z": 0.6245267391204834,
      "time_usec": 83336792862
    },
    {
      "x": 9.827920913696289,
      "y": -0.3840480446815491,
      "z": 0.605384111404419,
      "time_usec": 83336795119
    },
    {
      "x": 9.842277526855469,
      "y": -0.3936193287372589,
      "z": 0.5670989751815796,
      "time_usec": 83336797376
    },
    {
      "x": 9.851848602294922,
      "y": -0.39840495586395264,
      "z": 0.5479564070701599,
      "time_usec": 83336799633
    },
    {
      "x": 9.847063064575195,
      "y": -0.40319061279296875,
      "z": 0.5718846321105957,
      "time_usec": 83336801888
    },
    {
      "x": 9.856635093688965,
      "y": -0.39840495586395264,
      "z": 0.576670229434967,
      "time_usec": 83336804132
    },
    {
      "x": 9.856635093688965,
      "y": -0.3696911036968231,
      "z": 0.5670989751815796,
      "time_usec": 83336806393
    },
    {
      "x": 9.833304405212402,
      "y": -0.3601198196411133,
      "z": 0.5623133182525635,
      "time_usec": 83336808661
    },
    {
      "x": 9.795019149780273,
      "y": -0.3361915946006775,
      "z": 0.5670989751815796,
      "time_usec": 83336810911
    },
    {
      "x": 9.747760772705078,
      "y": -0.3068794906139374,
      "z": 0.5431707501411438,
      "time_usec": 83336813177
    },
    {
      "x": 9.748359680175781,
      "y": -0.2925225794315338,
      "z": 0.519242525100708,
      "time_usec": 83336815434
    },
    {
      "x": 9.724431037902832,
      "y": -0.27816563844680786,
      "z": 0.4713860750198364,
      "time_usec": 83336817694
    },
    {
      "x": 9.701101303100586,
      "y": -0.2638086974620819,
      "z": 0.4426721930503845,
      "time_usec": 83336819952
    },
    {
      "x": 9.66819953918457,
      "y": -0.23030917346477509,
      "z": 0.45164528489112854,
      "time_usec": 83336822207
    },
    {
      "x": 9.663414001464844,
      "y": -0.2111666053533554,
      "z": 0.4325026869773865,
      "time_usec": 83336824465
    },
    {
      "x": 9.64965534210205,
      "y": -0.1818545162677765,
      "z": 0.42771705985069275,
      "time_usec": 83336826723
    },
    {
      "x": 9.659226417541504,
      "y": -0.1824527233839035,
      "z": 0.4181457459926605,
      "time_usec": 83336828979
    },
    {
      "x": 9.673583984375,
      "y": -0.14895321428775787,
      "z": 0.4181457459926605,
      "time_usec": 83336831236
    },
    {
      "x": 9.696913719177246,
      "y": -0.14416755735874176,
      "z": 0.4091726839542389,
      "time_usec": 83336833493
    },
    {
      "x": 9.716055870056152,
      "y": -0.12023933976888657,
      "z": 0.4139583110809326,
      "time_usec": 83336835751
    },
    {
      "x": 9.730413436889648,
      "y": -0.09631111472845078,
      "z": 0.42352959513664246,
      "time_usec": 83336838009
    },
    {
      "x": 9.759127616882324,
      "y": -0.11066804826259613,
      "z": 0.4426721930503845,
      "time_usec": 83336840264
    },
    {
      "x": 9.78245735168457,
      "y": -0.09631111472845078,
      "z": 0.45224347710609436,
      "time_usec": 83336842516
    },
    {
      "x": 9.815957069396973,
      "y": -0.09690931439399719,
      "z": 0.4384847581386566,
      "time_usec": 83336844782
    },
    {
      "x": 9.81117057800293,
      "y": -0.11126625537872314,
      "z": 0.4145565330982208,
      "time_usec": 83336847038
    },
    {
      "x": 9.78245735168457,
      "y": -0.12083754688501358,
      "z": 0.4378865361213684,
      "time_usec": 83336849296
    },
    {
      "x": 9.801599502563477,
      "y": -0.12083754688501358,
      "z": 0.4618147611618042,
      "time_usec": 83336851548
    },
    {
      "x": 9.77707290649414,
      "y": -0.17766708135604858,
      "z": 0.4953143000602722,
      "time_usec": 83336853810
    },
    {
      "x": 9.78664493560791,
      "y": -0.1824527233839035,
      "z": 0.5096712112426758,
      "time_usec": 83336856068
    },
    {
      "x": 9.781859397888184,
      "y": -0.2063809484243393,
      "z": 0.5383850932121277,
      "time_usec": 83336858326
    },
    {
      "x": 9.786046028137207,
      "y": -0.20159530639648438,
      "z": 0.5718846321105957,
      "time_usec": 83336860581
    },
    {
      "x": 9.78126049041748,
      "y": -0.23988047242164612,
      "z": 0.5910272002220154,
      "time_usec": 83336862836
    },
    {
      "x": 9.786046028137207,
      "y": -0.2590230405330658,
      "z": 0.6005984544754028,
      "time_usec": 83336865097
    },
    {
      "x": 9.762118339538574,
      "y": -0.30209386348724365,
      "z": 0.5910272002220154,
      "time_usec": 83336867354
    },
    {
      "x": 9.771689414978027,
      "y": -0.3355933725833893,
      "z": 0.5718846321105957,
      "time_usec": 83336869611
    },
    {
      "x": 9.780662536621094,
      "y": -0.35533416271209717,
      "z": 0.5718846321105957,
      "time_usec": 83336871864
    },
    {
      "x": 9.78544807434082,
      "y": -0.37447673082351685,
      "z": 0.5575276613235474,
      "time_usec": 83336874127
    },
    {
      "x": 9.818947792053223,
      "y": -0.3888336718082428,
      "z": 0.5718846321105957,
      "time_usec": 83336876384
    },
    {
      "x": 9.823135375976562,
      "y": -0.4223332107067108,
      "z": 0.5862415432929993,
      "time_usec": 83336878643
    },
    {
      "x": 9.81356430053711,
      "y": -0.4223332107067108,
      "z": 0.6005984544754028,
      "time_usec": 83336880898
    },
    {
      "x": 9.80399227142334,
      "y": -0.4223332107067108,
      "z": 0.6197410821914673,
      "time_usec": 83336883151
    },
    {
      "x": 9.799206733703613,
      "y": -0.4366901218891144,
      "z": 0.6580262184143066,
      "time_usec": 83336885414
    },
    {
      "x": 9.80817985534668,
      "y": -0.46061834692955017,
      "z": 0.6532405614852905,
      "time_usec": 83336887671
    },
    {
      "x": 9.77527904510498,
      "y": -0.47916272282600403,
      "z": 0.666999340057373,
      "time_usec": 83336889928
    },
    {
      "x": 9.732208251953125,
      "y": -0.47916272282600403,
      "z": 0.6574280261993408,
      "time_usec": 83336892181
    },
    {
      "x": 9.718449592590332,
      "y": -0.4504488706588745,
      "z": 0.6622136831283569,
      "time_usec": 83336894443
    },
    {
      "x": 9.704092025756836,
      "y": -0.43130627274513245,
      "z": 0.6909275650978088,
      "time_usec": 83336896701
    },
    {
      "x": 9.68494987487793,
      "y": -0.4456632137298584,
      "z": 0.6717849373817444,
      "time_usec": 83336898958
    },
    {
      "x": 9.675976753234863,
      "y": -0.4265206456184387,
      "z": 0.6287141442298889,
      "time_usec": 83336901209
    },
    {
      "x": 9.65683364868164,
      "y": -0.4163511395454407,
      "z": 0.6191428303718567,
      "time_usec": 83336903466
    },
    {
      "x": 9.65683364868164,
      "y": -0.40259242057800293,
      "z": 0.5856433510780334,
      "time_usec": 83336905717
    },
    {
      "x": 9.671789169311523,
      "y": -0.37866419553756714,
      "z": 0.5760720372200012,
      "time_usec": 83336907989
    },
    {
      "x": 9.667003631591797,
      "y": -0.3690928816795349,
      "z": 0.542572557926178,
      "time_usec": 83336910244
    },
    {
      "x": 9.686145782470703,
      "y": -0.35473597049713135,
      "z": 0.5042873620986938,
      "time_usec": 83336912500
    },
    {
      "x": 9.667601585388184,
      "y": -0.32123643159866333,
      "z": 0.5042873620986938,
      "time_usec": 83336914760
    },
    {
      "x": 9.662816047668457,
      "y": -0.3116651475429535,
      "z": 0.47557350993156433,
      "time_usec": 83336917018
    },
    {
      "x": 9.662816047668457,
      "y": -0.3068794906139374,
      "z": 0.48514479398727417,
      "time_usec": 83336919274
    },
    {
      "x": 9.67238712310791,
      "y": -0.3068794906139374,
      "z": 0.4707878530025482,
      "time_usec": 83336921525
    },
    {
      "x": 9.648459434509277,
      "y": -0.2877369225025177,
      "z": 0.4899304509162903,
      "time_usec": 83336923783
    },
    {
      "x": 9.667601585388184,
      "y": -0.3116651475429535,
      "z": 0.50907301902771,
      "time_usec": 83336926046
    },
    {
      "x": 9.64367389678955,
      "y": -0.32123643159866333,
      "z": 0.4995017349720001,
      "time_usec": 83336928305
    },
    {
      "x": 9.605388641357422,
      "y": -0.33499518036842346,
      "z": 0.5132604837417603,
      "time_usec": 83336930561
    },
    {
      "x": 9.600603103637695,
      "y": -0.3445664644241333,
      "z": 0.503689169883728,
      "time_usec": 83336932814
    },
    {
      "x": 9.57188892364502,
      "y": -0.35892340540885925,
      "z": 0.5228317379951477,
      "time_usec": 83336935077
    },
    {
      "x": 9.581459999084473,
      "y": -0.363709032535553,
      "z": 0.537188708782196,
      "time_usec": 83336937334
    },
    {
      "x": 9.577272415161133,
      "y": -0.35413774847984314,
      "z": 0.5084748268127441,
      "time_usec": 83336939592
    },
    {
      "x": 9.55214786529541,
      "y": -0.38225340843200684,
      "z": 0.6514459848403931,
      "time_usec": 83336941843
    },
    {
      "x": 9.56770133972168,
      "y": -0.3732803463935852,
      "z": 0.4749752879142761,
      "time_usec": 83336944105
    },
    {
      "x": 9.556933403015137,
      "y": -0.38703906536102295,
      "z": 0.6849454641342163,
      "time_usec": 83336946362
    },
    {
      "x": 9.57188892364502,
      "y": -0.35413774847984314,
      "z": 0.6089733839035034,
      "time_usec": 83336948618
    },
    {
      "x": 9.567103385925293,
      "y": -0.3487538993358612,
      "z": 0.6376872062683105,
      "time_usec": 83336950863
    },
    {
      "x": 9.613762855529785,
      "y": -0.3684946894645691,
      "z": 0.7286145091056824,
      "time_usec": 83336953124
    },
    {
      "x": 9.623932838439941,
      "y": -0.30149564146995544,
      "z": 0.6616154313087463,
      "time_usec": 83336955389
    },
    {
      "x": 9.647262573242188,
      "y": -0.2919243574142456,
      "z": 0.7238288521766663,
      "time_usec": 83336957640
    },
    {
      "x": 9.66221809387207,
      "y": -0.2679961323738098,
      "z": 0.6999006271362305,
      "time_usec": 83336959907
    },
    {
      "x": 9.67657470703125,
      "y": -0.24406790733337402,
      "z": 0.6717849373817444,
      "time_usec": 83336962153
    },
    {
      "x": 9.671789169311523,
      "y": -0.24885354936122894,
      "z": 0.6759724020957947,
      "time_usec": 83336964426
    },
    {
      "x": 9.690333366394043,
      "y": -0.2584248483181,
      "z": 0.6622136831283569,
      "time_usec": 83336966679
    },
    {
      "x": 9.723833084106445,
      "y": -0.22971096634864807,
      "z": 0.6717849373817444,
      "time_usec": 83336968938
    },
    {
      "x": 9.775876998901367,
      "y": -0.1824527233839035,
      "z": 0.719641387462616,
      "time_usec": 83336971188
    },
    {
      "x": 9.795019149780273,
      "y": -0.17288143932819366,
      "z": 0.7435696125030518,
      "time_usec": 83336973448
    },
    {
      "x": 9.838089942932129,
      "y": -0.1537388563156128,
      "z": 0.7345965504646301,
      "time_usec": 83336975705
    },
    {
      "x": 9.838089942932129,
      "y": -0.1537388563156128,
      "z": 0.6915257573127747,
      "time_usec": 83336977954
    },
    {
      "x": 9.818947792053223,
      "y": -0.17766708135604858,
      "z": 0.6771687865257263,
      "time_usec": 83336980222
    },
    {
      "x": 9.800403594970703,
      "y": -0.1585244983434677,
      "z": 0.6340979933738708,
      "time_usec": 83336982475
    },
    {
      "x": 9.781859397888184,
      "y": -0.1585244983434677,
      "z": 0.5814558863639832,
      "time_usec": 83336984741
    },
    {
      "x": 9.762716293334961,
      "y": -0.16331014037132263,
      "z": 0.5670989751815796,
      "time_usec": 83336986995
    },
    {
      "x": 9.748359680175781,
      "y": -0.1585244983434677,
      "z": 0.5575276613235474,
      "time_usec": 83336989252
    },
    {
      "x": 9.743574142456055,
      "y": -0.16331014037132263,
      "z": 0.5760720372200012,
      "time_usec": 83336991496
    },
    {
      "x": 9.748359680175781,
      "y": -0.17766708135604858,
      "z": 0.5952146053314209,
      "time_usec": 83336993759
    },
    {
      "x": 9.738788604736328,
      "y": -0.16331014037132263,
      "z": 0.6382854580879211,
      "time_usec": 83336996009
    },
    {
      "x": 9.714859962463379,
      "y": -0.16749759018421173,
      "z": 0.6478567123413086,
      "time_usec": 83336998273
    },
    {
      "x": 9.710074424743652,
      "y": -0.1866401731967926,
      "z": 0.6478567123413086,
      "time_usec": 83337000540
    },
    {
      "x": 9.705288887023926,
      "y": -0.19142581522464752,
      "z": 0.6526423692703247,
      "time_usec": 83337002795
    },
    {
      "x": 9.69093132019043,
      "y": -0.19142581522464752,
      "z": 0.6287141442298889,
      "time_usec": 83337005059
    },
    {
      "x": 9.671789169311523,
      "y": -0.23449662327766418,
      "z": 0.6047859191894531,
      "time_usec": 83337007317
    },
    {
      "x": 9.662816047668457,
      "y": -0.2392822653055191,
      "z": 0.5904290080070496,
      "time_usec": 83337009570
    },
    {
      "x": 9.64367389678955,
      "y": -0.24885354936122894,
      "z": 0.5377869009971619,
      "time_usec": 83337011824
    },
    {
      "x": 9.653244972229004,
      "y": -0.28235307335853577,
      "z": 0.5186443328857422,
      "time_usec": 83337014083
    },
    {
      "x": 9.653244972229004,
      "y": -0.27756741642951965,
      "z": 0.48514479398727417,
      "time_usec": 83337016341
    },
    {
      "x": 9.662816047668457,
      "y": -0.24885354936122894,
      "z": 0.494716078042984,
      "time_usec": 83337018598
    },
    {
      "x": 9.662816047668457,
      "y": -0.24945175647735596,
      "z": 0.48514479398727417,
      "time_usec": 83337020850
    },
    {
      "x": 9.691530227661133,
      "y": -0.21595224738121033,
      "z": 0.4995017349720001,
      "time_usec": 83337023109
    },
    {
      "x": 9.691530227661133,
      "y": -0.22552353143692017,
      "z": 0.5234299302101135,
      "time_usec": 83337025372
    },
    {
      "x": 9.719645500183105,
      "y": -0.2111666053533554,
      "z": 0.5617151260375977,
      "time_usec": 83337027629
    },
    {
      "x": 9.729216575622559,
      "y": -0.22073788940906525,
      "z": 0.5760720372200012,
      "time_usec": 83337029886
    },
    {
      "x": 9.738788604736328,
      "y": -0.20159530639648438,
      "z": 0.5856433510780334,
      "time_usec": 83337032142
    },
    {
      "x": 9.753145217895508,
      "y": -0.20159530639648438,
      "z": 0.5718846321105957,
      "time_usec": 83337034400
    },
    {
      "x": 9.77707290649414,
      "y": -0.19680966436862946,
      "z": 0.5814558863639832,
      "time_usec": 83337036659
    },
    {
      "x": 9.77707290649414,
      "y": -0.1824527233839035,
      "z": 0.5958128571510315,
      "time_usec": 83337038914
    },
    {
      "x": 9.809974670410156,
      "y": -0.19202402234077454,
      "z": 0.6245267391204834,
      "time_usec": 83337041165
    },
    {
      "x": 9.82373332977295,
      "y": -0.19680966436862946,
      "z": 0.6436693072319031,
      "time_usec": 83337043426
    },
    {
      "x": 9.871589660644531,
      "y": -0.18783657252788544,
      "z": 0.6628118753433228,
      "time_usec": 83337045687
    },
    {
      "x": 9.870991706848145,
      "y": -0.18783657252788544,
      "z": 0.7058826684951782,
      "time_usec": 83337047946
    },
    {
      "x": 9.870991706848145,
      "y": -0.19740787148475647,
      "z": 0.7010970115661621,
      "time_usec": 83337050201
    },
    {
      "x": 9.866206169128418,
      "y": -0.21176479756832123,
      "z": 0.6771687865257263,
      "time_usec": 83337052454
    },
    {
      "x": 9.866206169128418,
      "y": -0.24526432156562805,
      "z": 0.6963114142417908,
      "time_usec": 83337054717
    },
    {
      "x": 9.856635093688965,
      "y": -0.25004997849464417,
      "z": 0.7106683254241943,
      "time_usec": 83337056974
    },
    {
      "x": 9.832706451416016,
      "y": -0.27337998151779175,
      "z": 0.729810893535614,
      "time_usec": 83337059230
    },
    {
      "x": 9.870991706848145,
      "y": -0.25004997849464417,
      "z": 0.7202396392822266,
      "time_usec": 83337061479
    },
    {
      "x": 9.856635093688965,
      "y": -0.2835494875907898,
      "z": 0.729810893535614,
      "time_usec": 83337063751
    },
    {
      "x": 9.860821723937988,
      "y": -0.26440688967704773,
      "z": 0.7585247755050659,
      "time_usec": 83337066003
    },
    {
      "x": 9.846465110778809,
      "y": -0.2829512655735016,
      "z": 0.763310432434082,
      "time_usec": 83337068263
    },
    {
      "x": 9.841679573059082,
      "y": -0.29730820655822754,
      "z": 0.763310432434082,
      "time_usec": 83337070515
    },
    {
      "x": 9.827920913696289,
      "y": -0.3068794906139374,
      "z": 0.7585247755050659,
      "time_usec": 83337072771
    },
    {
      "x": 9.808777809143066,
      "y": -0.30209386348724365,
      "z": 0.7435696125030518,
      "time_usec": 83337075033
    },
    {
      "x": 9.799206733703613,
      "y": -0.2925225794315338,
      "z": 0.7483552694320679,
      "time_usec": 83337077291
    },
    {
      "x": 9.81356430053711,
      "y": -0.32602208852767944,
      "z": 0.7154539823532104,
      "time_usec": 83337079548
    },
    {
      "x": 9.78963565826416,
      "y": -0.3164508044719696,
      "z": 0.7004988193511963,
      "time_usec": 83337081800
    },
    {
      "x": 9.78544807434082,
      "y": -0.29730820655822754,
      "z": 0.7004988193511963,
      "time_usec": 83337084062
    },
    {
      "x": 9.780662536621094,
      "y": -0.2877369225025177,
      "z": 0.6861419081687927,
      "time_usec": 83337086320
    },
    {
      "x": 9.790233612060547,
      "y": -0.2590230405330658,
      "z": 0.6819544434547424,
      "time_usec": 83337088576
    },
    {
      "x": 9.790233612060547,
      "y": -0.24466611444950104,
      "z": 0.6909275650978088,
      "time_usec": 83337090822
    },
    {
      "x": 9.82373332977295,
      "y": -0.2111666053533554,
      "z": 0.6819544434547424,
      "time_usec": 83337093087
    },
    {
      "x": 9.790233612060547,
      "y": -0.2111666053533554,
      "z": 0.6861419081687927,
      "time_usec": 83337095350
    },
    {
      "x": 9.733404159545898,
      "y": -0.2063809484243393,
      "z": 0.6765705943107605,
      "time_usec": 83337097609
    },
    {
      "x": 10.023533821105957,
      "y": -0.10707881301641464,
      "z": 0.7022934556007385,
      "time_usec": 83337099860
    },
    {
      "x": 9.871589660644531,
      "y": -0.11605189740657806,
      "z": 0.6915257573127747,
      "time_usec": 83337102116
    },
    {
      "x": 9.814760208129883,
      "y": -0.11545369029045105,
      "z": 0.6819544434547424,
      "time_usec": 83337104379
    },
    {
      "x": 9.914660453796387,
      "y": -0.04426721855998039,
      "z": 0.6825526356697083,
      "time_usec": 83337106638
    },
    {
      "x": 9.881759643554688,
      "y": -0.02512463741004467,
      "z": 0.6628118753433228,
      "time_usec": 83337108893
    },
    {
      "x": 9.781859397888184,
      "y": -0.048454657196998596,
      "z": 0.6436693072319031,
      "time_usec": 83337111140
    },
    {
      "x": 9.78664493560791,
      "y": -0.03888336941599846,
      "z": 0.6340979933738708,
      "time_usec": 83337113406
    },
    {
      "x": 9.792028427124023,
      "y": -0.010169495828449726,
      "z": 0.6293123364448547,
      "time_usec": 83337115666
    },
    {
      "x": 9.772886276245117,
      "y": 0.01375873014330864,
      "z": 0.6526423692703247,
      "time_usec": 83337117926
    },
    {
      "x": 9.79681396484375,
      "y": 0.047258246690034866,
      "z": 0.6771687865257263,
      "time_usec": 83337120180
    },
    {
      "x": 9.829715728759766,
      "y": 0.07597211748361588,
      "z": 0.7058826684951782,
      "time_usec": 83337122432
    },
    {
      "x": 9.824930191040039,
      "y": 0.08554340898990631,
      "z": 0.6819544434547424,
      "time_usec": 83337124694
    },
    {
      "x": 9.806385040283203,
      "y": 0.09990034252405167,
      "z": 0.638883650302887,
      "time_usec": 83337126948
    },
    {
      "x": 9.792028427124023,
      "y": 0.10468599200248718,
      "z": 0.6340979933738708,
      "time_usec": 83337129195
    },
    {
      "x": 9.754341125488281,
      "y": 0.07597211748361588,
      "z": 0.5575276613235474,
      "time_usec": 83337131462
    },
    {
      "x": 9.707083702087402,
      "y": 0.07178468257188797,
      "z": 0.50907301902771,
      "time_usec": 83337133725
    },
    {
      "x": 9.664610862731934,
      "y": 0.04307080805301666,
      "z": 0.45643091201782227,
      "time_usec": 83337135985
    },
    {
      "x": 9.631709098815918,
      "y": 0.0526420995593071,
      "z": 0.45164528489112854,
      "time_usec": 83337138240
    },
    {
      "x": 9.593423843383789,
      "y": 0.06699903309345245,
      "z": 0.4420739710330963,
      "time_usec": 83337140493
    },
    {
      "x": 9.57906723022461,
      "y": 0.048454657196998596,
      "z": 0.4325026869773865,
      "time_usec": 83337142749
    },
    {
      "x": 9.565308570861816,
      "y": 0.03409772366285324,
      "z": 0.4175475537776947,
      "time_usec": 83337145011
    },
    {
      "x": 9.55513858795166,
      "y": 0.03409772366285324,
      "z": 0.45583271980285645,
      "time_usec": 83337147269
    },
    {
      "x": 9.522237777709961,
      "y": 0.029312077909708023,
      "z": 0.45104706287384033,
      "time_usec": 83337149527
    },
    {
      "x": 9.521639823913574,
      "y": -0.01375873014330864,
      "z": 0.48454657196998596,
      "time_usec": 83337151780
    },
    {
      "x": 9.479166984558105,
      "y": -0.01375873014330864,
      "z": 0.46061834692955017,
      "time_usec": 83337154041
    },
    {
      "x": 9.498309135437012,
      "y": -0.028115665540099144,
      "z": 0.4654040038585663,
      "time_usec": 83337156298
    },
    {
      "x": 9.492925643920898,
      "y": -0.052043892443180084,
      "z": 0.4941178858280182,
      "time_usec": 83337158557
    },
    {
      "x": 9.502496719360352,
      "y": -0.09990034252405167,
      "z": 0.4701896607875824,
      "time_usec": 83337160812
    },
    {
      "x": 9.511469841003418,
      "y": -0.12382857501506805,
      "z": 0.503689169883728,
      "time_usec": 83337163065
    },
    {
      "x": 9.525827407836914,
      "y": -0.12861421704292297,
      "z": 0.5228317379951477,
      "time_usec": 83337165328
    },
    {
      "x": 9.56351375579834,
      "y": -0.1333998590707779,
      "z": 0.537188708782196,
      "time_usec": 83337167584
    },
    {
      "x": 9.601799011230469,
      "y": -0.1339980661869049,
      "z": 0.537188708782196,
      "time_usec": 83337169839
    },
    {
      "x": 9.615557670593262,
      "y": -0.1818545162677765,
      "z": 0.5611169338226318,
      "time_usec": 83337172092
    },
    {
      "x": 9.653244972229004,
      "y": -0.2153540402650833,
      "z": 0.5712863802909851,
      "time_usec": 83337174344
    },
    {
      "x": 9.653244972229004,
      "y": -0.2153540402650833,
      "z": 0.5904290080070496,
      "time_usec": 83337176616
    },
    {
      "x": 9.67238712310791,
      "y": -0.19621145725250244,
      "z": 0.6191428303718567,
      "time_usec": 83337178873
    },
    {
      "x": 9.69093132019043,
      "y": -0.2153540402650833,
      "z": 0.6478567123413086,
      "time_usec": 83337181129
    },
    {
      "x": 9.710074424743652,
      "y": -0.18723836541175842,
      "z": 0.6526423692703247,
      "time_usec": 83337183381
    },
    {
      "x": 9.714859962463379,
      "y": -0.2063809484243393,
      "z": 0.6861419081687927,
      "time_usec": 83337185631
    },
    {
      "x": 9.714859962463379,
      "y": -0.20578274130821228,
      "z": 0.6957131624221802,
      "time_usec": 83337187901
    },
    {
      "x": 9.719047546386719,
      "y": -0.20099709928035736,
      "z": 0.7148557901382446,
      "time_usec": 83337190150
    },
    {
      "x": 9.728618621826172,
      "y": -0.20159530639648438,
      "z": 0.7244270443916321,
      "time_usec": 83337192415
    },
    {
      "x": 9.733404159545898,
      "y": -0.22552353143692017,
      "z": 0.753140926361084,
      "time_usec": 83337194674
    },
    {
      "x": 9.747162818908691,
      "y": -0.22013968229293823,
      "z": 0.8009973764419556,
      "time_usec": 83337196933
    },
    {
      "x": 9.747162818908691,
      "y": -0.22013968229293823,
      "z": 0.8009973764419556,
      "time_usec": 83337199188
    },
    {
      "x": 9.766305923461914,
      "y": -0.2111666053533554,
      "z": 0.8249256014823914,
      "time_usec": 83337201441
    },
    {
      "x": 9.761520385742188,
      "y": -0.21595224738121033,
      "z": 0.8105686902999878,
      "time_usec": 83337203704
    },
    {
      "x": 9.766305923461914,
      "y": -0.21595224738121033,
      "z": 0.8153542876243591,
      "time_usec": 83337205962
    },
    {
      "x": 9.784850120544434,
      "y": -0.22073788940906525,
      "z": 0.8344969153404236,
      "time_usec": 83337208219
    },
    {
      "x": 9.784850120544434,
      "y": -0.22073788940906525,
      "z": 0.8488538265228271,
      "time_usec": 83337210474
    },
    {
      "x": 9.77527904510498,
      "y": -0.22552353143692017,
      "z": 0.8488538265228271,
      "time_usec": 83337212727
    },
    {
      "x": 9.78963565826416,
      "y": -0.2111666053533554,
      "z": 0.8536394834518433,
      "time_usec": 83337214990
    },
    {
      "x": 9.80399227142334,
      "y": -0.1824527233839035,
      "z": 0.8823533654212952,
      "time_usec": 83337217245
    },
    {
      "x": 9.818349838256836,
      "y": -0.1537388563156128,
      "z": 0.8919246196746826,
      "time_usec": 83337219494
    },
    {
      "x": 9.837491989135742,
      "y": -0.14416755735874176,
      "z": 0.8871390223503113,
      "time_usec": 83337221754
    },
    {
      "x": 9.837491989135742,
      "y": -0.11545369029045105,
      "z": 0.8632107973098755,
      "time_usec": 83337224021
    },
    {
      "x": 9.828518867492676,
      "y": -0.10588239878416061,
      "z": 0.8344969153404236,
      "time_usec": 83337226280
    },
    {
      "x": 9.7998046875,
      "y": -0.10588239878416061,
      "z": 0.8057830333709717,
      "time_usec": 83337228536
    },
    {
      "x": 9.800403594970703,
      "y": -0.08195417374372482,
      "z": 0.7914260625839233,
      "time_usec": 83337230790
    },
    {
      "x": 9.838089942932129,
      "y": -0.0771685317158699,
      "z": 0.7968099117279053,
      "time_usec": 83337233044
    },
    {
      "x": 9.762716293334961,
      "y": -0.03349951654672623,
      "z": 0.7627122402191162,
      "time_usec": 83337235307
    },
    {
      "x": 9.824331283569336,
      "y": -0.010169495828449726,
      "z": 0.7680960893630981,
      "time_usec": 83337237565
    },
    {
      "x": 9.862616539001465,
      "y": -0.005383851006627083,
      "z": 0.7489534616470337,
      "time_usec": 83337239826
    },
    {
      "x": 9.814760208129883,
      "y": 0.008973085321485996,
      "z": 0.7585247755050659,
      "time_usec": 83337242074
    },
    {
      "x": 9.814760208129883,
      "y": -0.005383851006627083,
      "z": 0.7674978375434875,
      "time_usec": 83337244334
    },
    {
      "x": 9.838688850402832,
      "y": -0.005383851006627083,
      "z": 0.763310432434082,
      "time_usec": 83337246584
    },
    {
      "x": 9.809974670410156,
      "y": -0.005383851006627083,
      "z": 0.7579265832901001,
      "time_usec": 83337248846
    },
    {
      "x": 9.77707290649414,
      "y": -0.005383851006627083,
      "z": 0.7483552694320679,
      "time_usec": 83337251102
    },
    {
      "x": 9.757930755615234,
      "y": -0.029312077909708023,
      "z": 0.7244270443916321,
      "time_usec": 83337253363
    },
    {
      "x": 9.748359680175781,
      "y": -0.053240302950143814,
      "z": 0.7148557901382446,
      "time_usec": 83337255624
    },
    {
      "x": 9.738788604736328,
      "y": -0.04785645380616188,
      "z": 0.7100701332092285,
      "time_usec": 83337257884
    },
    {
      "x": 9.710672378540039,
      "y": -0.062213387340307236,
      "z": 0.7052844762802124,
      "time_usec": 83337260146
    },
    {
      "x": 9.681958198547363,
      "y": -0.07178468257188797,
      "z": 0.6957131624221802,
      "time_usec": 83337262390
    },
    {
      "x": 9.686744689941406,
      "y": -0.07178468257188797,
      "z": 0.7100701332092285,
      "time_usec": 83337264653
    },
    {
      "x": 9.686744689941406,
      "y": -0.07657032459974289,
      "z": 0.7244270443916321,
      "time_usec": 83337266907
    },
    {
      "x": 9.65803050994873,
      "y": -0.09571290761232376,
      "z": 0.7190431952476501,
      "time_usec": 83337269165
    },
    {
      "x": 9.653244972229004,
      "y": -0.09092725813388824,
      "z": 0.7381857633590698,
      "time_usec": 83337271419
    },
    {
      "x": 9.638887405395508,
      "y": -0.1052841991186142,
      "z": 0.7381857633590698,
      "time_usec": 83337273682
    },
    {
      "x": 9.634101867675781,
      "y": -0.10468599200248718,
      "z": 0.7429714202880859,
      "time_usec": 83337275941
    },
    {
      "x": 9.610174179077148,
      "y": -0.1094716340303421,
      "z": 0.7573283910751343,
      "time_usec": 83337278196
    },
    {
      "x": 9.624530792236328,
      "y": -0.09511470049619675,
      "z": 0.7334001660346985,
      "time_usec": 83337280438
    },
    {
      "x": 9.634101867675781,
      "y": -0.09511470049619675,
      "z": 0.7525427341461182,
      "time_usec": 83337282698
    },
    {
      "x": 9.662816047668457,
      "y": -0.07178468257188797,
      "z": 0.747757077217102,
      "time_usec": 83337284969
    },
    {
      "x": 9.65803050994873,
      "y": -0.07178468257188797,
      "z": 0.7621139883995056,
      "time_usec": 83337287226
    },
    {
      "x": 9.681958198547363,
      "y": -0.08614161610603333,
      "z": 0.7381857633590698,
      "time_usec": 83337289473
    },
    {
      "x": 9.686744689941406,
      "y": -0.08614161610603333,
      "z": 0.7100701332092285,
      "time_usec": 83337291732
    },
    {
      "x": 9.710672378540039,
      "y": -0.09092725813388824,
      "z": 0.7100701332092285,
      "time_usec": 83337293986
    },
    {
      "x": 9.738788604736328,
      "y": -0.07178468257188797,
      "z": 0.7052844762802124,
      "time_usec": 83337296257
    },
    {
      "x": 9.757930755615234,
      "y": -0.09152546525001526,
      "z": 0.7148557901382446,
      "time_usec": 83337298501
    },
    {
      "x": 9.79083251953125,
      "y": -0.07238288223743439,
      "z": 0.7244270443916321,
      "time_usec": 83337300766
    },
    {
      "x": 9.81954574584961,
      "y": -0.04366901144385338,
      "z": 0.7058826684951782,
      "time_usec": 83337303020
    },
    {
      "x": 9.833903312683105,
      "y": -0.048454657196998596,
      "z": 0.729810893535614,
      "time_usec": 83337305273
    },
    {
      "x": 9.848259925842285,
      "y": -0.053240302950143814,
      "z": 0.7489534616470337,
      "time_usec": 83337307528
    },
    {
      "x": 9.862018585205078,
      "y": -0.04366901144385338,
      "z": 0.7824530005455017,
      "time_usec": 83337309788
    },
    {
      "x": 9.876375198364258,
      "y": -0.039481572806835175,
      "z": 0.7585247755050659,
      "time_usec": 83337312053
    },
    {
      "x": 9.890732765197754,
      "y": -0.04905286431312561,
      "z": 0.729810893535614,
      "time_usec": 83337314304
    },
    {
      "x": 9.867402076721191,
      "y": -0.04366901144385338,
      "z": 0.7393822073936462,
      "time_usec": 83337316559
    },
    {
      "x": 9.862018585205078,
      "y": -0.0771685317158699,
      "z": 0.7537391185760498,
      "time_usec": 83337318815
    },
    {
      "x": 9.852447509765625,
      "y": -0.08673982322216034,
      "z": 0.7968099117279053,
      "time_usec": 83337321075
    },
    {
      "x": 9.847661972045898,
      "y": -0.08673982322216034,
      "z": 0.8063812255859375,
      "time_usec": 83337323340
    },
    {
      "x": 9.838089942932129,
      "y": -0.10588239878416061,
      "z": 0.8255237936973572,
      "time_usec": 83337325592
    },
    {
      "x": 9.80937671661377,
      "y": -0.10588239878416061,
      "z": 0.8632107973098755,
      "time_usec": 83337327857
    },
    {
      "x": 9.804591178894043,
      "y": -0.13459627330303192,
      "z": 0.8536394834518433,
      "time_usec": 83337330102
    },
    {
      "x": 9.78544807434082,
      "y": -0.11545369029045105,
      "z": 0.8584251403808594,
      "time_usec": 83337332365
    },
    {
      "x": 9.756733894348145,
      "y": -0.14356936514377594,
      "z": 0.8488538265228271,
      "time_usec": 83337334632
    },
    {
      "x": 9.737591743469238,
      "y": -0.16749759018421173,
      "z": 0.8392825126647949,
      "time_usec": 83337336891
    },
    {
      "x": 9.709476470947266,
      "y": -0.1818545162677765,
      "z": 0.8291130661964417,
      "time_usec": 83337339146
    },
    {
      "x": 9.690333366394043,
      "y": -0.19621145725250244,
      "z": 0.8291130661964417,
      "time_usec": 83337341399
    },
    {
      "x": 9.690333366394043,
      "y": -0.17706887423992157,
      "z": 0.7908278703689575,
      "time_usec": 83337343661
    },
    {
      "x": 9.681360244750977,
      "y": -0.19142581522464752,
      "z": 0.776470959186554,
      "time_usec": 83337345902
    },
    {
      "x": 9.671789169311523,
      "y": -0.20578274130821228,
      "z": 0.7668996453285217,
      "time_usec": 83337348161
    },
    {
      "x": 9.671789169311523,
      "y": -0.20099709928035736,
      "z": 0.776470959186554,
      "time_usec": 83337350418
    },
    {
      "x": 9.68076229095459,
      "y": -0.19142581522464752,
      "z": 0.7956135272979736,
      "time_usec": 83337352686
    },
    {
      "x": 9.671789169311523,
      "y": -0.1818545162677765,
      "z": 0.8003991842269897,
      "time_usec": 83337354947
    },
    {
      "x": 9.66221809387207,
      "y": -0.1866401731967926,
      "z": 0.7716853022575378,
      "time_usec": 83337357196
    },
    {
      "x": 9.652647018432617,
      "y": -0.19142581522464752,
      "z": 0.7668996453285217,
      "time_usec": 83337359467
    },
    {
      "x": 9.652647018432617,
      "y": -0.2105683982372284,
      "z": 0.7716853022575378,
      "time_usec": 83337361715
    },
    {
      "x": 9.638289451599121,
      "y": -0.19142581522464752,
      "z": 0.747757077217102,
      "time_usec": 83337363977
    },
    {
      "x": 9.633503913879395,
      "y": -0.19621145725250244,
      "z": 0.7429714202880859,
      "time_usec": 83337366218
    },
    {
      "x": 9.624530792236328,
      "y": -0.19142581522464752,
      "z": 0.7046862840652466,
      "time_usec": 83337368481
    },
    {
      "x": 9.629316329956055,
      "y": -0.20578274130821228,
      "z": 0.6855437159538269,
      "time_usec": 83337370735
    },
    {
      "x": 9.624530792236328,
      "y": -0.19142581522464752,
      "z": 0.6711867451667786,
      "time_usec": 83337373005
    },
    {
      "x": 9.653244972229004,
      "y": -0.20578274130821228,
      "z": 0.6759724020957947,
      "time_usec": 83337375266
    },
    {
      "x": 9.662816047668457,
      "y": -0.19142581522464752,
      "z": 0.6759724020957947,
      "time_usec": 83337377524
    },
    {
      "x": 9.671789169311523,
      "y": -0.20578274130821228,
      "z": 0.6717849373817444,
      "time_usec": 83337379778
    },
    {
      "x": 9.671789169311523,
      "y": -0.19621145725250244,
      "z": 0.6717849373817444,
      "time_usec": 83337382031
    },
    {
      "x": 9.681360244750977,
      "y": -0.2105683982372284,
      "z": 0.6957131624221802,
      "time_usec": 83337384295
    },
    {
      "x": 9.67657470703125,
      "y": -0.22971096634864807,
      "z": 0.6909275650978088,
      "time_usec": 83337386552
    },
    {
      "x": 9.667003631591797,
      "y": -0.24406790733337402,
      "z": 0.7046862840652466,
      "time_usec": 83337388808
    },
    {
      "x": 9.657432556152344,
      "y": -0.27756741642951965,
      "z": 0.7046862840652466,
      "time_usec": 83337391059
    },
    {
      "x": 9.66221809387207,
      "y": -0.2967100143432617,
      "z": 0.7046862840652466,
      "time_usec": 83337393318
    },
    {
      "x": 9.657432556152344,
      "y": -0.31106695532798767,
      "z": 0.6999006271362305,
      "time_usec": 83337395578
    },
    {
      "x": 9.652048110961914,
      "y": -0.3158525824546814,
      "z": 0.714257538318634,
      "time_usec": 83337397828
    },
    {
      "x": 9.652048110961914,
      "y": -0.3158525824546814,
      "z": 0.7094719409942627,
      "time_usec": 83337400093
    },
    {
      "x": 9.68076229095459,
      "y": -0.33080771565437317,
      "z": 0.6813562512397766,
      "time_usec": 83337402340
    },
    {
      "x": 9.68076229095459,
      "y": -0.3164508044719696,
      "z": 0.666999340057373,
      "time_usec": 83337404615
    },
    {
      "x": 9.690333366394043,
      "y": -0.32602208852767944,
      "z": 0.6957131624221802,
      "time_usec": 83337406873
    },
    {
      "x": 9.733404159545898,
      "y": -0.3164508044719696,
      "z": 0.6909275650978088,
      "time_usec": 83337409126
    },
    {
      "x": 9.766305923461914,
      "y": -0.29730820655822754,
      "z": 0.719641387462616,
      "time_usec": 83337411376
    },
    {
      "x": 9.775876998901367,
      "y": -0.27337998151779175,
      "z": 0.719641387462616,
      "time_usec": 83337413638
    },
    {
      "x": 9.780662536621094,
      "y": -0.24945175647735596,
      "z": 0.7292127013206482,
      "time_usec": 83337415896
    },
    {
      "x": 9.795019149780273,
      "y": -0.21595224738121033,
      "z": 0.7627122402191162,
      "time_usec": 83337418151
    },
    {
      "x": 9.795019149780273,
      "y": -0.19680966436862946,
      "z": 0.7674978375434875,
      "time_usec": 83337420406
    },
    {
      "x": 9.7998046875,
      "y": -0.19202402234077454,
      "z": 0.7483552694320679,
      "time_usec": 83337422665
    },
    {
      "x": 9.79083251953125,
      "y": -0.17288143932819366,
      "z": 0.7148557901382446,
      "time_usec": 83337424928
    },
    {
      "x": 9.78126049041748,
      "y": -0.17288143932819366,
      "z": 0.672383189201355,
      "time_usec": 83337427185
    },
    {
      "x": 9.78126049041748,
      "y": -0.17288143932819366,
      "z": 0.6580262184143066,
      "time_usec": 83337429441
    },
    {
      "x": 9.748359680175781,
      "y": -0.16809579730033875,
      "z": 0.6574280261993408,
      "time_usec": 83337431693
    },
    {
      "x": 9.734002113342285,
      "y": -0.19680966436862946,
      "z": 0.666999340057373,
      "time_usec": 83337433956
    },
    {
      "x": 9.733404159545898,
      "y": -0.17766708135604858,
      "z": 0.7148557901382446,
      "time_usec": 83337436212
    },
    {
      "x": 9.728618621826172,
      "y": -0.20159530639648438,
      "z": 0.7435696125030518,
      "time_usec": 83337438468
    },
    {
      "x": 9.728618621826172,
      "y": -0.19621145725250244,
      "z": 0.753140926361084,
      "time_usec": 83337440727
    },
    {
      "x": 9.709476470947266,
      "y": -0.19142581522464752,
      "z": 0.7674978375434875,
      "time_usec": 83337442980
    },
    {
      "x": 9.699904441833496,
      "y": -0.2105683982372284,
      "z": 0.753140926361084,
      "time_usec": 83337445244
    },
    {
      "x": 9.699904441833496,
      "y": -0.24406790733337402,
      "z": 0.7244270443916321,
      "time_usec": 83337447499
    },
    {
      "x": 9.699904441833496,
      "y": -0.2632105052471161,
      "z": 0.7052844762802124,
      "time_usec": 83337449757
    },
    {
      "x": 9.695717811584473,
      "y": -0.27337998151779175,
      "z": 0.666999340057373,
      "time_usec": 83337452010
    },
    {
      "x": 9.686145782470703,
      "y": -0.30209386348724365,
      "z": 0.6143572330474854,
      "time_usec": 83337454272
    },
    {
      "x": 9.67657470703125,
      "y": -0.32602208852767944,
      "z": 0.5952146053314209,
      "time_usec": 83337456530
    },
    {
      "x": 9.66221809387207,
      "y": -0.33080771565437317,
      "z": 0.5760720372200012,
      "time_usec": 83337458788
    },
    {
      "x": 9.65803050994873,
      "y": -0.34995031356811523,
      "z": 0.5282155871391296,
      "time_usec": 83337461038
    },
    {
      "x": 9.671789169311523,
      "y": -0.3595215976238251,
      "z": 0.50907301902771,
      "time_usec": 83337463296
    },
    {
      "x": 9.65803050994873,
      "y": -0.32123643159866333,
      "z": 0.50907301902771,
      "time_usec": 83337465559
    },
    {
      "x": 9.65803050994873,
      "y": -0.3451646566390991,
      "z": 0.4995017349720001,
      "time_usec": 83337467818
    },
    {
      "x": 9.662816047668457,
      "y": -0.32602208852767944,
      "z": 0.5186443328857422,
      "time_usec": 83337470075
    },
    {
      "x": 9.634101867675781,
      "y": -0.33020952343940735,
      "z": 0.542572557926178,
      "time_usec": 83337472326
    },
    {
      "x": 9.619745254516602,
      "y": -0.32542386651039124,
      "z": 0.5330012440681458,
      "time_usec": 83337474587
    },
    {
      "x": 9.65803050994873,
      "y": -0.32123643159866333,
      "z": 0.50907301902771,
      "time_usec": 83337476842
    },
    {
      "x": 9.65384292602539,
      "y": -0.2925225794315338,
      "z": 0.4468596279621124,
      "time_usec": 83337479103
    },
    {
      "x": 9.677172660827637,
      "y": -0.27816563844680786,
      "z": 0.45643091201782227,
      "time_usec": 83337481353
    },
    {
      "x": 9.65803050994873,
      "y": -0.268594354391098,
      "z": 0.50907301902771,
      "time_usec": 83337483611
    },
    {
      "x": 9.64367389678955,
      "y": -0.27756741642951965,
      "z": 0.5712863802909851,
      "time_usec": 83337485876
    },
    {
      "x": 9.600603103637695,
      "y": -0.28235307335853577,
      "z": 0.6329016089439392,
      "time_usec": 83337488138
    },
    {
      "x": 9.595816612243652,
      "y": -0.2967100143432617,
      "z": 0.623330295085907,
      "time_usec": 83337490391
    },
    {
      "x": 9.600603103637695,
      "y": -0.2632105052471161,
      "z": 0.6089733839035034,
      "time_usec": 83337492643
    },
    {
      "x": 9.614959716796875,
      "y": -0.2679961323738098,
      "z": 0.5802595019340515,
      "time_usec": 83337494902
    },
    {
      "x": 9.614959716796875,
      "y": -0.2584248483181,
      "z": 0.5802595019340515,
      "time_usec": 83337497150
    },
    {
      "x": 9.681958198547363,
      "y": -0.268594354391098,
      "z": 0.5760720372200012,
      "time_usec": 83337499419
    },
    {
      "x": 9.681958198547363,
      "y": -0.24466611444950104,
      "z": 0.5856433510780334,
      "time_usec": 83337501671
    },
    {
      "x": 9.710074424743652,
      "y": -0.25423741340637207,
      "z": 0.5712863802909851,
      "time_usec": 83337503933
    },
    {
      "x": 9.743574142456055,
      "y": -0.22552353143692017,
      "z": 0.5808576941490173,
      "time_usec": 83337506192
    },
    {
      "x": 9.762716293334961,
      "y": -0.22073788940906525,
      "z": 0.5814558863639832,
      "time_usec": 83337508450
    },
    {
      "x": 9.800403594970703,
      "y": -0.22133609652519226,
      "z": 0.6149554252624512,
      "time_usec": 83337510707
    },
    {
      "x": 9.833304405212402,
      "y": -0.21176479756832123,
      "z": 0.6580262184143066,
      "time_usec": 83337512960
    },
    {
      "x": 9.866804122924805,
      "y": -0.21176479756832123,
      "z": 0.6915257573127747,
      "time_usec": 83337515221
    },
    {
      "x": 9.885348320007324,
      "y": -0.21655045449733734,
      "z": 0.7250252366065979,
      "time_usec": 83337517477
    },
    {
      "x": 9.927821159362793,
      "y": -0.22133609652519226,
      "z": 0.7591229677200317,
      "time_usec": 83337519730
    },
    {
      "x": 9.951150894165039,
      "y": -0.2356930375099182,
      "z": 0.7926225066184998,
      "time_usec": 83337521989
    },
    {
      "x": 9.984650611877441,
      "y": -0.25064817070961,
      "z": 0.7974081635475159,
      "time_usec": 83337524251
    },
    {
      "x": 9.984650611877441,
      "y": -0.29371899366378784,
      "z": 0.7734799385070801,
      "time_usec": 83337526510
    },
    {
      "x": 9.984052658081055,
      "y": -0.29850462079048157,
      "z": 0.7974081635475159,
      "time_usec": 83337528766
    },
    {
      "x": 10.003194808959961,
      "y": -0.32721850275993347,
      "z": 0.8165507316589355,
      "time_usec": 83337531018
    },
    {
      "x": 10.03131103515625,
      "y": -0.32243284583091736,
      "z": 0.8404789566993713,
      "time_usec": 83337533276
    },
    {
      "x": 10.016953468322754,
      "y": -0.3367897868156433,
      "z": 0.8835497498512268,
      "time_usec": 83337535538
    },
    {
      "x": 10.03549861907959,
      "y": -0.34636107087135315,
      "z": 0.9170492887496948,
      "time_usec": 83337537796
    },
    {
      "x": 10.03549861907959,
      "y": -0.355932354927063,
      "z": 0.9505487680435181,
      "time_usec": 83337540052
    },
    {
      "x": 10.021141052246094,
      "y": -0.3607180118560791,
      "z": 0.97926265001297,
      "time_usec": 83337542306
    },
    {
      "x": 10.034899711608887,
      "y": -0.389431893825531,
      "z": 1.012762188911438,
      "time_usec": 83337544568
    },
    {
      "x": 10.03011417388916,
      "y": -0.4085744619369507,
      "z": 1.0360921621322632,
      "time_usec": 83337546830
    },
    {
      "x": 10.05404281616211,
      "y": -0.39900317788124084,
      "z": 1.0510473251342773,
      "time_usec": 83337549083
    },
    {
      "x": 10.05404281616211,
      "y": -0.39421752095222473,
      "z": 1.0654042959213257,
      "time_usec": 83337551334
    },
    {
      "x": 10.063613891601562,
      "y": -0.4133601188659668,
      "z": 1.036690354347229,
      "time_usec": 83337553594
    },
    {
      "x": 10.077372550964355,
      "y": -0.42771705985069275,
      "z": 1.036690354347229,
      "time_usec": 83337555848
    },
    {
      "x": 10.063613891601562,
      "y": -0.4181457459926605,
      "z": 1.0079765319824219,
      "time_usec": 83337558113
    },
    {
      "x": 10.05404281616211,
      "y": -0.4372883439064026,
      "z": 0.9601200819015503,
      "time_usec": 83337560367
    },
    {
      "x": 10.058828353881836,
      "y": -0.4420739710330963,
      "z": 0.9361918568611145,
      "time_usec": 83337562623
    },
    {
      "x": 10.058828353881836,
      "y": -0.4420739710330963,
      "z": 0.9074779748916626,
      "time_usec": 83337564884
    },
    {
      "x": 10.059426307678223,
      "y": -0.42293140292167664,
      "z": 0.893121063709259,
      "time_usec": 83337567144
    },
    {
      "x": 10.03549861907959,
      "y": -0.39421752095222473,
      "z": 0.8739784955978394,
      "time_usec": 83337569398
    },
    {
      "x": 10.026525497436523,
      "y": -0.4181457459926605,
      "z": 0.8548358678817749,
      "time_usec": 83337571651
    },
    {
      "x": 10.03549861907959,
      "y": -0.4181457459926605,
      "z": 0.859621524810791,
      "time_usec": 83337573911
    },
    {
      "x": 9.993025779724121,
      "y": -0.4181457459926605,
      "z": 0.8787640929222107,
      "time_usec": 83337576164
    },
    {
      "x": 9.983454704284668,
      "y": -0.4133601188659668,
      "z": 0.8835497498512268,
      "time_usec": 83337578429
    },
    {
      "x": 9.964311599731445,
      "y": -0.40378883481025696,
      "z": 0.882951557636261,
      "time_usec": 83337580684
    },
    {
      "x": 9.912267684936523,
      "y": -0.4223332107067108,
      "z": 0.8781659007072449,
      "time_usec": 83337582940
    },
    {
      "x": 9.907482147216797,
      "y": -0.4366901218891144,
      "z": 0.882951557636261,
      "time_usec": 83337585201
    },
    {
      "x": 9.878767967224121,
      "y": -0.4462614357471466,
      "z": 0.8925228714942932,
      "time_usec": 83337587457
    },
    {
      "x": 9.850054740905762,
      "y": -0.45104706287384033,
      "z": 0.8919246196746826,
      "time_usec": 83337589715
    },
    {
      "x": 9.817152976989746,
      "y": -0.4456632137298584,
      "z": 0.8679963946342468,
      "time_usec": 83337591967
    },
    {
      "x": 9.81236743927002,
      "y": -0.4504488706588745,
      "z": 0.8536394834518433,
      "time_usec": 83337594230
    },
    {
      "x": 9.78843879699707,
      "y": -0.46002015471458435,
      "z": 0.8392825126647949,
      "time_usec": 83337596487
    },
    {
      "x": 9.76989459991455,
      "y": -0.43130627274513245,
      "z": 0.8392825126647949,
      "time_usec": 83337598746
    },
    {
      "x": 9.76989459991455,
      "y": -0.4265206456184387,
      "z": 0.8057830333709717,
      "time_usec": 83337601000
    },
    {
      "x": 9.765109062194824,
      "y": -0.41216370463371277,
      "z": 0.7962117195129395,
      "time_usec": 83337603255
    },
    {
      "x": 9.760921478271484,
      "y": -0.3978067636489868,
      "z": 0.7770691514015198,
      "time_usec": 83337605517
    },
    {
      "x": 9.732806205749512,
      "y": -0.37866419553756714,
      "z": 0.7579265832901001,
      "time_usec": 83337607774
    },
    {
      "x": 9.737591743469238,
      "y": -0.3595215976238251,
      "z": 0.7339983582496643,
      "time_usec": 83337610031
    },
    {
      "x": 9.766305923461914,
      "y": -0.3403790295124054,
      "z": 0.719641387462616,
      "time_usec": 83337612283
    },
    {
      "x": 9.737591743469238,
      "y": -0.33080771565437317,
      "z": 0.7674978375434875,
      "time_usec": 83337614547
    },
    {
      "x": 9.723235130310059,
      "y": -0.3116651475429535,
      "z": 0.7579265832901001,
      "time_usec": 83337616805
    },
    {
      "x": 9.718449592590332,
      "y": -0.30209386348724365,
      "z": 0.786640465259552,
      "time_usec": 83337619066
    },
    {
      "x": 9.723235130310059,
      "y": -0.30209386348724365,
      "z": 0.7722834944725037,
      "time_usec": 83337621313
    },
    {
      "x": 9.728020668029785,
      "y": -0.2829512655735016,
      "z": 0.7674978375434875,
      "time_usec": 83337623574
    },
    {
      "x": 9.723833084106445,
      "y": -0.25423741340637207,
      "z": 0.7579265832901001,
      "time_usec": 83337625828
    },
    {
      "x": 9.738189697265625,
      "y": -0.24945175647735596,
      "z": 0.7339983582496643,
      "time_usec": 83337628092
    },
    {
      "x": 9.757332801818848,
      "y": -0.2350948303937912,
      "z": 0.7244270443916321,
      "time_usec": 83337630346
    },
    {
      "x": 9.761520385742188,
      "y": -0.24945175647735596,
      "z": 0.7292127013206482,
      "time_usec": 83337632600
    },
    {
      "x": 9.762118339538574,
      "y": -0.24466611444950104,
      "z": 0.7292127013206482,
      "time_usec": 83337634858
    },
    {
      "x": 9.761520385742188,
      "y": -0.25423741340637207,
      "z": 0.7244270443916321,
      "time_usec": 83337637120
    },
    {
      "x": 9.762118339538574,
      "y": -0.2350948303937912,
      "z": 0.7244270443916321,
      "time_usec": 83337639378
    },
    {
      "x": 9.77109146118164,
      "y": -0.2350948303937912,
      "z": 0.7339983582496643,
      "time_usec": 83337641628
    },
    {
      "x": 9.780662536621094,
      "y": -0.2350948303937912,
      "z": 0.7148557901382446,
      "time_usec": 83337643876
    },
    {
      "x": 9.780662536621094,
      "y": -0.2350948303937912,
      "z": 0.7292127013206482,
      "time_usec": 83337646133
    },
    {
      "x": 9.757332801818848,
      "y": -0.24945175647735596,
      "z": 0.7244270443916321,
      "time_usec": 83337648395
    },
    {
      "x": 9.738189697265625,
      "y": -0.27816563844680786,
      "z": 0.7244270443916321,
      "time_usec": 83337650666
    },
    {
      "x": 9.728618621826172,
      "y": -0.27337998151779175,
      "z": 0.6909275650978088,
      "time_usec": 83337652916
    },
    {
      "x": 9.723833084106445,
      "y": -0.27337998151779175,
      "z": 0.7004988193511963,
      "time_usec": 83337655166
    },
    {
      "x": 9.723833084106445,
      "y": -0.2590230405330658,
      "z": 0.7435696125030518,
      "time_usec": 83337657424
    },
    {
      "x": 9.728020668029785,
      "y": -0.2590230405330658,
      "z": 0.7818548083305359,
      "time_usec": 83337659694
    },
    {
      "x": 9.732806205749512,
      "y": -0.23988047242164612,
      "z": 0.8009973764419556,
      "time_usec": 83337661949
    },
    {
      "x": 9.751948356628418,
      "y": -0.24466611444950104,
      "z": 0.7962117195129395,
      "time_usec": 83337664211
    },
    {
      "x": 9.714262008666992,
      "y": -0.2392822653055191,
      "z": 0.786640465259552,
      "time_usec": 83337666465
    },
    {
      "x": 9.699904441833496,
      "y": -0.22492532432079315,
      "z": 0.753140926361084,
      "time_usec": 83337668724
    },
    {
      "x": 9.7005033493042,
      "y": -0.20578274130821228,
      "z": 0.7052844762802124,
      "time_usec": 83337670980
    },
    {
      "x": 9.667003631591797,
      "y": -0.23449662327766418,
      "z": 0.666999340057373,
      "time_usec": 83337673234
    },
    {
      "x": 9.66221809387207,
      "y": -0.24885354936122894,
      "z": 0.666999340057373,
      "time_usec": 83337675496
    },
    {
      "x": 9.653244972229004,
      "y": -0.22492532432079315,
      "z": 0.600000262260437,
      "time_usec": 83337677753
    },
    {
      "x": 9.624530792236328,
      "y": -0.2153540402650833,
      "z": 0.6329016089439392,
      "time_usec": 83337680009
    },
    {
      "x": 9.610772132873535,
      "y": -0.19621145725250244,
      "z": 0.6329016089439392,
      "time_usec": 83337682260
    },
    {
      "x": 9.591629981994629,
      "y": -0.20099709928035736,
      "z": 0.6376872062683105,
      "time_usec": 83337684513
    },
    {
      "x": 9.586843490600586,
      "y": -0.16271193325519562,
      "z": 0.6376872062683105,
      "time_usec": 83337686771
    },
    {
      "x": 9.605986595153809,
      "y": -0.1339980661869049,
      "z": 0.6376872062683105,
      "time_usec": 83337689040
    },
    {
      "x": 9.605986595153809,
      "y": -0.1339980661869049,
      "z": 0.6089733839035034,
      "time_usec": 83337691293
    },
    {
      "x": 9.615557670593262,
      "y": -0.12442677468061447,
      "z": 0.5994020700454712,
      "time_usec": 83337693553
    },
    {
      "x": 9.606584548950195,
      "y": -0.10049854964017868,
      "z": 0.6041877269744873,
      "time_usec": 83337695812
    },
    {
      "x": 9.611370086669922,
      "y": -0.09571290761232376,
      "z": 0.5946164131164551,
      "time_usec": 83337698070
    },
    {
      "x": 9.620942115783691,
      "y": -0.09571290761232376,
      "z": 0.5946164131164551,
      "time_usec": 83337700326
    },
    {
      "x": 9.64965534210205,
      "y": -0.08614161610603333,
      "z": 0.5760720372200012,
      "time_usec": 83337702577
    },
    {
      "x": 9.663414001464844,
      "y": -0.07657032459974289,
      "z": 0.5808576941490173,
      "time_usec": 83337704837
    },
    {
      "x": 9.64965534210205,
      "y": -0.10049854964017868,
      "z": 0.542572557926178,
      "time_usec": 83337707099
    },
    {
      "x": 9.65384292602539,
      "y": -0.12921242415905,
      "z": 0.5473581552505493,
      "time_usec": 83337709356
    },
    {
      "x": 9.658628463745117,
      "y": -0.12921242415905,
      "z": 0.5234299302101135,
      "time_usec": 83337711611
    },
    {
      "x": 9.687342643737793,
      "y": -0.14416755735874176,
      "z": 0.5186443328857422,
      "time_usec": 83337713874
    },
    {
      "x": 9.682557106018066,
      "y": -0.16809579730033875,
      "z": 0.5138586759567261,
      "time_usec": 83337716128
    },
    {
      "x": 9.682557106018066,
      "y": -0.16331014037132263,
      "z": 0.5330012440681458,
      "time_usec": 83337718380
    },
    {
      "x": 9.701101303100586,
      "y": -0.17766708135604858,
      "z": 0.5377869009971619,
      "time_usec": 83337720628
    },
    {
      "x": 9.705886840820312,
      "y": -0.19202402234077454,
      "z": 0.5617151260375977,
