{
  "accelerations": [
    {
      "x": 9.647262573242188,
      "y": 0.14117653667926788,
      "z": 0.8368897438049316,
      "time_usec": 51314596956
    },
    {
      "x": 9.637691497802734,
      "y": 0.14117653667926788,
      "z": 0.8368897438049316,
      "time_usec": 51314599213
    },
    {
      "x": 9.652048110961914,
      "y": 0.12143574655056,
      "z": 0.8129615187644958,
      "time_usec": 51314601457
    },
    {
      "x": 9.661619186401367,
      "y": 0.13100704550743103,
      "z": 0.8081758618354797,
      "time_usec": 51314603727
    },
    {
      "x": 9.689735412597656,
      "y": 0.11665010452270508,
      "z": 0.8039883971214294,
      "time_usec": 51314605984
    },
    {
      "x": 9.694520950317383,
      "y": 0.10229317098855972,
      "z": 0.8273184299468994,
      "time_usec": 51314608245
    },
    {
      "x": 9.713065147399902,
      "y": 0.0687936544418335,
      "z": 0.8614161610603333,
      "time_usec": 51314610499
    },
    {
      "x": 9.708279609680176,
      "y": 0.04486542567610741,
      "z": 0.875174880027771,
      "time_usec": 51314612757
    },
    {
      "x": 9.707681655883789,
      "y": 0.01136590726673603,
      "z": 0.8895317912101746,
      "time_usec": 51314615013
    },
    {
      "x": 9.707681655883789,
      "y": 0.01136590726673603,
      "z": 0.9134600162506104,
      "time_usec": 51314617267
    },
    {
      "x": 9.707681655883789,
      "y": 0.001794616924598813,
      "z": 0.9182456731796265,
      "time_usec": 51314619511
    },
    {
      "x": 9.707681655883789,
      "y": 0.001794616924598813,
      "z": 0.9326026439666748,
      "time_usec": 51314621771
    },
    {
      "x": 9.707681655883789,
      "y": -0.012562318705022335,
      "z": 0.9373882412910461,
      "time_usec": 51314624040
    },
    {
      "x": 9.721440315246582,
      "y": -0.0077766734175384045,
      "z": 0.9565308690071106,
      "time_usec": 51314626296
    },
    {
      "x": 9.716654777526855,
      "y": -0.026919255033135414,
      "z": 0.9852447509765625,
      "time_usec": 51314628559
    },
    {
      "x": 9.697511672973633,
      "y": -0.022133609279990196,
      "z": 0.9852447509765625,
      "time_usec": 51314630814
    },
    {
      "x": 9.683155059814453,
      "y": -0.0364905446767807,
      "z": 1.0091729164123535,
      "time_usec": 51314633071
    },
    {
      "x": 9.678369522094727,
      "y": -0.040677983313798904,
      "z": 1.028315544128418,
      "time_usec": 51314635327
    },
    {
      "x": 9.683155059814453,
      "y": -0.04127619042992592,
      "z": 1.0235298871994019,
      "time_usec": 51314637583
    },
    {
      "x": 9.678967475891113,
      "y": -0.012562318705022335,
      "z": 0.9996016621589661,
      "time_usec": 51314639841
    },
    {
      "x": 9.659825325012207,
      "y": -0.0023928226437419653,
      "z": 0.9852447509765625,
      "time_usec": 51314642098
    },
    {
      "x": 9.678967475891113,
      "y": 0.025722842663526535,
      "z": 0.9756734371185303,
      "time_usec": 51314644355
    },
    {
      "x": 9.678967475891113,
      "y": 0.025722842663526535,
      "z": 0.9613165259361267,
      "time_usec": 51314646613
    },
    {
      "x": 9.693324089050293,
      "y": 0.04486542567610741,
      "z": 0.9373882412910461,
      "time_usec": 51314648869
    },
    {
      "x": 9.70349407196045,
      "y": 0.04486542567610741,
      "z": 0.9134600162506104,
      "time_usec": 51314651122
    },
    {
      "x": 9.736394882202148,
      "y": 0.049651071429252625,
      "z": 0.914058268070221,
      "time_usec": 51314653384
    },
    {
      "x": 9.760323524475098,
      "y": 0.0687936544418335,
      "z": 0.8949156403541565,
      "time_usec": 51314655641
    },
    {
      "x": 9.745966911315918,
      "y": 0.07357929646968842,
      "z": 0.885344386100769,
      "time_usec": 51314657899
    },
    {
      "x": 9.765707015991211,
      "y": 0.10169496387243271,
      "z": 0.851844847202301,
      "time_usec": 51314660154
    },
    {
      "x": 9.78963565826416,
      "y": 0.08733802288770676,
      "z": 0.8279166221618652,
      "time_usec": 51314662407
    },
    {
      "x": 9.81356430053711,
      "y": 0.10169496387243271,
      "z": 0.7902296781539917,
      "time_usec": 51314664655
    },
    {
      "x": 9.827920913696289,
      "y": 0.11126625537872314,
      "z": 0.7663014531135559,
      "time_usec": 51314666915
    },
    {
      "x": 9.847063064575195,
      "y": 0.12502498924732208,
      "z": 0.7663014531135559,
      "time_usec": 51314669171
    },
    {
      "x": 9.847063064575195,
      "y": 0.14416755735874176,
      "z": 0.7806583642959595,
      "time_usec": 51314671441
    },
    {
      "x": 9.851848602294922,
      "y": 0.1543370634317398,
      "z": 0.8141579031944275,
      "time_usec": 51314673698
    },
    {
      "x": 9.827920913696289,
      "y": 0.13998012244701385,
      "z": 0.8333004713058472,
      "time_usec": 51314675945
    },
    {
      "x": 9.794421195983887,
      "y": 0.13998012244701385,
      "z": 0.8374879360198975,
      "time_usec": 51314678214
    },
    {
      "x": 9.780064582824707,
      "y": 0.14476576447486877,
      "z": 0.8662018179893494,
      "time_usec": 51314680471
    },
    {
      "x": 9.765707015991211,
      "y": 0.13519448041915894,
      "z": 0.8949156403541565,
      "time_usec": 51314682726
    },
    {
      "x": 9.760921478271484,
      "y": 0.12143574655056,
      "z": 0.914058268070221,
      "time_usec": 51314684983
    },
    {
      "x": 9.756135940551758,
      "y": 0.13579268753528595,
      "z": 0.9284151792526245,
      "time_usec": 51314687231
    },
    {
      "x": 9.741779327392578,
      "y": 0.12622138857841492,
      "z": 0.9236295223236084,
      "time_usec": 51314689483
    },
    {
      "x": 9.736993789672852,
      "y": 0.11186445504426956,
      "z": 0.9236295223236084,
      "time_usec": 51314691741
    },
    {
      "x": 9.698708534240723,
      "y": 0.09272187948226929,
      "z": 0.9278169870376587,
      "time_usec": 51314694006
    },
    {
      "x": 9.70349407196045,
      "y": 0.08793623000383377,
      "z": 0.9469595551490784,
      "time_usec": 51314696257
    },
    {
      "x": 9.68913745880127,
      "y": 0.054436713457107544,
      "z": 0.9421738982200623,
      "time_usec": 51314698514
    },
    {
      "x": 9.712467193603516,
      "y": 0.05922235921025276,
      "z": 0.9756734371185303,
      "time_usec": 51314700770
    },
    {
      "x": 9.688538551330566,
      "y": 0.06400800496339798,
      "z": 1.0043872594833374,
      "time_usec": 51314703029
    },
    {
      "x": 9.688538551330566,
      "y": 0.049651071429252625,
      "z": 1.0139585733413696,
      "time_usec": 51314705286
    },
    {
      "x": 9.664610862731934,
      "y": 0.040677983313798904,
      "z": 1.028315544128418,
      "time_usec": 51314707543
    },
    {
      "x": 9.664610862731934,
      "y": 0.031106693670153618,
      "z": 1.033101201057434,
      "time_usec": 51314709803
    },
    {
      "x": 9.65503978729248,
      "y": 0.035892341285943985,
      "z": 1.0372886657714844,
      "time_usec": 51314712068
    },
    {
      "x": 9.659825325012207,
      "y": 0.031106693670153618,
      "z": 1.042074203491211,
      "time_usec": 51314714329
    },
    {
      "x": 9.645467758178711,
      "y": 0.02153540402650833,
      "z": 1.0372886657714844,
      "time_usec": 51314716583
    },
    {
      "x": 9.650253295898438,
      "y": -0.007178467698395252,
      "z": 1.0277173519134521,
      "time_usec": 51314718826
    },
    {
      "x": 9.659825325012207,
      "y": -0.016749758273363113,
      "z": 1.0372886657714844,
      "time_usec": 51314721086
    },
    {
      "x": 9.659825325012207,
      "y": -0.02632104977965355,
      "z": 1.046859860420227,
      "time_usec": 51314723350
    },
    {
      "x": 9.635896682739258,
      "y": -0.02153540402650833,
      "z": 1.0325030088424683,
      "time_usec": 51314725601
    },
    {
      "x": 9.621540069580078,
      "y": -0.035892341285943985,
      "z": 1.0133603811264038,
      "time_usec": 51314727860
    },
    {
      "x": 9.602995872497559,
      "y": -0.05024927482008934,
      "z": 0.9990034699440002,
      "time_usec": 51314730112
    },
    {
      "x": 9.602995872497559,
      "y": -0.064606212079525,
      "z": 0.9702895879745483,
      "time_usec": 51314732371
    },
    {
      "x": 9.611968994140625,
      "y": -0.07896314561367035,
      "z": 0.9702895879745483,
      "time_usec": 51314734628
    },
    {
      "x": 9.574281692504883,
      "y": -0.06939185410737991,
      "z": 0.9750752449035645,
      "time_usec": 51314736885
    },
    {
      "x": 9.56471061706543,
      "y": -0.09810572862625122,
      "z": 0.9511470198631287,
      "time_usec": 51314739144
    },
    {
      "x": 9.559925079345703,
      "y": -0.10767702013254166,
      "z": 1.0037890672683716,
      "time_usec": 51314741403
    },
    {
      "x": 9.545567512512207,
      "y": -0.11724831163883209,
      "z": 0.9511470198631287,
      "time_usec": 51314743672
    },
    {
      "x": 9.54496955871582,
      "y": -0.14057832956314087,
      "z": 1.0701899528503418,
      "time_usec": 51314745929
    },
    {
      "x": 9.54078197479248,
      "y": -0.11724831163883209,
      "z": 0.9463613629341125,
      "time_usec": 51314748184
    },
    {
      "x": 9.54496955871582,
      "y": -0.12622138857841492,
      "z": 1.1228320598602295,
      "time_usec": 51314750427
    },
    {
      "x": 9.531210899353027,
      "y": -0.14117653667926788,
      "z": 1.0031908750534058,
      "time_usec": 51314752690
    },
    {
      "x": 9.535398483276367,
      "y": -0.1501496136188507,
      "z": 1.0558329820632935,
      "time_usec": 51314754942
    },
    {
      "x": 9.558728218078613,
      "y": -0.15972091257572174,
      "z": 1.1180464029312134,
      "time_usec": 51314757214
    },
    {
      "x": 9.578469276428223,
      "y": -0.13160525262355804,
      "z": 1.022931694984436,
      "time_usec": 51314759455
    },
    {
      "x": 9.611370086669922,
      "y": -0.15074782073497772,
      "z": 1.1282159090042114,
      "time_usec": 51314761718
    },
    {
      "x": 9.620942115783691,
      "y": -0.13639089465141296,
      "z": 1.089930772781372,
      "time_usec": 51314763983
    },
    {
      "x": 9.639486312866211,
      "y": -0.1459621787071228,
      "z": 1.0947163105010986,
      "time_usec": 51314766241
    },
    {
      "x": 9.649057388305664,
      "y": -0.15074782073497772,
      "z": 1.1425727605819702,
      "time_usec": 51314768488
    },
    {
      "x": 9.663414001464844,
      "y": -0.14117653667926788,
      "z": 1.1282159090042114,
      "time_usec": 51314770751
    },
    {
      "x": 9.67777156829834,
      "y": -0.1459621787071228,
      "z": 1.1521440744400024,
      "time_usec": 51314772999
    },
    {
      "x": 9.672985076904297,
      "y": -0.15074782073497772,
      "z": 1.1425727605819702,
      "time_usec": 51314775273
    },
    {
      "x": 9.69631576538086,
      "y": -0.1704886108636856,
      "z": 1.1473584175109863,
      "time_usec": 51314777527
    },
    {
      "x": 9.729815483093262,
      "y": -0.15134602785110474,
      "z": 1.1240284442901611,
      "time_usec": 51314779785
    },
    {
      "x": 9.748957633972168,
      "y": -0.13698910176753998,
      "z": 1.1096714735031128,
      "time_usec": 51314782035
    },
    {
      "x": 9.763314247131348,
      "y": -0.13220344483852386,
      "z": 1.090528964996338,
      "time_usec": 51314784298
    },
    {
      "x": 9.792028427124023,
      "y": -0.09930214285850525,
      "z": 1.0719845294952393,
      "time_usec": 51314786555
    },
    {
      "x": 9.81117057800293,
      "y": -0.08973085135221481,
      "z": 1.0863415002822876,
      "time_usec": 51314788812
    },
    {
      "x": 9.825528144836426,
      "y": -0.08973085135221481,
      "z": 1.0911271572113037,
      "time_usec": 51314791064
    },
    {
      "x": 9.849455833435059,
      "y": -0.061016976833343506,
      "z": 1.0815558433532715,
      "time_usec": 51314793328
    },
    {
      "x": 9.872786521911621,
      "y": -0.061016976833343506,
      "z": 1.0959128141403198,
      "time_usec": 51314795584
    },
    {
      "x": 9.896714210510254,
      "y": -0.06580262631177902,
      "z": 1.1054840087890625,
      "time_usec": 51314797839
    },
    {
      "x": 9.924830436706543,
      "y": -0.06161518394947052,
      "z": 1.1108678579330444,
      "time_usec": 51314800084
    },
    {
      "x": 9.930213928222656,
      "y": -0.052043892443180084,
      "z": 1.0821540355682373,
      "time_usec": 51314802350
    },
    {
      "x": 9.953543663024902,
      "y": -0.028115665540099144,
      "z": 1.072582721710205,
      "time_usec": 51314804612
    },
    {
      "x": 9.972686767578125,
      "y": -0.03768695518374443,
      "z": 1.0630114078521729,
      "time_usec": 51314806873
    },
    {
      "x": 9.987043380737305,
      "y": -0.01375873014330864,
      "z": 1.0582258701324463,
      "time_usec": 51314809127
    },
    {
      "x": 9.982257843017578,
      "y": 0.014955141581594944,
      "z": 1.072582721710205,
      "time_usec": 51314811380
    },
    {
      "x": 9.973284721374512,
      "y": 0.024526432156562805,
      "z": 1.0773683786392212,
      "time_usec": 51314813641
    },
    {
      "x": 9.978070259094238,
      "y": 0.019740786403417587,
      "z": 1.072582721710205,
      "time_usec": 51314815898
    },
    {
      "x": 9.958928108215332,
      "y": 0.014955141581594944,
      "z": 1.0821540355682373,
      "time_usec": 51314818157
    },
    {
      "x": 9.944570541381836,
      "y": 0.010169495828449726,
      "z": 1.1060823202133179,
      "time_usec": 51314820416
    },
    {
      "x": 9.953543663024902,
      "y": 0.010169495828449726,
      "z": 1.1443674564361572,
      "time_usec": 51314822664
    },
    {
      "x": 9.939187049865723,
      "y": 0.005982056725770235,
      "z": 1.1868400573730469,
      "time_usec": 51314824926
    },
    {
      "x": 9.94397258758545,
      "y": 0.010767702013254166,
      "z": 1.196411371231079,
      "time_usec": 51314827180
    },
    {
      "x": 9.92961597442627,
      "y": 0.0011964113218709826,
      "z": 1.2203395366668701,
      "time_usec": 51314829437
    },
    {
      "x": 9.953543663024902,
      "y": 0.010767702013254166,
      "z": 1.215553879737854,
      "time_usec": 51314831693
    },
    {
      "x": 9.939187049865723,
      "y": -0.003589233849197626,
      "z": 1.2059825658798218,
      "time_usec": 51314833955
    },
    {
      "x": 9.92961597442627,
      "y": -0.008374879136681557,
      "z": 1.2011969089508057,
      "time_usec": 51314836213
    },
    {
      "x": 9.924830436706543,
      "y": 0.02512463741004467,
      "z": 1.1820544004440308,
      "time_usec": 51314838469
    },
    {
      "x": 9.92542839050293,
      "y": 0.029910283163189888,
      "z": 1.153340458869934,
      "time_usec": 51314840722
    },
    {
      "x": 9.920642852783203,
      "y": 0.02512463741004467,
      "z": 1.1252248287200928,
      "time_usec": 51314842981
    },
    {
      "x": 9.915857315063477,
      "y": 0.04426721855998039,
      "z": 1.1150553226470947,
      "time_usec": 51314845241
    },
    {
      "x": 9.92542839050293,
      "y": 0.06819544732570648,
      "z": 1.1395817995071411,
      "time_usec": 51314847500
    },
    {
      "x": 9.949356079101562,
      "y": 0.08195417374372482,
      "z": 1.1395817995071411,
      "time_usec": 51314849753
    },
    {
      "x": 9.93978500366211,
      "y": 0.08733802288770676,
      "z": 1.1300104856491089,
      "time_usec": 51314852007
    },
    {
      "x": 9.934999465942383,
      "y": 0.09212367236614227,
      "z": 1.1443674564361572,
      "time_usec": 51314854269
    },
    {
      "x": 9.911669731140137,
      "y": 0.07776673883199692,
      "z": 1.1198409795761108,
      "time_usec": 51314856527
    },
    {
      "x": 9.887741088867188,
      "y": 0.06340979784727097,
      "z": 1.1054840087890625,
      "time_usec": 51314858783
    },
    {
      "x": 9.863813400268555,
      "y": 0.04905286431312561,
      "z": 1.0815558433532715,
      "time_usec": 51314861035
    },
    {
      "x": 9.840482711791992,
      "y": 0.04426721855998039,
      "z": 1.0767701864242554,
      "time_usec": 51314863298
    },
    {
      "x": 9.840482711791992,
      "y": 0.04905286431312561,
      "z": 1.057627558708191,
      "time_usec": 51314865554
    },
    {
      "x": 9.839884757995605,
      "y": 0.029910283163189888,
      "z": 1.0863415002822876,
      "time_usec": 51314867813
    },
    {
      "x": 9.839884757995605,
      "y": 0.029910283163189888,
      "z": 1.124626636505127,
      "time_usec": 51314870066
    },
    {
      "x": 9.844670295715332,
      "y": 0.02512463741004467,
      "z": 1.1437692642211914,
      "time_usec": 51314872311
    },
    {
      "x": 9.868000984191895,
      "y": 0.029910283163189888,
      "z": 1.1724830865859985,
      "time_usec": 51314874571
    },
    {
      "x": 9.877572059631348,
      "y": 0.020338991656899452,
      "z": 1.215553879737854,
      "time_usec": 51314876841
    },
    {
      "x": 9.900901794433594,
      "y": 0.029910283163189888,
      "z": 1.2442678213119507,
      "time_usec": 51314879101
    },
    {
      "x": 9.876974105834961,
      "y": 0.010767702013254166,
      "z": 1.2586246728897095,
      "time_usec": 51314881352
    },
    {
      "x": 9.853045463562012,
      "y": -0.022133609279990196,
      "z": 1.272383451461792,
      "time_usec": 51314883608
    },
    {
      "x": 9.843474388122559,
      "y": -0.012562318705022335,
      "z": 1.2675977945327759,
      "time_usec": 51314885869
    },
    {
      "x": 9.838688850402832,
      "y": -0.03170489892363548,
      "z": 1.2819547653198242,
      "time_usec": 51314888127
    },
    {
      "x": 9.810572624206543,
      "y": -0.05563312768936157,
      "z": 1.2580264806747437,
      "time_usec": 51314890383
    },
    {
      "x": 9.757930755615234,
      "y": -0.05563312768936157,
      "z": 1.2484551668167114,
      "time_usec": 51314892634
    },
    {
      "x": 9.739386558532715,
      "y": -0.046061836183071136,
      "z": 1.2478569746017456,
      "time_usec": 51314894898
    },
    {
      "x": 9.686744689941406,
      "y": -0.064606212079525,
      "z": 1.2478569746017456,
      "time_usec": 51314897156
    },
    {
      "x": 9.653244972229004,
      "y": -0.06939185410737991,
      "z": 1.2717852592468262,
      "time_usec": 51314899419
    },
    {
      "x": 9.653244972229004,
      "y": -0.07896314561367035,
      "z": 1.2861422300338745,
      "time_usec": 51314901665
    },
    {
      "x": 9.634101867675781,
      "y": -0.08853443711996078,
      "z": 1.2855439186096191,
      "time_usec": 51314903926
    },
    {
      "x": 9.614959716796875,
      "y": -0.12143574655056,
      "z": 1.2903295755386353,
      "time_usec": 51314906181
    },
    {
      "x": 9.610174179077148,
      "y": -0.13579268753528595,
      "z": 1.3094722032546997,
      "time_usec": 51314908436
    },
    {
      "x": 9.605388641357422,
      "y": -0.15493527054786682,
      "z": 1.3094722032546997,
      "time_usec": 51314910690
    },
    {
      "x": 9.58205795288086,
      "y": -0.15493527054786682,
      "z": 1.2903295755386353,
      "time_usec": 51314912943
    },
    {
      "x": 9.5862455368042,
      "y": -0.18364913761615753,
      "z": 1.2855439186096191,
      "time_usec": 51314915213
    },
    {
      "x": 9.562317848205566,
      "y": -0.19322042167186737,
      "z": 1.2951152324676514,
      "time_usec": 51314917470
    },
    {
      "x": 9.567103385925293,
      "y": -0.21714866161346436,
      "z": 1.2903295755386353,
      "time_usec": 51314919727
    },
    {
      "x": 9.5533447265625,
      "y": -0.21714866161346436,
      "z": 1.2759727239608765,
      "time_usec": 51314921978
    },
    {
      "x": 9.548559188842773,
      "y": -0.22193430364131927,
      "z": 1.2664014101028442,
      "time_usec": 51314924241
    },
    {
      "x": 9.534201622009277,
      "y": -0.23629122972488403,
      "z": 1.256830096244812,
      "time_usec": 51314926495
    },
    {
      "x": 9.387042999267578,
      "y": -0.25004997849464417,
      "z": 1.2221341133117676,
      "time_usec": 51314928742
    },
    {
      "x": 9.686744689941406,
      "y": -0.1698904037475586,
      "z": 1.2239288091659546,
      "time_usec": 51314931007
    },
    {
      "x": 9.605986595153809,
      "y": -0.15553347766399384,
      "z": 1.2041879892349243,
      "time_usec": 51314933269
    },
    {
      "x": 9.463613510131836,
      "y": -0.21714866161346436,
      "z": 1.179661512374878,
      "time_usec": 51314935530
    },
    {
      "x": 9.539586067199707,
      "y": -0.18843477964401245,
      "z": 1.1563315391540527,
      "time_usec": 51314937785
    },
    {
      "x": 9.56770133972168,
      "y": -0.19322042167186737,
      "z": 1.1611171960830688,
      "time_usec": 51314940036
    },
    {
      "x": 9.477970123291016,
      "y": -0.2027917206287384,
      "z": 1.103689432144165,
      "time_usec": 51314942292
    },
    {
      "x": 9.445069313049316,
      "y": -0.18305093050003052,
      "z": 1.1222338676452637,
      "time_usec": 51314944553
    },
    {
      "x": 9.506684303283691,
      "y": -0.18364913761615753,
      "z": 1.1180464029312134,
      "time_usec": 51314946805
    },
    {
      "x": 9.497113227844238,
      "y": -0.18364913761615753,
      "z": 1.1324033737182617,
      "time_usec": 51314949068
    },
    {
      "x": 9.482755661010742,
      "y": -0.18843477964401245,
      "z": 1.1228320598602295,
      "time_usec": 51314951320
    },
    {
      "x": 9.492327690124512,
      "y": -0.19322042167186737,
      "z": 1.1276177167892456,
      "time_usec": 51314953574
    },
    {
      "x": 9.468399047851562,
      "y": -0.2027917206287384,
      "z": 1.1509476900100708,
      "time_usec": 51314955839
    },
    {
      "x": 9.44447135925293,
      "y": -0.22133609652519226,
      "z": 1.1748759746551514,
      "time_usec": 51314958082
    },
    {
      "x": 9.449256896972656,
      "y": -0.2309073805809021,
      "z": 1.1892328262329102,
      "time_usec": 51314960336
    },
    {
      "x": 9.425328254699707,
      "y": -0.24526432156562805,
      "z": 1.2131611108779907,
      "time_usec": 51314962600
    },
    {
      "x": 9.410971641540527,
      "y": -0.24526432156562805,
      "z": 1.2370892763137817,
      "time_usec": 51314964872
    },
    {
      "x": 9.396016120910645,
      "y": -0.26919254660606384,
      "z": 1.2652050256729126,
      "time_usec": 51314967126
    },
    {
      "x": 9.391230583190918,
      "y": -0.27397820353507996,
      "z": 1.2891331911087036,
      "time_usec": 51314969385
    },
    {
      "x": 9.381659507751465,
      "y": -0.2787638306617737,
      "z": 1.2891331911087036,
      "time_usec": 51314971636
    },
    {
      "x": 9.391230583190918,
      "y": -0.24047867953777313,
      "z": 1.2939188480377197,
      "time_usec": 51314973899
    },
    {
      "x": 9.381659507751465,
      "y": -0.25004997849464417,
      "z": 1.2987045049667358,
      "time_usec": 51314976156
    },
    {
      "x": 9.41037368774414,
      "y": -0.25004997849464417,
      "z": 1.2939188480377197,
      "time_usec": 51314978418
    },
    {
      "x": 9.415159225463867,
      "y": -0.24047867953777313,
      "z": 1.25144624710083,
      "time_usec": 51314980662
    },
    {
      "x": 9.434301376342773,
      "y": -0.22133609652519226,
      "z": 1.2610175609588623,
      "time_usec": 51314982921
    },
    {
      "x": 9.42473030090332,
      "y": -0.24047867953777313,
      "z": 1.2370892763137817,
      "time_usec": 51314985181
    },
    {
      "x": 9.4390869140625,
      "y": -0.22133609652519226,
      "z": 1.246660590171814,
      "time_usec": 51314987438
    },
    {
      "x": 9.4390869140625,
      "y": -0.25004997849464417,
      "z": 1.2275179624557495,
      "time_usec": 51314989698
    },
    {
      "x": 9.4061861038208,
      "y": -0.21176479756832123,
      "z": 1.2275179624557495,
      "time_usec": 51314991950
    },
    {
      "x": 9.4061861038208,
      "y": -0.21655045449733734,
      "z": 1.2370892763137817,
      "time_usec": 51314994213
    },
    {
      "x": 9.415159225463867,
      "y": -0.2356930375099182,
      "z": 1.25144624710083,
      "time_usec": 51314996469
    },
    {
      "x": 9.41037368774414,
      "y": -0.2356930375099182,
      "z": 1.2795618772506714,
      "time_usec": 51314998728
    },
    {
      "x": 9.429515838623047,
      "y": -0.2309073805809021,
      "z": 1.2705888748168945,
      "time_usec": 51315000977
    },
    {
      "x": 9.443872451782227,
      "y": -0.22133609652519226,
      "z": 1.25144624710083,
      "time_usec": 51315003241
    },
    {
      "x": 9.486943244934082,
      "y": -0.18364913761615753,
      "z": 1.2658032178878784,
      "time_usec": 51315005499
    },
    {
      "x": 9.501300811767578,
      "y": -0.18843477964401245,
      "z": 1.2658032178878784,
      "time_usec": 51315007762
    },
    {
      "x": 9.538987159729004,
      "y": -0.19322042167186737,
      "z": 1.2711870670318604,
      "time_usec": 51315010011
    },
    {
      "x": 9.538987159729004,
      "y": -0.2027917206287384,
      "z": 1.2903295755386353,
      "time_usec": 51315012264
    },
    {
      "x": 9.548559188842773,
      "y": -0.18364913761615753,
      "z": 1.2855439186096191,
      "time_usec": 51315014525
    },
    {
      "x": 9.57188892364502,
      "y": -0.21236300468444824,
      "z": 1.2711870670318604,
      "time_usec": 51315016783
    },
    {
      "x": 9.5533447265625,
      "y": -0.19800607860088348,
      "z": 1.2711870670318604,
      "time_usec": 51315019038
    },
    {
      "x": 9.572486877441406,
      "y": -0.2027917206287384,
      "z": 1.2711870670318604,
      "time_usec": 51315021284
    },
    {
      "x": 9.576674461364746,
      "y": -0.2027917206287384,
      "z": 1.2759727239608765,
      "time_usec": 51315023552
    },
    {
      "x": 9.581459999084473,
      "y": -0.21236300468444824,
      "z": 1.2855439186096191,
      "time_usec": 51315025809
    },
    {
      "x": 9.600603103637695,
      "y": -0.19381862878799438,
      "z": 1.2759727239608765,
      "time_usec": 51315028068
    },
    {
      "x": 9.610174179077148,
      "y": -0.1986042857170105,
      "z": 1.2951152324676514,
      "time_usec": 51315030326
    },
    {
      "x": 9.634101867675781,
      "y": -0.18424734473228455,
      "z": 1.280758261680603,
      "time_usec": 51315032579
    },
    {
      "x": 9.64367389678955,
      "y": -0.17946170270442963,
      "z": 1.262213945388794,
      "time_usec": 51315034842
    },
    {
      "x": 9.65803050994873,
      "y": -0.17946170270442963,
      "z": 1.2574282884597778,
      "time_usec": 51315037095
    },
    {
      "x": 9.686744689941406,
      "y": -0.1698904037475586,
      "z": 1.2382856607437134,
      "time_usec": 51315039346
    },
    {
      "x": 9.69631576538086,
      "y": -0.15074782073497772,
      "z": 1.2239288091659546,
      "time_usec": 51315041607
    },
    {
      "x": 9.691530227661133,
      "y": -0.13698910176753998,
      "z": 1.171286702156067,
      "time_usec": 51315043869
    },
    {
      "x": 9.715457916259766,
      "y": -0.1178465187549591,
      "z": 1.1479566097259521,
      "time_usec": 51315046129
    },
    {
      "x": 9.711270332336426,
      "y": -0.11306086927652359,
      "z": 1.1240284442901611,
      "time_usec": 51315048383
    },
    {
      "x": 9.701699256896973,
      "y": -0.06999006122350693,
      "z": 1.1001001596450806,
      "time_usec": 51315050634
    },
    {
      "x": 9.70229721069336,
      "y": -0.05563312768936157,
      "z": 1.0857433080673218,
      "time_usec": 51315052892
    },
    {
      "x": 9.7064847946167,
      "y": -0.05563312768936157,
      "z": 1.095314621925354,
      "time_usec": 51315055156
    },
    {
      "x": 9.707083702087402,
      "y": -0.0364905446767807,
      "z": 1.0761719942092896,
      "time_usec": 51315057419
    },
    {
      "x": 9.711869239807129,
      "y": -0.01734796352684498,
      "z": 1.033101201057434,
      "time_usec": 51315059669
    },
    {
      "x": 9.77408218383789,
      "y": -0.003589233849197626,
      "z": 1.0145567655563354,
      "time_usec": 51315061921
    },
    {
      "x": 9.693324089050293,
      "y": 0.01615155301988125,
      "z": 1.0139585733413696,
      "time_usec": 51315064182
    },
    {
      "x": 9.77408218383789,
      "y": 0.02512463741004467,
      "z": 0.9906286001205444,
      "time_usec": 51315066436
    },
    {
      "x": 9.826126098632812,
      "y": 0.010767702013254166,
      "z": 1.0049854516983032,
      "time_usec": 51315068698
    },
    {
      "x": 9.783653259277344,
      "y": 0.010767702013254166,
      "z": 1.0001999139785767,
      "time_usec": 51315070950
    },
    {
      "x": 9.793225288391113,
      "y": 0.0011964113218709826,
      "z": 1.0049854516983032,
      "time_usec": 51315073213
    },
    {
      "x": 9.806983947753906,
      "y": -0.02273181453347206,
      "z": 1.0145567655563354,
      "time_usec": 51315075470
    },
    {
      "x": 9.81655502319336,
      "y": -0.02273181453347206,
      "z": 1.0145567655563354,
      "time_usec": 51315077729
    },
    {
      "x": 9.79262638092041,
      "y": -0.013160524889826775,
      "z": 1.0289137363433838,
      "time_usec": 51315079970
    },
    {
      "x": 9.835697174072266,
      "y": -0.017946170642971992,
      "z": 1.0289137363433838,
      "time_usec": 51315082236
    },
    {
      "x": 9.830911636352539,
      "y": -0.02751746028661728,
      "z": 1.0289137363433838,
      "time_usec": 51315084494
    },
    {
      "x": 9.844670295715332,
      "y": -0.02273181453347206,
      "z": 1.0432707071304321,
      "time_usec": 51315086746
    },
    {
      "x": 9.835099220275879,
      "y": -0.017946170642971992,
      "z": 1.0767701864242554,
      "time_usec": 51315089012
    },
    {
      "x": 9.839884757995605,
      "y": -0.0323031060397625,
      "z": 1.0767701864242554,
      "time_usec": 51315091263
    },
    {
      "x": 9.849455833435059,
      "y": -0.037088751792907715,
      "z": 1.0911271572113037,
      "time_usec": 51315093526
    },
    {
      "x": 9.839884757995605,
      "y": -0.04666004329919815,
      "z": 1.1102696657180786,
      "time_usec": 51315095784
    },
    {
      "x": 9.815957069396973,
      "y": -0.04187439754605293,
      "z": 1.1341979503631592,
      "time_usec": 51315098039
    },
    {
      "x": 9.80100154876709,
      "y": -0.050847481936216354,
      "z": 1.1766705513000488,
      "time_usec": 51315100286
    },
    {
      "x": 9.772287368774414,
      "y": -0.06520441919565201,
      "z": 1.210170030593872,
      "time_usec": 51315102549
    },
    {
      "x": 9.772287368774414,
      "y": -0.07956135272979736,
      "z": 1.2197413444519043,
      "time_usec": 51315104812
    },
    {
      "x": 9.729815483093262,
      "y": -0.07417750358581543,
      "z": 1.2526426315307617,
      "time_usec": 51315107072
    },
    {
      "x": 9.738788604736328,
      "y": -0.10348957777023315,
      "z": 1.2574282884597778,
      "time_usec": 51315109326
    },
    {
      "x": 9.729216575622559,
      "y": -0.10289137065410614,
      "z": 1.2861422300338745,
      "time_usec": 51315111578
    },
    {
      "x": 9.695717811584473,
      "y": -0.11724831163883209,
      "z": 1.3100703954696655,
      "time_usec": 51315113841
    },
    {
      "x": 9.695717811584473,
      "y": -0.12203395366668701,
      "z": 1.3004990816116333,
      "time_usec": 51315116098
    },
    {
      "x": 9.7005033493042,
      "y": -0.13639089465141296,
      "z": 1.290927767753601,
      "time_usec": 51315118356
    },
    {
      "x": 9.677172660827637,
      "y": -0.15553347766399384,
      "z": 1.26699960231781,
      "time_usec": 51315120606
    },
    {
      "x": 9.66221809387207,
      "y": -0.16510476171970367,
      "z": 1.2861422300338745,
      "time_usec": 51315122864
    },
    {
      "x": 9.657432556152344,
      "y": -0.15553347766399384,
      "z": 1.319043517112732,
      "time_usec": 51315125126
    },
    {
      "x": 9.643074989318848,
      "y": -0.17946170270442963,
      "z": 1.319043517112732,
      "time_usec": 51315127384
    },
    {
      "x": 9.638289451599121,
      "y": -0.18424734473228455,
      "z": 1.319043517112732,
      "time_usec": 51315129640
    },
    {
      "x": 9.647860527038574,
      "y": -0.17946170270442963,
      "z": 1.3046865463256836,
      "time_usec": 51315131893
    },
    {
      "x": 9.657432556152344,
      "y": -0.18424734473228455,
      "z": 1.3094722032546997,
      "time_usec": 51315134156
    },
    {
      "x": 9.652647018432617,
      "y": -0.18903298676013947,
      "z": 1.3094722032546997,
      "time_usec": 51315136417
    },
    {
      "x": 9.681360244750977,
      "y": -0.17946170270442963,
      "z": 1.3004990816116333,
      "time_usec": 51315138669
    },
    {
      "x": 9.724431037902832,
      "y": -0.1698904037475586,
      "z": 1.2957134246826172,
      "time_usec": 51315140921
    },
    {
      "x": 9.728618621826172,
      "y": -0.16510476171970367,
      "z": 1.3100703954696655,
      "time_usec": 51315143181
    },
    {
      "x": 9.742975234985352,
      "y": -0.17527425289154053,
      "z": 1.3004990816116333,
      "time_usec": 51315145436
    },
    {
      "x": 9.780662536621094,
      "y": -0.18963119387626648,
      "z": 1.3202399015426636,
      "time_usec": 51315147700
    },
    {
      "x": 9.795019149780273,
      "y": -0.1944168359041214,
      "z": 1.3010972738265991,
      "time_usec": 51315149954
    },
    {
      "x": 9.795019149780273,
      "y": -0.18963119387626648,
      "z": 1.2915260791778564,
      "time_usec": 51315152208
    },
    {
      "x": 9.7998046875,
      "y": -0.20398813486099243,
      "z": 1.3058829307556152,
      "time_usec": 51315154467
    },
    {
      "x": 9.795618057250977,
      "y": -0.18484555184841156,
      "z": 1.2915260791778564,
      "time_usec": 51315156713
    },
    {
      "x": 9.790233612060547,
      "y": -0.1944168359041214,
      "z": 1.3058829307556152,
      "time_usec": 51315158971
    },
    {
      "x": 9.795019149780273,
      "y": -0.18005990982055664,
      "z": 1.3250255584716797,
      "time_usec": 51315161234
    },
    {
      "x": 9.790233612060547,
      "y": -0.18484555184841156,
      "z": 1.339382529258728,
      "time_usec": 51315163493
    },
    {
      "x": 9.7998046875,
      "y": -0.15134602785110474,
      "z": 1.3728820085525513,
      "time_usec": 51315165746
    },
    {
      "x": 9.80937671661377,
      "y": -0.17527425289154053,
      "z": 1.3728820085525513,
      "time_usec": 51315168014
    },
    {
      "x": 9.828518867492676,
      "y": -0.15134602785110474,
      "z": 1.3250255584716797,
      "time_usec": 51315170269
    },
    {
      "x": 9.833304405212402,
      "y": -0.1657029688358307,
      "z": 1.3154542446136475,
      "time_usec": 51315172526
    },
    {
      "x": 9.847661972045898,
      "y": -0.16151553392410278,
      "z": 1.3106685876846313,
      "time_usec": 51315174783
    },
    {
      "x": 9.828518867492676,
      "y": -0.18005990982055664,
      "z": 1.3058829307556152,
      "time_usec": 51315177041
    },
    {
      "x": 9.82373332977295,
      "y": -0.20877377688884735,
      "z": 1.3106685876846313,
      "time_usec": 51315179297
    },
    {
      "x": 9.827920913696289,
      "y": -0.22791635990142822,
      "z": 1.334596872329712,
      "time_usec": 51315181548
    },
    {
      "x": 9.847063064575195,
      "y": -0.22372891008853912,
      "z": 1.363310694694519,
      "time_usec": 51315183804
    },
    {
      "x": 9.861420631408691,
      "y": -0.2476571500301361,
      "z": 1.3728820085525513,
      "time_usec": 51315186069
    },
    {
      "x": 9.856036186218262,
      "y": -0.25244277715682983,
      "z": 1.4063814878463745,
      "time_usec": 51315188329
    },
    {
      "x": 9.875179290771484,
      "y": -0.25244277715682983,
      "z": 1.3824533224105835,
      "time_usec": 51315190590
    },
    {
      "x": 9.89432144165039,
      "y": -0.28115665912628174,
      "z": 1.3489537239074707,
      "time_usec": 51315192835
    },
    {
      "x": 9.908679008483887,
      "y": -0.26201409101486206,
      "z": 1.3495519161224365,
      "time_usec": 51315195097
    },
    {
      "x": 9.942177772521973,
      "y": -0.243469700217247,
      "z": 1.3304094076156616,
      "time_usec": 51315197351
    },
    {
      "x": 9.956535339355469,
      "y": -0.22911277413368225,
      "z": 1.3208380937576294,
      "time_usec": 51315199611
    },
    {
      "x": 9.966106414794922,
      "y": -0.20997019112110138,
      "z": 1.3112667798995972,
      "time_usec": 51315201863
    },
    {
      "x": 9.980463027954102,
      "y": -0.20039889216423035,
      "z": 1.2544373273849487,
      "time_usec": 51315204122
    },
    {
      "x": 9.971489906311035,
      "y": -0.2147558331489563,
      "z": 1.2065808773040771,
      "time_usec": 51315206384
    },
    {
      "x": 9.957133293151855,
      "y": -0.1908276081085205,
      "z": 1.1874382495880127,
      "time_usec": 51315208640
    },
    {
      "x": 9.948160171508789,
      "y": -0.1860419660806656,
      "z": 1.1682956218719482,
      "time_usec": 51315210886
    },
    {
      "x": 9.943374633789062,
      "y": -0.18125630915164948,
      "z": 1.134796142578125,
      "time_usec": 51315213156
    },
    {
      "x": 9.929018020629883,
      "y": -0.18125630915164948,
      "z": 1.1395817995071411,
      "time_usec": 51315215418
    },
    {
      "x": 9.938589096069336,
      "y": -0.1860419660806656,
      "z": 1.1204391717910767,
      "time_usec": 51315217673
    },
    {
      "x": 9.938589096069336,
      "y": -0.1860419660806656,
      "z": 1.1252248287200928,
      "time_usec": 51315219925
    },
    {
      "x": 9.948160171508789,
      "y": -0.18125630915164948,
      "z": 1.1300104856491089,
      "time_usec": 51315222176
    },
    {
      "x": 9.93380355834961,
      "y": -0.18125630915164948,
      "z": 1.1539387702941895,
      "time_usec": 51315224436
    },
    {
      "x": 9.93380355834961,
      "y": -0.16689938306808472,
      "z": 1.1772687435150146,
      "time_usec": 51315226699
    },
    {
      "x": 9.905089378356934,
      "y": -0.17587246000766754,
      "z": 1.2011969089508057,
      "time_usec": 51315228955
    },
    {
      "x": 9.881160736083984,
      "y": -0.1950150430202484,
      "z": 1.210768222808838,
      "time_usec": 51315231207
    },
    {
      "x": 9.871589660644531,
      "y": -0.20937198400497437,
      "z": 1.215553879737854,
      "time_usec": 51315233466
    },
    {
      "x": 9.862018585205078,
      "y": -0.20937198400497437,
      "z": 1.2346965074539185,
      "time_usec": 51315235729
    },
    {
      "x": 9.847661972045898,
      "y": -0.22851456701755524,
      "z": 1.2346965074539185,
      "time_usec": 51315237985
    },
    {
      "x": 9.847661972045898,
      "y": -0.20458634197711945,
      "z": 1.2346965074539185,
      "time_usec": 51315240241
    },
    {
      "x": 9.809974670410156,
      "y": -0.1950150430202484,
      "z": 1.2340983152389526,
      "time_usec": 51315242489
    },
    {
      "x": 9.809974670410156,
      "y": -0.21415762603282928,
      "z": 1.2436695098876953,
      "time_usec": 51315244743
    },
    {
      "x": 9.795618057250977,
      "y": -0.24287149310112,
      "z": 1.2580264806747437,
      "time_usec": 51315247010
    },
    {
      "x": 9.776474952697754,
      "y": -0.26620152592658997,
      "z": 1.2628121376037598,
      "time_usec": 51315249262
    },
    {
      "x": 9.752547264099121,
      "y": -0.26620152592658997,
      "z": 1.2861422300338745,
      "time_usec": 51315251524
    },
    {
      "x": 9.733404159545898,
      "y": -0.29012975096702576,
      "z": 1.2861422300338745,
      "time_usec": 51315253783
    },
    {
      "x": 9.728020668029785,
      "y": -0.2949153780937195,
      "z": 1.333998680114746,
      "time_usec": 51315256042
    },
    {
      "x": 9.718449592590332,
      "y": -0.31405797600746155,
      "z": 1.3483555316925049,
      "time_usec": 51315258299
    },
    {
      "x": 9.713663101196289,
      "y": -0.3284149169921875,
      "z": 1.3674981594085693,
      "time_usec": 51315260555
    },
    {
      "x": 9.718449592590332,
      "y": -0.3236292600631714,
      "z": 1.3770694732666016,
      "time_usec": 51315262811
    },
    {
      "x": 9.736993789672852,
      "y": -0.33798620104789734,
      "z": 1.3962119817733765,
      "time_usec": 51315265069
    },
    {
      "x": 9.736993789672852,
      "y": -0.3332005441188812,
      "z": 1.4009976387023926,
      "time_usec": 51315267325
    },
    {
      "x": 9.756135940551758,
      "y": -0.3475574851036072,
      "z": 1.4057832956314087,
      "time_usec": 51315269580
    },
    {
      "x": 9.760921478271484,
      "y": -0.3475574851036072,
      "z": 1.3914263248443604,
      "time_usec": 51315271835
    },
    {
      "x": 9.751350402832031,
      "y": -0.3332005441188812,
      "z": 1.3722838163375854,
      "time_usec": 51315274094
    },
    {
      "x": 9.732806205749512,
      "y": -0.3236292600631714,
      "z": 1.3483555316925049,
      "time_usec": 51315276342
    },
    {
      "x": 9.732806205749512,
      "y": -0.3332005441188812,
      "z": 1.2957134246826172,
      "time_usec": 51315278612
    },
    {
      "x": 9.738189697265625,
      "y": -0.3236292600631714,
      "z": 1.2340983152389526,
      "time_usec": 51315280865
    },
    {
      "x": 9.723833084106445,
      "y": -0.33798620104789734,
      "z": 1.186241865158081,
      "time_usec": 51315283129
    },
    {
      "x": 9.743574142456055,
      "y": -0.33858439326286316,
      "z": 1.119242787361145,
      "time_usec": 51315285383
    },
    {
      "x": 9.762118339538574,
      "y": -0.3481557071208954,
      "z": 1.090528964996338,
      "time_usec": 51315287642
    },
    {
      "x": 9.762118339538574,
      "y": -0.36729827523231506,
      "z": 1.0809576511383057,
      "time_usec": 51315289896
    },
    {
      "x": 9.661619186401367,
      "y": -0.5389832854270935,
      "z": 1.109073281288147,
      "time_usec": 51315292151
    },
    {
      "x": 9.599406242370605,
      "y": -0.582054078578949,
      "z": 1.170688509941101,
      "time_usec": 51315294418
    },
    {
      "x": 9.628120422363281,
      "y": -0.5000999569892883,
      "z": 1.256830096244812,
      "time_usec": 51315296666
    },
    {
      "x": 9.651450157165527,
      "y": -0.41874396800994873,
      "z": 1.3142578601837158,
      "time_usec": 51315298914
    },
    {
      "x": 9.65683364868164,
      "y": -0.34695929288864136,
      "z": 1.3334003686904907,
      "time_usec": 51315301172
    },
    {
      "x": 9.685547828674316,
      "y": -0.27038896083831787,
      "z": 1.357926845550537,
      "time_usec": 51315303436
    },
    {
      "x": 9.719047546386719,
      "y": -0.2470589429140091,
      "z": 1.2957134246826172,
      "time_usec": 51315305701
    },
    {
      "x": 9.733404159545898,
      "y": -0.2949153780937195,
      "z": 1.2430713176727295,
      "time_usec": 51315307957
    },
    {
      "x": 9.747760772705078,
      "y": -0.3523431420326233,
      "z": 1.2005987167358398,
      "time_usec": 51315310212
    },
    {
      "x": 9.742975234985352,
      "y": -0.39601215720176697,
      "z": 1.1718848943710327,
      "time_usec": 51315312462
    },
    {
      "x": 9.77109146118164,
      "y": -0.4295116662979126,
      "z": 1.1431710720062256,
      "time_usec": 51315314714
    },
    {
      "x": 9.775876998901367,
      "y": -0.4055834412574768,
      "z": 1.1288141012191772,
      "time_usec": 51315316985
    },
    {
      "x": 9.790233612060547,
      "y": -0.39601215720176697,
      "z": 1.119242787361145,
      "time_usec": 51315319240
    },
    {
      "x": 9.795618057250977,
      "y": -0.36251261830329895,
      "z": 1.119242787361145,
      "time_usec": 51315321498
    },
    {
      "x": 9.852447509765625,
      "y": -0.2907279431819916,
      "z": 1.124626636505127,
      "time_usec": 51315323762
    },
    {
      "x": 9.862018585205078,
      "y": -0.2715853750705719,
      "z": 1.1389836072921753,
      "time_usec": 51315326002
    },
    {
      "x": 9.900303840637207,
      "y": -0.2386840581893921,
      "z": 1.1772687435150146,
      "time_usec": 51315328270
    },
    {
      "x": 9.890732765197754,
      "y": -0.20518454909324646,
      "z": 1.1676974296569824,
      "time_usec": 51315330523
    },
    {
      "x": 9.885947227478027,
      "y": -0.21415762603282928,
      "z": 1.1868400573730469,
      "time_usec": 51315332781
    },
    {
      "x": 9.838089942932129,
      "y": -0.3290131092071533,
      "z": 1.1772687435150146,
      "time_usec": 51315335042
    },
    {
      "x": 9.800403594970703,
      "y": -0.2715853750705719,
      "z": 1.1718848943710327,
      "time_usec": 51315337298
    },
    {
      "x": 9.748359680175781,
      "y": -0.251844584941864,
      "z": 1.181456208229065,
      "time_usec": 51315339555
    },
    {
      "x": 9.710672378540039,
      "y": -0.2183450609445572,
      "z": 1.1240284442901611,
      "time_usec": 51315341806
    },
    {
      "x": 9.687342643737793,
      "y": -0.18005990982055664,
      "z": 1.109073281288147,
      "time_usec": 51315344069
    },
    {
      "x": 9.672985076904297,
      "y": -0.16091732680797577,
      "z": 1.0666006803512573,
      "time_usec": 51315346326
    },
    {
      "x": 9.664012908935547,
      "y": -0.14656038582324982,
      "z": 1.0516455173492432,
      "time_usec": 51315348584
    },
    {
      "x": 9.668798446655273,
      "y": -0.1417747437953949,
      "z": 1.028315544128418,
      "time_usec": 51315350836
    },
    {
      "x": 9.673583984375,
      "y": -0.13220344483852386,
      "z": 1.0043872594833374,
      "time_usec": 51315353099
    },
    {
      "x": 9.707083702087402,
      "y": -0.10827522724866867,
      "z": 0.9708877801895142,
      "time_usec": 51315355352
    },
    {
      "x": 9.711869239807129,
      "y": -0.1178465187549591,
      "z": 0.9421738982200623,
      "time_usec": 51315357598
    },
    {
      "x": 9.726225852966309,
      "y": -0.10408778488636017,
      "z": 0.9469595551490784,
      "time_usec": 51315359853
    },
    {
      "x": 9.759725570678711,
      "y": -0.1136590763926506,
      "z": 0.9427721500396729,
      "time_usec": 51315362114
    },
    {
      "x": 9.783653259277344,
      "y": -0.1136590763926506,
      "z": 0.8949156403541565,
      "time_usec": 51315364386
    },
    {
      "x": 9.783653259277344,
      "y": -0.10887342691421509,
      "z": 0.9044869542121887,
      "time_usec": 51315366641
    },
    {
      "x": 9.797411918640137,
      "y": -0.0849452018737793,
      "z": 0.9236295223236084,
      "time_usec": 51315368900
    },
    {
      "x": 9.79801082611084,
      "y": -0.05144568532705307,
      "z": 0.9475577473640442,
      "time_usec": 51315371152
    },
    {
      "x": 9.807581901550293,
      "y": -0.06580262631177902,
      "z": 0.8566305041313171,
      "time_usec": 51315373418
    },
    {
      "x": 9.770493507385254,
      "y": -0.08075776696205139,
      "z": 0.6993024349212646,
      "time_usec": 51315375669
    },
    {
      "x": 9.747760772705078,
      "y": -0.09990034252405167,
      "z": 0.47916272282600403,
      "time_usec": 51315377926
    },
    {
      "x": 9.719047546386719,
      "y": -0.09990034252405167,
      "z": 0.5030909776687622,
      "time_usec": 51315380174
    },
    {
      "x": 9.728020668029785,
      "y": -0.09930214285850525,
      "z": 0.6460621356964111,
      "time_usec": 51315382429
    },
    {
      "x": 9.741181373596191,
      "y": -0.15672987699508667,
      "z": 0.7992027401924133,
      "time_usec": 51315384699
    },
    {
      "x": 9.773484230041504,
      "y": -0.22372891008853912,
      "z": 0.885344386100769,
      "time_usec": 51315386956
    },
    {
      "x": 9.870393753051758,
      "y": -0.3355933725833893,
      "z": 0.42771705985069275,
      "time_usec": 51315389215
    },
    {
      "x": 9.754940032958984,
      "y": -0.267397940158844,
      "z": 0.7992027401924133,
      "time_usec": 51315391461
    },
    {
      "x": 9.541379928588867,
      "y": -0.08853443711996078,
      "z": 0.9655039310455322,
      "time_usec": 51315393714
    },
    {
      "x": 9.370293617248535,
      "y": -0.020338991656899452,
      "z": 0.9499505758285522,
      "time_usec": 51315395983
    },
    {
      "x": 9.390034675598145,
      "y": -0.1501496136188507,
      "z": 0.7399803996086121,
      "time_usec": 51315398242
    },
    {
      "x": 9.422337532043457,
      "y": -0.24107688665390015,
      "z": 0.8309076428413391,
      "time_usec": 51315400501
    },
    {
      "x": 9.42173957824707,
      "y": -0.29371899366378784,
      "z": 0.9122636318206787,
      "time_usec": 51315402753
    },
    {
      "x": 9.407382011413574,
      "y": -0.3032902777194977,
      "z": 0.9170492887496948,
      "time_usec": 51315405012
    },
    {
      "x": 9.378668785095215,
      "y": -0.29371899366378784,
      "z": 0.9068797826766968,
      "time_usec": 51315407270
    },
    {
      "x": 9.379864692687988,
      "y": -0.26979073882102966,
      "z": 0.7926225066184998,
      "time_usec": 51315409525
    },
    {
      "x": 9.355338096618652,
      "y": -0.29850462079048157,
      "z": 0.849452018737793,
      "time_usec": 51315411778
    },
    {
      "x": 9.374481201171875,
      "y": -0.3367897868156433,
      "z": 0.8165507316589355,
      "time_usec": 51315414041
    },
    {
      "x": 9.374481201171875,
      "y": -0.3607180118560791,
      "z": 0.7926225066184998,
      "time_usec": 51315416298
    },
    {
      "x": 9.388837814331055,
      "y": -0.36610186100006104,
      "z": 0.7208378314971924,
      "time_usec": 51315418555
    },
    {
      "x": 9.41755199432373,
      "y": -0.3326023519039154,
      "z": 0.7639086246490479,
      "time_usec": 51315420807
    },
    {
      "x": 9.445667266845703,
      "y": -0.3038884699344635,
      "z": 0.859621524810791,
      "time_usec": 51315423071
    },
    {
      "x": 9.46899700164795,
      "y": -0.2554338276386261,
      "z": 0.9649057388305664,
      "time_usec": 51315425331
    },
    {
      "x": 9.478569030761719,
      "y": -0.20757736265659332,
      "z": 1.0223335027694702,
      "time_usec": 51315427585
    },
    {
      "x": 9.483354568481445,
      "y": -0.15493527054786682,
      "z": 0.9936196208000183,
      "time_usec": 51315429839
    },
    {
      "x": 9.531210899353027,
      "y": -0.18424734473228455,
      "z": 0.8937192559242249,
      "time_usec": 51315432091
    },
    {
      "x": 9.570094108581543,
      "y": -0.24227328598499298,
      "z": 0.7459624409675598,
      "time_usec": 51315434355
    },
    {
      "x": 9.55513858795166,
      "y": -0.28534409403800964,
      "z": 0.7507480978965759,
      "time_usec": 51315436612
    },
    {
      "x": 9.55513858795166,
      "y": -0.357128769159317,
      "z": 0.7692924737930298,
      "time_usec": 51315438869
    },
    {
      "x": 9.54078197479248,
      "y": -0.4097708761692047,
      "z": 0.6693921089172363,
      "time_usec": 51315441122
    },
    {
      "x": 9.531808853149414,
      "y": -0.3858426511287689,
      "z": 0.6741777658462524,
      "time_usec": 51315443384
    },
    {
      "x": 9.54078197479248,
      "y": -0.2997010350227356,
      "z": 0.7692924737930298,
      "time_usec": 51315445637
    },
    {
      "x": 9.58325481414795,
      "y": -0.1986042857170105,
      "z": 0.9750752449035645,
      "time_usec": 51315447899
    },
    {
      "x": 9.644869804382324,
      "y": -0.1704886108636856,
      "z": 1.0803594589233398,
      "time_usec": 51315450154
    },
    {
      "x": 9.696913719177246,
      "y": -0.18963119387626648,
      "z": 1.057029366493225,
      "time_usec": 51315452410
    },
    {
      "x": 9.767501831054688,
      "y": -0.28594231605529785,
      "z": 1.033101201057434,
      "time_usec": 51315454670
    },
    {
      "x": 9.77707290649414,
      "y": -0.3768695592880249,
      "z": 1.0145567655563354,
      "time_usec": 51315456926
    },
    {
      "x": 9.800403594970703,
      "y": -0.44446679949760437,
      "z": 0.9906286001205444,
      "time_usec": 51315459178
    },
    {
      "x": 9.786046028137207,
      "y": -0.511465847492218,
      "z": 0.9427721500396729,
      "time_usec": 51315461432
    },
    {
      "x": 9.738788604736328,
      "y": -0.5497509837150574,
      "z": 0.8901300430297852,
      "time_usec": 51315463693
    },
    {
      "x": 9.7005033493042,
      "y": -0.5300102233886719,
      "z": 0.9134600162506104,
      "time_usec": 51315465956
    },
    {
      "x": 9.704689979553223,
      "y": -0.5300102233886719,
      "z": 1.0618150234222412,
      "time_usec": 51315468215
    },
    {
      "x": 9.736993789672852,
      "y": -0.4863412082195282,
      "z": 1.290927767753601,
      "time_usec": 51315470473
    },
    {
      "x": 9.811769485473633,
      "y": -0.46719861030578613,
      "z": 1.4967105388641357,
      "time_usec": 51315472722
    },
    {
      "x": 9.878170013427734,
      "y": -0.49172505736351013,
      "z": 1.5643078088760376,
      "time_usec": 51315474984
    },
    {
      "x": 9.93978500366211,
      "y": -0.5353940725326538,
      "z": 1.5020943880081177,
      "time_usec": 51315477240
    },
    {
      "x": 9.978070259094238,
      "y": -0.5880361795425415,
      "z": 1.4261223077774048,
      "time_usec": 51315479500
    },
    {
      "x": 10.001998901367188,
      "y": -0.641276478767395,
      "z": 1.3495519161224365,
      "time_usec": 51315481753
    },
    {
      "x": 10.006784439086914,
      "y": -0.6699903607368469,
      "z": 1.2592228651046753,
      "time_usec": 51315484012
    },
    {
      "x": 10.021141052246094,
      "y": -0.6849454641342163,
      "z": 1.1922239065170288,
      "time_usec": 51315486269
    },
    {
      "x": 10.02173900604248,
      "y": -0.6801598072052002,
      "z": 1.1635099649429321,
      "time_usec": 51315488526
    },
    {
      "x": 10.0073823928833,
      "y": -0.6514459848403931,
      "z": 1.1252248287200928,
      "time_usec": 51315490777
    },
    {
      "x": 10.017552375793457,
      "y": -0.6035895347595215,
      "z": 1.0965110063552856,
      "time_usec": 51315493037
    },
    {
      "x": 10.013364791870117,
      "y": -0.5605186820030212,
      "z": 1.0683952569961548,
      "time_usec": 51315495297
    },
    {
      "x": 10.03729248046875,
      "y": -0.5078766345977783,
      "z": 1.0157532691955566,
      "time_usec": 51315497550
    },
    {
      "x": 10.04267692565918,
      "y": -0.46002015471458435,
      "z": 0.9966106414794922,
      "time_usec": 51315499799
    },
    {
      "x": 10.071390151977539,
      "y": -0.41216370463371277,
      "z": 0.9822536706924438,
      "time_usec": 51315502065
    },
    {
      "x": 10.100104331970215,
      "y": -0.388235479593277,
      "z": 0.9541380405426025,
      "time_usec": 51315504327
    },
    {
      "x": 10.119247436523438,
      "y": -0.364905446767807,
      "z": 0.9302098155021667,
      "time_usec": 51315506587
    },
    {
      "x": 10.119845390319824,
      "y": -0.32662028074264526,
      "z": 0.8871390223503113,
      "time_usec": 51315508840
    },
    {
      "x": 10.091131210327148,
      "y": -0.30209386348724365,
      "z": 0.8871390223503113,
      "time_usec": 51315511090
    },
    {
      "x": 10.071989059448242,
      "y": -0.2925225794315338,
      "z": 0.9158528447151184,
      "time_usec": 51315513340
    },
    {
      "x": 10.048060417175293,
      "y": -0.27337998151779175,
      "z": 0.9535398483276367,
      "time_usec": 51315515600
    },
    {
      "x": 10.029516220092773,
      "y": -0.268594354391098,
      "z": 0.9583254456520081,
      "time_usec": 51315517871
    },
    {
      "x": 10.015159606933594,
      "y": -0.2919243574142456,
      "z": 0.9678967595100403,
      "time_usec": 51315520128
    },
    {
      "x": 10.009775161743164,
      "y": -0.3158525824546814,
      "z": 0.9678967595100403,
      "time_usec": 51315522381
    },
    {
      "x": 10.004989624023438,
      "y": -0.349352091550827,
      "z": 0.9774680733680725,
      "time_usec": 51315524637
    },
    {
      "x": 9.990633010864258,
      "y": -0.38285163044929504,
      "z": 1.0157532691955566,
      "time_usec": 51315526885
    },
    {
      "x": 9.965508460998535,
      "y": -0.5838487148284912,
      "z": 1.043868899345398,
      "time_usec": 51315529156
    },
    {
      "x": 10.00439167022705,
      "y": -0.35892340540885925,
      "z": 1.1395817995071411,
      "time_usec": 51315531410
    },
    {
      "x": 9.951749801635742,
      "y": -0.38703906536102295,
      "z": 1.1826525926589966,
      "time_usec": 51315533674
    },
    {
      "x": 9.91825008392334,
      "y": -0.36311084032058716,
      "z": 1.1868400573730469,
      "time_usec": 51315535926
    },
    {
      "x": 9.866804122924805,
      "y": -0.3439682424068451,
      "z": 1.1150553226470947,
      "time_usec": 51315538183
    },
    {
      "x": 9.814760208129883,
      "y": -0.35832518339157104,
      "z": 1.0336993932724,
      "time_usec": 51315540435
    },
    {
      "x": 9.78664493560791,
      "y": -0.36729827523231506,
      "z": 0.9619147181510925,
      "time_usec": 51315542693
    },
    {
      "x": 9.739386558532715,
      "y": -0.3577269911766052,
      "z": 0.9852447509765625,
      "time_usec": 51315544955
    },
    {
      "x": 9.705288887023926,
      "y": -0.33798620104789734,
      "z": 1.0809576511383057,
      "time_usec": 51315547213
    },
    {
      "x": 9.681958198547363,
      "y": -0.31405797600746155,
      "z": 1.113858938217163,
      "time_usec": 51315549468
    },
    {
      "x": 9.644271850585938,
      "y": -0.29012975096702576,
      "z": 1.0660024881362915,
      "time_usec": 51315551717
    },
    {
      "x": 9.601799011230469,
      "y": -0.2757728099822998,
      "z": 1.0085747241973877,
      "time_usec": 51315553984
    },
    {
      "x": 9.578469276428223,
      "y": -0.26560330390930176,
      "z": 0.9463613629341125,
      "time_usec": 51315556241
    },
    {
      "x": 9.535398483276367,
      "y": -0.26081767678260803,
      "z": 0.9463613629341125,
      "time_usec": 51315558500
    },
    {
      "x": 9.497113227844238,
      "y": -0.29431718587875366,
      "z": 0.9744769930839539,
      "time_usec": 51315560752
    },
    {
      "x": 9.473184585571289,
      "y": -0.3080759048461914,
      "z": 1.012762188911438,
      "time_usec": 51315563002
    },
    {
      "x": 9.454042434692383,
      "y": -0.31764721870422363,
      "z": 1.0319048166275024,
      "time_usec": 51315565255
    },
    {
      "x": 9.45882797241211,
      "y": -0.35114672780036926,
      "z": 1.074975609779358,
      "time_usec": 51315567514
    },
    {
      "x": 9.458230018615723,
      "y": -0.37507495284080505,
      "z": 1.0845468044281006,
      "time_usec": 51315569785
    },
    {
      "x": 9.477372169494629,
      "y": -0.39421752095222473,
      "z": 1.0845468044281006,
      "time_usec": 51315572039
    },
    {
      "x": 9.519845008850098,
      "y": -0.4091726839542389,
      "z": 1.0606186389923096,
      "time_usec": 51315574301
    },
    {
      "x": 9.538987159729004,
      "y": -0.39481574296951294,
      "z": 1.0606186389923096,
      "time_usec": 51315576555
    },
    {
      "x": 9.5533447265625,
      "y": -0.39960137009620667,
      "z": 1.0510473251342773,
      "time_usec": 51315578812
    },
    {
      "x": 9.577272415161133,
      "y": -0.39960137009620667,
      "z": 1.0516455173492432,
