{
  "accelerations": [
    {
      "x": 9.89013385772705,
      "y": 0.35413774847984314,
      "z": 0.3858426511287689,
      "time_usec": 54277281862
    },
    {
      "x": 9.899106979370117,
      "y": 0.35892340540885925,
      "z": 0.44805604219436646,
      "time_usec": 54277284115
    },
    {
      "x": 9.89432144165039,
      "y": 0.35413774847984314,
      "z": 0.4289134442806244,
      "time_usec": 54277286363
    },
    {
      "x": 9.908679008483887,
      "y": 0.37806597352027893,
      "z": 0.4624129831790924,
      "time_usec": 54277288631
    },
    {
      "x": 9.899106979370117,
      "y": 0.3732803463935852,
      "z": 0.5150550603866577,
      "time_usec": 54277290878
    },
    {
      "x": 9.903294563293457,
      "y": 0.397208571434021,
      "z": 0.6011967062950134,
      "time_usec": 54277293149
    },
    {
      "x": 9.908080101013184,
      "y": 0.4217349886894226,
      "z": 0.6729813814163208,
      "time_usec": 54277295406
    },
    {
      "x": 9.908080101013184,
      "y": 0.4695914387702942,
      "z": 0.7585247755050659,
      "time_usec": 54277297663
    },
    {
      "x": 9.907482147216797,
      "y": 0.47916272282600403,
      "z": 0.8398807644844055,
      "time_usec": 54277299922
    },
    {
      "x": 9.878767967224121,
      "y": 0.5132604837417603,
      "z": 0.9254241585731506,
      "time_usec": 54277302178
    },
    {
      "x": 9.859625816345215,
      "y": 0.537188708782196,
      "z": 0.9924231767654419,
      "time_usec": 54277304437
    },
    {
      "x": 9.840482711791992,
      "y": 0.5808576941490173,
      "z": 1.0307083129882812,
      "time_usec": 54277306690
    },
    {
      "x": 9.835697174072266,
      "y": 0.5808576941490173,
      "z": 1.1066805124282837,
      "time_usec": 54277308938
    },
    {
      "x": 9.849455833435059,
      "y": 0.6143572330474854,
      "z": 1.164108157157898,
      "time_usec": 54277311208
    },
    {
      "x": 9.849455833435059,
      "y": 0.6095715761184692,
      "z": 1.211964726448059,
      "time_usec": 54277313466
    },
    {
      "x": 9.858428955078125,
      "y": 0.600000262260437,
      "z": 1.2837493419647217,
      "time_usec": 54277315726
    },
    {
      "x": 9.881759643554688,
      "y": 0.5760720372200012,
      "z": 1.3268201351165771,
      "time_usec": 54277317980
    },
    {
      "x": 9.89133071899414,
      "y": 0.6143572330474854,
      "z": 1.3651052713394165,
      "time_usec": 54277320237
    },
    {
      "x": 9.90568733215332,
      "y": 0.6047859191894531,
      "z": 1.3603196144104004,
      "time_usec": 54277322495
    },
    {
      "x": 9.919445991516113,
      "y": 0.5904290080070496,
      "z": 1.3986048698425293,
      "time_usec": 54277324749
    },
    {
      "x": 9.947562217712402,
      "y": 0.5760720372200012,
      "z": 1.4321043491363525,
      "time_usec": 54277326996
    },
    {
      "x": 9.957133293151855,
      "y": 0.5617151260375977,
      "z": 1.4368900060653687,
      "time_usec": 54277329267
    },
    {
      "x": 9.923633575439453,
      "y": 0.5473581552505493,
      "z": 1.4177473783493042,
      "time_usec": 54277331523
    },
    {
      "x": 9.952347755432129,
      "y": 0.5132604837417603,
      "z": 1.3800604343414307,
      "time_usec": 54277333771
    },
    {
      "x": 9.948160171508789,
      "y": 0.5132604837417603,
      "z": 1.3130614757537842,
      "time_usec": 54277336026
    },
    {
      "x": 9.957731246948242,
      "y": 0.4989035129547119,
      "z": 1.2604193687438965,
      "time_usec": 54277338296
    },
    {
      "x": 9.92961597442627,
      "y": 0.4941178858280182,
      "z": 1.1982059478759766,
      "time_usec": 54277340556
    },
    {
      "x": 9.920044898986816,
      "y": 0.45583271980285645,
      "z": 1.1599208116531372,
      "time_usec": 54277342812
    },
    {
      "x": 9.924830436706543,
      "y": 0.43190449476242065,
      "z": 1.1120643615722656,
      "time_usec": 54277345054
    },
    {
      "x": 9.872786521911621,
      "y": 0.42711883783340454,
      "z": 1.083350419998169,
      "time_usec": 54277347311
    },
    {
      "x": 9.839884757995605,
      "y": 0.3936193287372589,
      "z": 1.0259226560592651,
      "time_usec": 54277349577
    },
    {
      "x": 9.787840843200684,
      "y": 0.39421752095222473,
      "z": 0.9678967595100403,
      "time_usec": 54277351841
    },
    {
      "x": 9.76391315460205,
      "y": 0.37507495284080505,
      "z": 0.9152546525001526,
      "time_usec": 54277354090
    },
    {
      "x": 9.735796928405762,
      "y": 0.3798605799674988,
      "z": 0.8913264274597168,
      "time_usec": 54277356357
    },
    {
      "x": 9.688538551330566,
      "y": 0.3798605799674988,
      "z": 0.8578268885612488,
      "time_usec": 54277358613
    },
    {
      "x": 9.674181938171387,
      "y": 0.3798605799674988,
      "z": 0.8195417523384094,
      "time_usec": 54277360873
    },
    {
      "x": 9.669994354248047,
      "y": 0.3607180118560791,
      "z": 0.7860422134399414,
      "time_usec": 54277363128
    },
    {
      "x": 9.655637741088867,
      "y": 0.37507495284080505,
      "z": 0.7525427341461182,
      "time_usec": 54277365385
    },
    {
      "x": 9.626923561096191,
      "y": 0.3798605799674988,
      "z": 0.7908278703689575,
      "time_usec": 54277367640
    },
    {
      "x": 9.622138023376465,
      "y": 0.3846462368965149,
      "z": 0.7908278703689575,
      "time_usec": 54277369899
    },
    {
      "x": 9.594022750854492,
      "y": 0.4091726839542389,
      "z": 0.8093722462654114,
      "time_usec": 54277372156
    },
    {
      "x": 9.570094108581543,
      "y": 0.4091726839542389,
      "z": 0.8428717851638794,
      "time_usec": 54277374410
    },
    {
      "x": 9.584450721740723,
      "y": 0.4139583110809326,
      "z": 0.8380861282348633,
      "time_usec": 54277376659
    },
    {
      "x": 9.593423843383789,
      "y": 0.4043870270252228,
      "z": 0.8668000102043152,
      "time_usec": 54277378929
    },
    {
      "x": 9.593423843383789,
      "y": 0.4091726839542389,
      "z": 0.9050851464271545,
      "time_usec": 54277381187
    },
    {
      "x": 9.583852767944336,
      "y": 0.41874396800994873,
      "z": 0.9577272534370422,
      "time_usec": 54277383444
    },
    {
      "x": 9.574281692504883,
      "y": 0.41934216022491455,
      "z": 0.9960124492645264,
      "time_usec": 54277385689
    },
    {
      "x": 9.573683738708496,
      "y": 0.4001995921134949,
      "z": 1.0480563640594482,
      "time_usec": 54277387952
    },
    {
      "x": 9.564111709594727,
      "y": 0.39062830805778503,
      "z": 1.0815558433532715,
      "time_usec": 54277390207
    },
    {
      "x": 9.56351375579834,
      "y": 0.39062830805778503,
      "z": 1.129412293434143,
      "time_usec": 54277392476
    },
    {
      "x": 9.535398483276367,
      "y": 0.42412781715393066,
      "z": 1.153340458869934,
      "time_usec": 54277394731
    },
    {
      "x": 9.534799575805664,
      "y": 0.4295116662979126,
      "z": 1.210170030593872,
      "time_usec": 54277396985
    },
    {
      "x": 9.530014038085938,
      "y": 0.43908295035362244,
      "z": 1.2532408237457275,
      "time_usec": 54277399245
    },
    {
      "x": 9.525228500366211,
      "y": 0.4582255482673645,
      "z": 1.2867404222488403,
      "time_usec": 54277401504
    },
    {
      "x": 9.530014038085938,
      "y": 0.46779683232307434,
      "z": 1.3058829307556152,
      "time_usec": 54277403766
    },
    {
      "x": 9.501300811767578,
      "y": 0.47258245944976807,
      "z": 1.3106685876846313,
      "time_usec": 54277406010
    },
    {
      "x": 9.492327690124512,
      "y": 0.46779683232307434,
      "z": 1.2675977945327759,
      "time_usec": 54277408266
    },
    {
      "x": 9.473184585571289,
      "y": 0.4582255482673645,
      "z": 1.2340983152389526,
      "time_usec": 54277410530
    },
    {
      "x": 9.487542152404785,
      "y": 0.4582255482673645,
      "z": 1.1910275220870972,
      "time_usec": 54277412786
    },
    {
      "x": 9.46899700164795,
      "y": 0.44386860728263855,
      "z": 1.1575279235839844,
      "time_usec": 54277415041
    },
    {
      "x": 9.478569030761719,
      "y": 0.4342973232269287,
      "z": 1.1383854150772095,
      "time_usec": 54277417296
    },
    {
      "x": 9.492925643920898,
      "y": 0.43908295035362244,
      "z": 1.119242787361145,
      "time_usec": 54277419550
    },
    {
      "x": 9.497711181640625,
      "y": 0.4534398913383484,
      "z": 1.0815558433532715,
      "time_usec": 54277421822
    },
    {
      "x": 9.507282257080078,
      "y": 0.47676992416381836,
      "z": 1.0719845294952393,
      "time_usec": 54277424077
    },
    {
      "x": 9.535996437072754,
      "y": 0.46719861030578613,
      "z": 1.057627558708191,
      "time_usec": 54277426332
    },
    {
      "x": 9.545567512512207,
      "y": 0.4815555512905121,
      "z": 1.0049854516983032,
      "time_usec": 54277428591
    },
    {
      "x": 9.559925079345703,
      "y": 0.5054838061332703,
      "z": 1.0049854516983032,
      "time_usec": 54277430850
    },
    {
      "x": 9.569496154785156,
      "y": 0.5102694034576416,
      "z": 1.0001999139785767,
      "time_usec": 54277433111
    },
    {
      "x": 9.57906723022461,
      "y": 0.5198407173156738,
      "z": 0.9912267923355103,
      "time_usec": 54277435363
    },
    {
      "x": 9.570094108581543,
      "y": 0.5006981492042542,
      "z": 0.9625129103660583,
      "time_usec": 54277437618
    },
    {
      "x": 9.570094108581543,
      "y": 0.4911268353462219,
      "z": 0.9481559991836548,
      "time_usec": 54277439879
    },
    {
      "x": 9.57487964630127,
      "y": 0.4570291340351105,
      "z": 0.9002995491027832,
      "time_usec": 54277442136
    },
    {
      "x": 9.584450721740723,
      "y": 0.4331009089946747,
      "z": 0.8524430394172668,
      "time_usec": 54277444393
    },
    {
      "x": 9.584450721740723,
      "y": 0.4618147611618042,
      "z": 0.8237292170524597,
      "time_usec": 54277446645
    },
    {
      "x": 9.594022750854492,
      "y": 0.4618147611618042,
      "z": 0.8045865893363953,
      "time_usec": 54277448908
    },
    {
      "x": 9.632308006286621,
      "y": 0.4713860750198364,
      "z": 0.8195417523384094,
      "time_usec": 54277451165
    },
    {
      "x": 9.617950439453125,
      "y": 0.47617170214653015,
      "z": 0.828514814376831,
      "time_usec": 54277453420
    },
    {
      "x": 9.65085220336914,
      "y": 0.519242525100708,
      "z": 0.867398202419281,
      "time_usec": 54277455666
    },
    {
      "x": 9.66520881652832,
      "y": 0.5527420043945312,
      "z": 0.8817551732063293,
      "time_usec": 54277457934
    },
    {
      "x": 9.68913745880127,
      "y": 0.5617151260375977,
      "z": 0.9104689955711365,
      "time_usec": 54277460195
    },
    {
      "x": 9.731609344482422,
      "y": 0.600000262260437,
      "z": 0.9391828775405884,
      "time_usec": 54277462456
    },
    {
      "x": 9.727422714233398,
      "y": 0.6047859191894531,
      "z": 0.9343972206115723,
      "time_usec": 54277464710
    },
    {
      "x": 9.731609344482422,
      "y": 0.6047859191894531,
      "z": 0.9535398483276367,
      "time_usec": 54277466962
    },
    {
      "x": 9.750752449035645,
      "y": 0.6047859191894531,
      "z": 0.9439685344696045,
      "time_usec": 54277469224
    },
    {
      "x": 9.708279609680176,
      "y": 0.5760720372200012,
      "z": 0.9200403094291687,
      "time_usec": 54277471482
    },
    {
      "x": 9.708279609680176,
      "y": 0.5521438121795654,
      "z": 0.900897741317749,
      "time_usec": 54277473740
    },
    {
      "x": 9.693922996520996,
      "y": 0.5330012440681458,
      "z": 0.8865407705307007,
      "time_usec": 54277475991
    },
    {
      "x": 9.6795654296875,
      "y": 0.5042873620986938,
      "z": 0.8721838593482971,
      "time_usec": 54277478249
    },
    {
      "x": 9.693324089050293,
      "y": 0.4612165689468384,
      "z": 0.8721838593482971,
      "time_usec": 54277480511
    },
    {
      "x": 9.712467193603516,
      "y": 0.4420739710330963,
      "z": 0.8291130661964417,
      "time_usec": 54277482766
    },
    {
      "x": 9.722038269042969,
      "y": 0.4420739710330963,
      "z": 0.833898663520813,
      "time_usec": 54277485024
    },
    {
      "x": 9.726823806762695,
      "y": 0.4325026869773865,
      "z": 0.833898663520813,
      "time_usec": 54277487268
    },
    {
      "x": 9.750752449035645,
      "y": 0.39840495586395264,
      "z": 0.7818548083305359,
      "time_usec": 54277489527
    },
    {
      "x": 9.750154495239258,
      "y": 0.3888336718082428,
      "z": 0.8536394834518433,
      "time_usec": 54277491789
    },
    {
      "x": 9.751350402832031,
      "y": 0.4366901218891144,
      "z": 0.7244270443916321,
      "time_usec": 54277494059
    },
    {
      "x": 9.745368003845215,
      "y": 0.39900317788124084,
      "z": 0.867398202419281,
      "time_usec": 54277496309
    },
    {
      "x": 9.704092025756836,
      "y": 0.45583271980285645,
      "z": 0.6813562512397766,
      "time_usec": 54277498562
    },
    {
      "x": 9.712467193603516,
      "y": 0.4420739710330963,
      "z": 0.8243274092674255,
      "time_usec": 54277500826
    },
    {
      "x": 9.6795654296875,
      "y": 0.4420739710330963,
      "z": 0.8195417523384094,
      "time_usec": 54277503083
    },
    {
      "x": 9.684351921081543,
      "y": 0.4420739710330963,
      "z": 0.7621139883995056,
      "time_usec": 54277505344
    },
    {
      "x": 9.660423278808594,
      "y": 0.42771705985069275,
      "z": 0.8721838593482971,
      "time_usec": 54277507596
    },
    {
      "x": 9.65085220336914,
      "y": 0.40378883481025696,
      "z": 0.8434699773788452,
      "time_usec": 54277509863
    },
    {
      "x": 9.641280174255371,
      "y": 0.4133601188659668,
      "z": 0.9002995491027832,
      "time_usec": 54277512116
    },
    {
      "x": 9.626325607299805,
      "y": 0.3900300860404968,
      "z": 0.924227774143219,
      "time_usec": 54277514372
    },
    {
      "x": 9.645467758178711,
      "y": 0.37028929591178894,
      "z": 0.9050851464271545,
      "time_usec": 54277516624
    },
    {
      "x": 9.673583984375,
      "y": 0.3415754437446594,
      "z": 0.9439685344696045,
      "time_usec": 54277518886
    },
    {
      "x": 9.673583984375,
      "y": 0.3367897868156433,
      "z": 0.9631111025810242,
      "time_usec": 54277521140
    },
    {
      "x": 9.659226417541504,
      "y": 0.31764721870422363,
      "z": 0.9864411354064941,
      "time_usec": 54277523402
    },
    {
      "x": 9.668798446655273,
      "y": 0.3128615617752075,
      "z": 1.0103694200515747,
      "time_usec": 54277525649
    },
    {
      "x": 9.696913719177246,
      "y": 0.3080759048461914,
      "z": 1.0109676122665405,
      "time_usec": 54277527905
    },
    {
      "x": 9.716055870056152,
      "y": 0.28893333673477173,
      "z": 1.0109676122665405,
      "time_usec": 54277530175
    },
    {
      "x": 9.758528709411621,
      "y": 0.3026920557022095,
      "z": 0.98703932762146,
      "time_usec": 54277532433
    },
    {
      "x": 9.768698692321777,
      "y": 0.3170489966869354,
      "z": 0.9678967595100403,
      "time_usec": 54277534691
    },
    {
      "x": 9.806385040283203,
      "y": 0.29790642857551575,
      "z": 0.9302098155021667,
      "time_usec": 54277536941
    },
    {
      "x": 9.811769485473633,
      "y": 0.3122633695602417,
      "z": 0.9014959335327148,
      "time_usec": 54277539204
    },
    {
      "x": 9.79262638092041,
      "y": 0.3074777126312256,
      "z": 0.906281590461731,
      "time_usec": 54277541461
    },
    {
      "x": 9.801599502563477,
      "y": 0.3026920557022095,
      "z": 0.9206385016441345,
      "time_usec": 54277543717
    },
    {
      "x": 9.787840843200684,
      "y": 0.29312077164649963,
      "z": 0.9158528447151184,
      "time_usec": 54277545963
    },
    {
      "x": 9.783055305480957,
      "y": 0.29790642857551575,
      "z": 0.9158528447151184,
      "time_usec": 54277548226
    },
    {
      "x": 9.768698692321777,
      "y": 0.2883351147174835,
      "z": 0.9391828775405884,
      "time_usec": 54277550478
    },
    {
      "x": 9.754341125488281,
      "y": 0.27397820353507996,
      "z": 0.9391828775405884,
      "time_usec": 54277552748
    },
    {
      "x": 9.748957633972168,
      "y": 0.259621262550354,
      "z": 0.9678967595100403,
      "time_usec": 54277554992
    },
    {
      "x": 9.748957633972168,
      "y": 0.2356930375099182,
      "z": 0.9535398483276367,
      "time_usec": 54277557261
    },
    {
      "x": 9.720842361450195,
      "y": 0.24586252868175507,
      "z": 0.9487541913986206,
      "time_usec": 54277559519
    },
    {
      "x": 9.748957633972168,
      "y": 0.24526432156562805,
      "z": 0.9678967595100403,
      "time_usec": 54277561777
    },
    {
      "x": 9.730413436889648,
      "y": 0.25064817070961,
      "z": 0.9583254456520081,
      "time_usec": 54277564038
    },
    {
      "x": 9.739984512329102,
      "y": 0.27397820353507996,
      "z": 0.9487541913986206,
      "time_usec": 54277566286
    },
    {
      "x": 9.739984512329102,
      "y": 0.3080759048461914,
      "z": 0.9439685344696045,
      "time_usec": 54277568541
    },
    {
      "x": 9.731011390686035,
      "y": 0.3415754437446594,
      "z": 0.9343972206115723,
      "time_usec": 54277570809
    },
    {
      "x": 9.749555587768555,
      "y": 0.37028929591178894,
      "z": 0.9678967595100403,
      "time_usec": 54277573067
    },
    {
      "x": 9.773484230041504,
      "y": 0.40319061279296875,
      "z": 0.9631111025810242,
      "time_usec": 54277575323
    },
    {
      "x": 9.787840843200684,
      "y": 0.43190449476242065,
      "z": 0.9918249845504761,
      "time_usec": 54277577570
    },
    {
      "x": 9.654440879821777,
      "y": 0.4043870270252228,
      "z": 1.0151549577713013,
      "time_usec": 54277579821
    },
    {
      "x": 9.954142570495605,
      "y": 0.48873403668403625,
      "z": 1.0504491329193115,
      "time_usec": 54277582083
    },
    {
      "x": 9.958928108215332,
      "y": 0.5030909776687622,
      "z": 1.0408778190612793,
      "time_usec": 54277584353
    },
    {
      "x": 9.768698692321777,
      "y": 0.4085744619369507,
      "z": 1.0348957777023315,
      "time_usec": 54277586607
    },
    {
      "x": 9.844670295715332,
      "y": 0.40797626972198486,
      "z": 1.0450652837753296,
      "time_usec": 54277588869
    },
    {
      "x": 9.915857315063477,
      "y": 0.40319061279296875,
      "z": 1.0354939699172974,
      "time_usec": 54277591120
    },
    {
      "x": 9.853643417358398,
      "y": 0.3840480446815491,
      "z": 1.0498509407043457,
      "time_usec": 54277593371
    },
    {
      "x": 9.829715728759766,
      "y": 0.37926238775253296,
      "z": 1.0546365976333618,
      "time_usec": 54277595637
    },
    {
      "x": 9.868000984191895,
      "y": 0.3840480446815491,
      "z": 1.1072787046432495,
      "time_usec": 54277597891
    },
    {
      "x": 9.877572059631348,
      "y": 0.39840495586395264,
      "z": 1.1024930477142334,
      "time_usec": 54277600156
    },
    {
      "x": 9.844072341918945,
      "y": 0.4223332107067108,
      "z": 1.1353943347930908,
      "time_usec": 54277602412
    },
    {
      "x": 9.881759643554688,
      "y": 0.4223332107067108,
      "z": 1.1407781839370728,
      "time_usec": 54277604668
    },
    {
      "x": 9.915258407592773,
      "y": 0.4414757788181305,
      "z": 1.1407781839370728,
      "time_usec": 54277606921
    },
    {
      "x": 9.896714210510254,
      "y": 0.4366901218891144,
      "z": 1.1168500185012817,
      "time_usec": 54277609169
    },
    {
      "x": 9.920044898986816,
      "y": 0.45583271980285645,
      "z": 1.1072787046432495,
      "time_usec": 54277611430
    },
    {
      "x": 9.934401512145996,
      "y": 0.46061834692955017,
      "z": 1.1072787046432495,
      "time_usec": 54277613698
    },
    {
      "x": 9.953543663024902,
      "y": 0.46061834692955017,
      "z": 1.1264212131500244,
      "time_usec": 54277615953
    },
    {
      "x": 9.939187049865723,
      "y": 0.42711883783340454,
      "z": 1.1024930477142334,
      "time_usec": 54277618211
    },
    {
      "x": 9.92542839050293,
      "y": 0.4265206456184387,
      "z": 1.0402796268463135,
      "time_usec": 54277620471
    },
    {
      "x": 9.90149974822998,
      "y": 0.43190449476242065,
      "z": 1.0211371183395386,
      "time_usec": 54277622728
    },
    {
      "x": 9.896714210510254,
      "y": 0.40797626972198486,
      "z": 1.0067801475524902,
      "time_usec": 54277624984
    },
    {
      "x": 9.878170013427734,
      "y": 0.40319061279296875,
      "z": 0.9876375198364258,
      "time_usec": 54277627236
    },
    {
      "x": 9.887741088867188,
      "y": 0.40797626972198486,
      "z": 0.96370929479599,
      "time_usec": 54277629496
    },
    {
      "x": 9.868598937988281,
      "y": 0.40797626972198486,
      "z": 0.9445667266845703,
      "time_usec": 54277631744
    },
    {
      "x": 9.859027862548828,
      "y": 0.4175475537776947,
      "z": 0.9541380405426025,
      "time_usec": 54277634014
    },
    {
      "x": 9.835697174072266,
      "y": 0.4366901218891144,
      "z": 0.9589236974716187,
      "time_usec": 54277636267
    },
    {
      "x": 9.80219841003418,
      "y": 0.42711883783340454,
      "z": 0.9397810697555542,
      "time_usec": 54277638532
    },
    {
      "x": 9.769296646118164,
      "y": 0.4420739710330963,
      "z": 0.9343972206115723,
      "time_usec": 54277640781
    },
    {
      "x": 9.716654777526855,
      "y": 0.4420739710330963,
      "z": 0.9296116232872009,
      "time_usec": 54277643042
    },
    {
      "x": 9.664610862731934,
      "y": 0.44745782017707825,
      "z": 0.9391828775405884,
      "time_usec": 54277645287
    },
    {
      "x": 9.645467758178711,
      "y": 0.4426721930503845,
      "z": 0.9625129103660583,
      "time_usec": 54277647555
    },
    {
      "x": 9.659825325012207,
      "y": 0.4618147611618042,
      "z": 0.981655478477478,
      "time_usec": 54277649818
    },
    {
      "x": 9.65503978729248,
      "y": 0.4618147611618042,
      "z": 1.0199406147003174,
      "time_usec": 54277652086
    },
    {
      "x": 9.66939640045166,
      "y": 0.48574298620224,
      "z": 1.0390832424163818,
      "time_usec": 54277654337
    },
    {
      "x": 9.65503978729248,
      "y": 0.5144568681716919,
      "z": 1.0869396924972534,
      "time_usec": 54277656581
    },
    {
      "x": 9.673583984375,
      "y": 0.5144568681716919,
      "z": 1.1060823202133179,
      "time_usec": 54277658829
    },
    {
      "x": 9.68794059753418,
      "y": 0.5240281820297241,
      "z": 1.1204391717910767,
      "time_usec": 54277661095
    },
    {
      "x": 9.711869239807129,
      "y": 0.5383850932121277,
      "z": 1.134796142578125,
      "time_usec": 54277663361
    },
    {
      "x": 9.711869239807129,
      "y": 0.5240281820297241,
      "z": 1.1395817995071411,
      "time_usec": 54277665620
    },
    {
      "x": 9.721440315246582,
      "y": 0.5144568681716919,
      "z": 1.1252248287200928,
      "time_usec": 54277667871
    },
    {
      "x": 9.739984512329102,
      "y": 0.5042873620986938,
      "z": 1.1162517070770264,
      "time_usec": 54277670129
    },
    {
      "x": 9.749555587768555,
      "y": 0.4899304509162903,
      "z": 1.1162517070770264,
      "time_usec": 54277672377
    },
    {
      "x": 9.76391315460205,
      "y": 0.48035913705825806,
      "z": 1.077966570854187,
      "time_usec": 54277674648
    },
    {
      "x": 9.759127616882324,
      "y": 0.48514479398727417,
      "z": 1.054038405418396,
      "time_usec": 54277676899
    },
    {
      "x": 9.768698692321777,
      "y": 0.45643091201782227,
      "z": 1.0253244638442993,
      "time_usec": 54277679165
    },
    {
      "x": 9.740582466125488,
      "y": 0.48035913705825806,
      "z": 1.0013962984085083,
      "time_usec": 54277681419
    },
    {
      "x": 9.754940032958984,
      "y": 0.47557350993156433,
      "z": 0.98703932762146,
      "time_usec": 54277683678
    },
    {
      "x": 9.754940032958984,
      "y": 0.5042873620986938,
      "z": 0.9774680733680725,
      "time_usec": 54277685932
    },
    {
      "x": 9.750154495239258,
      "y": 0.5042873620986938,
      "z": 0.9678967595100403,
      "time_usec": 54277688186
    },
    {
      "x": 9.750154495239258,
      "y": 0.5138586759567261,
      "z": 0.9774680733680725,
      "time_usec": 54277690449
    },
    {
      "x": 9.736394882202148,
      "y": 0.5138586759567261,
      "z": 0.9678967595100403,
      "time_usec": 54277692708
    },
    {
      "x": 9.722038269042969,
      "y": 0.5282155871391296,
      "z": 0.9631111025810242,
      "time_usec": 54277694964
    },
    {
      "x": 9.712467193603516,
      "y": 0.5042873620986938,
      "z": 0.9726824164390564,
      "time_usec": 54277697216
    },
    {
      "x": 9.698110580444336,
      "y": 0.4660021960735321,
      "z": 0.9631111025810242,
      "time_usec": 54277699478
    },
    {
      "x": 9.664610862731934,
      "y": 0.4420739710330963,
      "z": 0.9391828775405884,
      "time_usec": 54277701735
    },
    {
      "x": 9.616754531860352,
      "y": 0.4043870270252228,
      "z": 0.9577272534370422,
      "time_usec": 54277703991
    },
    {
      "x": 9.588638305664062,
      "y": 0.3852444589138031,
      "z": 0.9337990283966064,
      "time_usec": 54277706245
    },
    {
      "x": 9.531210899353027,
      "y": 0.3565305769443512,
      "z": 0.9379864931106567,
      "time_usec": 54277708508
    },
    {
      "x": 9.503094673156738,
      "y": 0.3523431420326233,
      "z": 0.9427721500396729,
      "time_usec": 54277710767
    },
    {
      "x": 9.492925643920898,
      "y": 0.3188436031341553,
      "z": 0.9619147181510925,
      "time_usec": 54277713025
    },
    {
      "x": 9.516854286193848,
      "y": 0.3044866919517517,
      "z": 0.9571290612220764,
      "time_usec": 54277715279
    },
    {
      "x": 9.43609619140625,
      "y": 0.31405797600746155,
      "z": 0.9332008361816406,
      "time_usec": 54277717531
    },
    {
      "x": 9.54078197479248,
      "y": 0.3038884699344635,
      "z": 0.9236295223236084,
      "time_usec": 54277719789
    },
    {
      "x": 9.569496154785156,
      "y": 0.2991028428077698,
      "z": 0.9050851464271545,
      "time_usec": 54277722044
    },
    {
      "x": 9.521639823913574,
      "y": 0.275174617767334,
      "z": 0.8997012972831726,
      "time_usec": 54277724308
    },
    {
      "x": 9.531210899353027,
      "y": 0.275174617767334,
      "z": 0.8859425783157349,
      "time_usec": 54277726554
    },
    {
      "x": 9.54078197479248,
      "y": 0.26081767678260803,
      "z": 0.9050851464271545,
      "time_usec": 54277728813
    },
    {
      "x": 9.512067794799805,
      "y": 0.2273181527853012,
      "z": 0.8614161610603333,
      "time_usec": 54277731068
    },
    {
      "x": 9.502496719360352,
      "y": 0.24167509377002716,
      "z": 0.8662018179893494,
      "time_usec": 54277733327
    },
    {
      "x": 9.479166984558105,
      "y": 0.23748764395713806,
      "z": 0.8709874153137207,
      "time_usec": 54277735584
    },
    {
      "x": 9.488140106201172,
      "y": 0.23270200192928314,
      "z": 0.8805587291717529,
      "time_usec": 54277737841
    },
    {
      "x": 9.507282257080078,
      "y": 0.23688943684101105,
      "z": 0.8757730722427368,
      "time_usec": 54277740099
    },
    {
      "x": 9.5264253616333,
      "y": 0.2225325107574463,
      "z": 0.8997012972831726,
      "time_usec": 54277742356
    },
    {
      "x": 9.56889820098877,
      "y": 0.2273181527853012,
      "z": 0.924227774143219,
      "time_usec": 54277744616
    },
    {
      "x": 9.601799011230469,
      "y": 0.2225325107574463,
      "z": 0.9433703422546387,
      "time_usec": 54277746883
    },
    {
      "x": 9.640084266662598,
      "y": 0.2315055876970291,
      "z": 0.9577272534370422,
      "time_usec": 54277749141
    },
    {
      "x": 9.67777156829834,
      "y": 0.2315055876970291,
      "z": 0.981655478477478,
      "time_usec": 54277751389
    },
    {
      "x": 9.687342643737793,
      "y": 0.24107688665390015,
      "z": 0.9726824164390564,
      "time_usec": 54277753657
    },
    {
      "x": 9.69212818145752,
      "y": 0.2602194547653198,
      "z": 0.9391828775405884,
      "time_usec": 54277755910
    },
    {
      "x": 9.668798446655273,
      "y": 0.23629122972488403,
      "z": 0.9296116232872009,
      "time_usec": 54277758162
    },
    {
      "x": 9.654440879821777,
      "y": 0.26500511169433594,
      "z": 0.900897741317749,
      "time_usec": 54277760428
    },
    {
      "x": 9.654440879821777,
      "y": 0.25064817070961,
      "z": 0.9056833982467651,
      "time_usec": 54277762686
    },
    {
      "x": 9.635896682739258,
      "y": 0.28893333673477173,
      "z": 0.8859425783157349,
      "time_usec": 54277764946
    },
    {
      "x": 9.645467758178711,
      "y": 0.29850462079048157,
      "z": 0.8865407705307007,
      "time_usec": 54277767195
    },
    {
      "x": 9.635896682739258,
      "y": 0.29371899366378784,
      "z": 0.867398202419281,
      "time_usec": 54277769458
    },
    {
      "x": 9.612566947937012,
      "y": 0.33738797903060913,
      "z": 0.8524430394172668,
      "time_usec": 54277771715
    },
    {
      "x": 9.636494636535645,
      "y": 0.3320041298866272,
      "z": 0.833898663520813,
      "time_usec": 54277773972
    },
    {
      "x": 9.650253295898438,
      "y": 0.3032902777194977,
      "z": 0.8482556343078613,
      "time_usec": 54277776225
    },
    {
      "x": 9.640682220458984,
      "y": 0.31764721870422363,
      "z": 0.8578268885612488,
      "time_usec": 54277778487
    },
    {
      "x": 9.65503978729248,
      "y": 0.29371899366378784,
      "z": 0.8721838593482971,
      "time_usec": 54277780741
    },
    {
      "x": 9.65503978729248,
      "y": 0.3128615617752075,
      "z": 0.8865407705307007,
      "time_usec": 54277782989
    },
    {
      "x": 9.659825325012207,
      "y": 0.29850462079048157,
      "z": 0.8721838593482971,
      "time_usec": 54277785246
    },
    {
      "x": 9.683155059814453,
      "y": 0.2841476798057556,
      "z": 0.8913264274597168,
      "time_usec": 54277787510
    },
    {
      "x": 9.668798446655273,
      "y": 0.26979073882102966,
      "z": 0.9104689955711365,
      "time_usec": 54277789765
    },
    {
      "x": 9.678369522094727,
      "y": 0.2554338276386261,
      "z": 0.8817551732063293,
      "time_usec": 54277792035
    },
    {
      "x": 9.692726135253906,
      "y": 0.2793620526790619,
      "z": 0.8817551732063293,
      "time_usec": 54277794289
    },
    {
      "x": 9.711869239807129,
      "y": 0.29371899366378784,
      "z": 0.8626125454902649,
      "time_usec": 54277796546
    },
    {
      "x": 9.731011390686035,
      "y": 0.2835494875907898,
      "z": 0.867398202419281,
      "time_usec": 54277798811
    },
    {
      "x": 9.735796928405762,
      "y": 0.3026920557022095,
      "z": 0.8434699773788452,
      "time_usec": 54277801064
    },
    {
      "x": 9.754940032958984,
      "y": 0.3122633695602417,
      "z": 0.8632107973098755,
      "time_usec": 54277803320
    },
    {
      "x": 9.764511108398438,
      "y": 0.32662028074264526,
      "z": 0.8632107973098755,
      "time_usec": 54277805573
    },
    {
      "x": 9.759725570678711,
      "y": 0.3409772217273712,
      "z": 0.877567708492279,
      "time_usec": 54277807825
    },
    {
      "x": 9.759725570678711,
      "y": 0.3696911036968231,
      "z": 0.8919246196746826,
      "time_usec": 54277810082
    },
    {
      "x": 9.735796928405762,
      "y": 0.34636107087135315,
      "z": 0.9152546525001526,
      "time_usec": 54277812345
    },
    {
      "x": 9.735198974609375,
      "y": 0.29850462079048157,
      "z": 0.9343972206115723,
      "time_usec": 54277814593
    },
    {
      "x": 9.735198974609375,
      "y": 0.2841476798057556,
      "z": 0.9726824164390564,
      "time_usec": 54277816863
    },
    {
      "x": 9.715457916259766,
      "y": 0.2602194547653198,
      "z": 1.0157532691955566,
      "time_usec": 54277819121
    },
    {
      "x": 9.710672378540039,
      "y": 0.24107688665390015,
      "z": 1.0348957777023315,
      "time_usec": 54277821381
    },
    {
      "x": 9.677172660827637,
      "y": 0.23629122972488403,
      "z": 1.072582721710205,
      "time_usec": 54277823636
    },
    {
      "x": 9.701101303100586,
      "y": 0.24107688665390015,
      "z": 1.067797064781189,
      "time_usec": 54277825891
    },
    {
      "x": 9.681958198547363,
      "y": 0.2315055876970291,
      "z": 1.067797064781189,
      "time_usec": 54277828145
    },
    {
      "x": 9.65384292602539,
      "y": 0.23688943684101105,
      "z": 1.0534402132034302,
      "time_usec": 54277830407
    },
    {
      "x": 9.634700775146484,
      "y": 0.27038896083831787,
      "z": 1.0342975854873657,
      "time_usec": 54277832661
    },
    {
      "x": 9.634700775146484,
      "y": 0.26560330390930176,
      "z": 1.0342975854873657,
      "time_usec": 54277834910
    },
    {
      "x": 9.620942115783691,
      "y": 0.29431718587875366,
      "z": 0.9720842242240906,
      "time_usec": 54277837176
    },
    {
      "x": 9.625727653503418,
      "y": 0.3326023519039154,
      "z": 0.9720842242240906,
      "time_usec": 54277839437
    },
    {
      "x": 9.635298728942871,
      "y": 0.31824541091918945,
      "z": 0.9625129103660583,
      "time_usec": 54277841697
    },
    {
      "x": 9.630513191223145,
      "y": 0.34217363595962524,
      "z": 1.0055837631225586,
      "time_usec": 54277843951
    },
    {
      "x": 9.654440879821777,
      "y": 0.3565305769443512,
      "z": 1.0630114078521729,
      "time_usec": 54277846204
    },
    {
      "x": 9.67777156829834,
      "y": 0.3852444589138031,
      "z": 1.1156535148620605,
      "time_usec": 54277848466
    },
    {
      "x": 9.739386558532715,
      "y": 0.3846462368965149,
      "z": 1.1730812788009644,
      "time_usec": 54277850724
    },
    {
      "x": 9.77707290649414,
      "y": 0.37028929591178894,
      "z": 1.207179069519043,
      "time_usec": 54277852980
    },
    {
      "x": 9.80518913269043,
      "y": 0.3798605799674988,
      "z": 1.2406785488128662,
      "time_usec": 54277855225
    },
    {
      "x": 9.838688850402832,
      "y": 0.355932354927063,
      "z": 1.231107234954834,
      "time_usec": 54277857480
    },
    {
      "x": 9.872187614440918,
      "y": 0.3696911036968231,
      "z": 1.2215359210968018,
      "time_usec": 54277859741
    },
    {
      "x": 9.876974105834961,
      "y": 0.37926238775253296,
      "z": 1.179063320159912,
      "time_usec": 54277862013
    },
    {
      "x": 9.876974105834961,
      "y": 0.37447673082351685,
      "z": 1.179063320159912,
      "time_usec": 54277864270
    },
    {
      "x": 9.886545181274414,
      "y": 0.37447673082351685,
      "z": 1.1694921255111694,
      "time_usec": 54277866522
    },
    {
      "x": 9.886545181274414,
      "y": 0.3696911036968231,
      "z": 1.1647064685821533,
      "time_usec": 54277868778
    },
    {
      "x": 9.876974105834961,
      "y": 0.364905446767807,
      "z": 1.1599208116531372,
      "time_usec": 54277871042
    },
    {
      "x": 9.853643417358398,
      "y": 0.3696911036968231,
      "z": 1.1024930477142334,
      "time_usec": 54277873300
    },
    {
      "x": 9.8207426071167,
      "y": 0.35054850578308105,
      "z": 1.0402796268463135,
      "time_usec": 54277875555
    },
    {
      "x": 9.806385040283203,
      "y": 0.34576287865638733,
      "z": 0.9493523836135864,
      "time_usec": 54277877809
    },
    {
      "x": 9.787840843200684,
      "y": 0.35054850578308105,
      "z": 0.8584251403808594,
      "time_usec": 54277880076
    },
    {
      "x": 9.760323524475098,
      "y": 0.37926238775253296,
      "z": 0.7770691514015198,
      "time_usec": 54277882327
    },
    {
      "x": 9.755537986755371,
      "y": 0.40319061279296875,
      "z": 0.7244270443916321,
      "time_usec": 54277884583
    },
    {
      "x": 9.746564865112305,
      "y": 0.4223332107067108,
      "z": 0.6813562512397766,
      "time_usec": 54277886827
    },
    {
      "x": 9.736993789672852,
      "y": 0.4414757788181305,
      "z": 0.666999340057373,
      "time_usec": 54277889097
    },
    {
      "x": 9.732806205749512,
      "y": 0.46061834692955017,
      "z": 0.6574280261993408,
      "time_usec": 54277891358
    },
    {
      "x": 9.737591743469238,
      "y": 0.4654040038585663,
      "z": 0.666999340057373,
      "time_usec": 54277893618
    },
    {
      "x": 9.723235130310059,
      "y": 0.4749752879142761,
      "z": 0.7100701332092285,
      "time_usec": 54277895871
    },
    {
      "x": 9.704092025756836,
      "y": 0.4707878530025482,
      "z": 0.7339983582496643,
      "time_usec": 54277898124
    },
    {
      "x": 9.6795654296875,
      "y": 0.45164528489112854,
      "z": 0.7812566161155701,
      "time_usec": 54277900386
    },
    {
      "x": 9.712467193603516,
      "y": 0.4085744619369507,
      "z": 0.8243274092674255,
      "time_usec": 54277902644
    },
    {
      "x": 9.68375301361084,
      "y": 0.37028929591178894,
      "z": 0.8721838593482971,
      "time_usec": 54277904901
    },
    {
      "x": 9.678369522094727,
      "y": 0.3320041298866272,
      "z": 0.9056833982467651,
      "time_usec": 54277907154
    },
    {
      "x": 9.70229721069336,
      "y": 0.3128615617752075,
      "z": 0.9439685344696045,
      "time_usec": 54277909417
    },
    {
      "x": 9.711270332336426,
      "y": 0.29850462079048157,
      "z": 0.9583254456520081,
      "time_usec": 54277911673
    },
    {
      "x": 9.716055870056152,
      "y": 0.2602194547653198,
      "z": 0.9822536706924438,
      "time_usec": 54277913931
    },
    {
      "x": 9.744172096252441,
      "y": 0.26979073882102966,
      "z": 0.9774680733680725,
      "time_usec": 54277916183
    },
    {
      "x": 9.749555587768555,
      "y": 0.29371899366378784,
      "z": 0.9774680733680725,
      "time_usec": 54277918446
    },
    {
      "x": 9.763314247131348,
      "y": 0.3026920557022095,
      "z": 0.9726824164390564,
      "time_usec": 54277920700
    },
    {
      "x": 9.78245735168457,
      "y": 0.3026920557022095,
      "z": 0.9631111025810242,
      "time_usec": 54277922949
    },
    {
      "x": 9.80219841003418,
      "y": 0.3314059376716614,
      "z": 0.9206385016441345,
      "time_usec": 54277925217
    },
    {
      "x": 9.821340560913086,
      "y": 0.34576287865638733,
      "z": 0.8919246196746826,
      "time_usec": 54277927471
    },
    {
      "x": 9.840482711791992,
      "y": 0.3601198196411133,
      "z": 0.8919246196746826,
      "time_usec": 54277929736
    },
    {
      "x": 9.859625816345215,
      "y": 0.3451646566390991,
      "z": 0.8542376756668091,
      "time_usec": 54277931990
    },
    {
      "x": 9.868598937988281,
      "y": 0.32602208852767944,
      "z": 0.8781659007072449,
      "time_usec": 54277934247
    },
    {
      "x": 9.873384475708008,
      "y": 0.3068794906139374,
      "z": 0.882951557636261,
      "time_usec": 54277936501
    },
    {
      "x": 9.872786521911621,
      "y": 0.2829512655735016,
      "z": 0.8973084688186646,
      "time_usec": 54277938767
    },
    {
      "x": 9.854242324829102,
      "y": 0.29730820655822754,
      "z": 0.9014959335327148,
      "time_usec": 54277941020
    },
    {
      "x": 9.821340560913086,
      "y": 0.32183465361595154,
      "z": 0.844068169593811,
      "time_usec": 54277943280
    },
    {
      "x": 9.807581901550293,
      "y": 0.3314059376716614,
      "z": 0.8009973764419556,
      "time_usec": 54277945533
    },
    {
      "x": 9.793225288391113,
      "y": 0.35533416271209717,
      "z": 0.7435696125030518,
      "time_usec": 54277947784
    },
    {
      "x": 9.789037704467773,
      "y": 0.38344982266426086,
      "z": 0.6628118753433228,
      "time_usec": 54277950036
    },
    {
      "x": 9.770493507385254,
      "y": 0.388235479593277,
      "z": 0.5862415432929993,
      "time_usec": 54277952306
    },
    {
      "x": 9.78544807434082,
      "y": 0.41216370463371277,
      "z": 0.5431707501411438,
      "time_usec": 54277954564
    },
    {
      "x": 9.775876998901367,
      "y": 0.43130627274513245,
      "z": 0.5335994362831116,
      "time_usec": 54277956819
    },
    {
      "x": 9.775876998901367,
      "y": 0.4408775866031647,
      "z": 0.5670989751815796,
      "time_usec": 54277959079
    },
    {
      "x": 9.790233612060547,
      "y": 0.46480581164360046,
      "z": 0.5958128571510315,
      "time_usec": 54277961336
    },
    {
      "x": 9.770493507385254,
      "y": 0.4462614357471466,
      "z": 0.666999340057373,
      "time_usec": 54277963596
    },
    {
      "x": 9.741779327392578,
      "y": 0.45104706287384033,
      "z": 0.6909275650978088,
      "time_usec": 54277965848
    },
    {
      "x": 9.741779327392578,
      "y": 0.4223332107067108,
      "z": 0.7052844762802124,
      "time_usec": 54277968096
    },
    {
      "x": 9.736993789672852,
      "y": 0.43190449476242065,
      "z": 0.7004988193511963,
      "time_usec": 54277970366
    },
    {
      "x": 9.722636222839355,
      "y": 0.4366901218891144,
      "z": 0.719641387462616,
      "time_usec": 54277972623
    },
    {
      "x": 9.722636222839355,
      "y": 0.45104706287384033,
      "z": 0.719641387462616,
      "time_usec": 54277974882
    },
    {
      "x": 9.723235130310059,
      "y": 0.4654040038585663,
      "z": 0.6957131624221802,
      "time_usec": 54277977133
    },
    {
      "x": 9.737591743469238,
      "y": 0.4893322288990021,
      "z": 0.7004988193511963,
      "time_usec": 54277979396
    },
    {
      "x": 9.713663101196289,
      "y": 0.48454657196998596,
      "z": 0.6813562512397766,
      "time_usec": 54277981654
    },
    {
      "x": 9.713663101196289,
      "y": 0.47976094484329224,
      "z": 0.6717849373817444,
      "time_usec": 54277983911
    },
    {
      "x": 9.69930648803711,
      "y": 0.4654040038585663,
      "z": 0.6526423692703247,
      "time_usec": 54277986164
    },
    {
      "x": 9.68076229095459,
      "y": 0.46061834692955017,
      "z": 0.6478567123413086,
      "time_usec": 54277988424
    },
    {
      "x": 9.652048110961914,
      "y": 0.4420739710330963,
      "z": 0.6376872062683105,
      "time_usec": 54277990682
    },
    {
      "x": 9.637691497802734,
      "y": 0.4133601188659668,
      "z": 0.6520441770553589,
      "time_usec": 54277992940
    },
    {
      "x": 9.632905960083008,
      "y": 0.389431893825531,
      "z": 0.6281159520149231,
      "time_usec": 54277995196
    },
    {
      "x": 9.632905960083008,
      "y": 0.4085744619369507,
      "z": 0.6520441770553589,
      "time_usec": 54277997449
    },
    {
      "x": 9.6466646194458,
      "y": 0.40378883481025696,
      "z": 0.6759724020957947,
      "time_usec": 54277999713
    },
    {
      "x": 9.66102123260498,
      "y": 0.4325026869773865,
      "z": 0.714257538318634,
      "time_usec": 54278001969
    },
    {
      "x": 9.68494987487793,
      "y": 0.4707878530025482,
      "z": 0.7525427341461182,
      "time_usec": 54278004226
    },
    {
      "x": 9.698708534240723,
      "y": 0.48035913705825806,
      "z": 0.7956135272979736,
      "time_usec": 54278006478
    },
    {
      "x": 9.713065147399902,
      "y": 0.5186443328857422,
      "z": 0.7956135272979736,
      "time_usec": 54278008741
    },
    {
      "x": 9.722636222839355,
      "y": 0.5473581552505493,
      "z": 0.8009973764419556,
      "time_usec": 54278010999
    },
    {
      "x": 9.737591743469238,
      "y": 0.5712863802909851,
      "z": 0.7722834944725037,
      "time_usec": 54278013258
    },
    {
      "x": 9.708877563476562,
      "y": 0.5760720372200012,
      "z": 0.7483552694320679,
      "time_usec": 54278015514
    },
    {
      "x": 9.704689979553223,
      "y": 0.5904290080070496,
      "z": 0.7052844762802124,
      "time_usec": 54278017768
    },
    {
      "x": 9.690333366394043,
      "y": 0.6047859191894531,
      "z": 0.666999340057373,
      "time_usec": 54278020030
    },
    {
      "x": 9.695717811584473,
      "y": 0.5802595019340515,
      "z": 0.6143572330474854,
      "time_usec": 54278022291
    },
    {
      "x": 9.67657470703125,
      "y": 0.5904290080070496,
      "z": 0.5856433510780334,
      "time_usec": 54278024541
    },
    {
      "x": 9.686145782470703,
      "y": 0.589830756187439,
      "z": 0.5856433510780334,
      "time_usec": 54278026788
    },
    {
      "x": 9.69093132019043,
      "y": 0.589830756187439,
      "z": 0.5712863802909851,
      "time_usec": 54278029056
    },
    {
      "x": 9.695717811584473,
      "y": 0.5706881880760193,
      "z": 0.5808576941490173,
      "time_usec": 54278031312
    },
    {
      "x": 9.705288887023926,
      "y": 0.5946164131164551,
      "z": 0.5617151260375977,
      "time_usec": 54278033563
    },
    {
      "x": 9.695717811584473,
      "y": 0.5850451588630676,
      "z": 0.542572557926178,
      "time_usec": 54278035828
    },
    {
      "x": 9.710074424743652,
      "y": 0.5994020700454712,
      "z": 0.50907301902771,
      "time_usec": 54278038075
    },
    {
      "x": 9.701101303100586,
      "y": 0.589830756187439,
      "z": 0.4426721930503845,
      "time_usec": 54278040346
    },
    {
      "x": 9.705886840820312,
      "y": 0.5802595019340515,
      "z": 0.4378865361213684,
      "time_usec": 54278042602
    },
    {
      "x": 9.715457916259766,
      "y": 0.5850451588630676,
      "z": 0.42352959513664246,
      "time_usec": 54278044861
    },
    {
      "x": 9.725028991699219,
      "y": 0.5994020700454712,
      "z": 0.3852444589138031,
      "time_usec": 54278047112
    },
    {
      "x": 9.739386558532715,
      "y": 0.584446907043457,
      "z": 0.3756731450557709,
      "time_usec": 54278049374
    },
    {
      "x": 9.758528709411621,
      "y": 0.5748756527900696,
      "z": 0.3900300860404968,
      "time_usec": 54278051629
    },
    {
      "x": 9.772287368774414,
      "y": 0.584446907043457,
      "z": 0.39960137009620667,
      "time_usec": 54278053879
    },
    {
      "x": 9.77707290649414,
      "y": 0.5700899958610535,
      "z": 0.4331009089946747,
      "time_usec": 54278056139
    },
    {
      "x": 9.78126049041748,
      "y": 0.5557330846786499,
      "z": 0.4905286431312561,
      "time_usec": 54278058397
    },
    {
      "x": 9.809974670410156,
      "y": 0.5700899958610535,
      "z": 0.5431707501411438,
      "time_usec": 54278060664
    },
    {
      "x": 9.814162254333496,
      "y": 0.5748756527900696,
      "z": 0.5862415432929993,
      "time_usec": 54278062920
    },
    {
      "x": 9.818947792053223,
      "y": 0.6131607890129089,
      "z": 0.6340979933738708,
      "time_usec": 54278065176
    },
    {
      "x": 9.814162254333496,
      "y": 0.6616154313087463,
      "z": 0.6628118753433228,
      "time_usec": 54278067430
    },
    {
      "x": 9.800403594970703,
      "y": 0.6807580590248108,
      "z": 0.6819544434547424,
      "time_usec": 54278069695
    },
    {
      "x": 9.818947792053223,
      "y": 0.6759724020957947,
      "z": 0.7393822073936462,
      "time_usec": 54278071950
    },
    {
      "x": 9.827920913696289,
      "y": 0.6520441770553589,
      "z": 0.763310432434082,
      "time_usec": 54278074204
    },
    {
      "x": 9.837491989135742,
      "y": 0.6376872062683105,
      "z": 0.763310432434082,
      "time_usec": 54278076447
    },
    {
      "x": 9.875777244567871,
      "y": 0.6759724020957947,
      "z": 0.7872386574745178,
      "time_usec": 54278078705
    },
    {
      "x": 9.880562782287598,
      "y": 0.6897311210632324,
      "z": 0.7824530005455017,
      "time_usec": 54278080962
    },
    {
      "x": 9.899106979370117,
      "y": 0.6945167779922485,
      "z": 0.7968099117279053,
      "time_usec": 54278083225
    },
    {
      "x": 9.903892517089844,
      "y": 0.6993024349212646,
      "z": 0.8063812255859375,
      "time_usec": 54278085489
    },
    {
      "x": 9.899106979370117,
      "y": 0.7184450030326843,
      "z": 0.8207381963729858,
      "time_usec": 54278087739
    },
    {
      "x": 9.885348320007324,
      "y": 0.7286145091056824,
      "z": 0.8303094506263733,
      "time_usec": 54278089996
    },
    {
      "x": 9.861420631408691,
      "y": 0.7334001660346985,
      "z": 0.8590233325958252,
      "time_usec": 54278092253
    },
    {
      "x": 9.856635093688965,
      "y": 0.7190431952476501,
      "z": 0.8781659007072449,
      "time_usec": 54278094520
    },
    {
      "x": 9.842277526855469,
      "y": 0.6951149702072144,
      "z": 0.8823533654212952,
      "time_usec": 54278096770
    },
    {
      "x": 9.836894035339355,
      "y": 0.6711867451667786,
      "z": 0.8919246196746826,
      "time_usec": 54278099037
    },
    {
      "x": 9.822537422180176,
      "y": 0.6520441770553589,
      "z": 0.9158528447151184,
      "time_usec": 54278101279
    },
    {
      "x": 9.798608779907227,
      "y": 0.6430711150169373,
      "z": 0.9445667266845703,
      "time_usec": 54278103539
    },
    {
      "x": 9.807581901550293,
      "y": 0.6382854580879211,
      "z": 1.0115658044815063,
      "time_usec": 54278105796
    },
    {
      "x": 9.817152976989746,
      "y": 0.633499801158905,
      "z": 1.0450652837753296,
      "time_usec": 54278108064
    },
    {
      "x": 9.8267240524292,
      "y": 0.6191428303718567,
      "z": 1.0689935684204102,
      "time_usec": 54278110319
    },
    {
      "x": 9.817152976989746,
      "y": 0.6430711150169373,
      "z": 1.0923235416412354,
      "time_usec": 54278112585
    },
    {
      "x": 9.821340560913086,
      "y": 0.633499801158905,
      "z": 1.1066805124282837,
      "time_usec": 54278114837
    },
    {
      "x": 9.830911636352539,
      "y": 0.6239284873008728,
      "z": 1.1162517070770264,
      "time_usec": 54278117082
    },
    {
      "x": 9.80219841003418,
      "y": 0.6095715761184692,
      "z": 1.1066805124282837,
      "time_usec": 54278119342
    },
    {
      "x": 9.807581901550293,
      "y": 0.6191428303718567,
      "z": 1.058824062347412,
      "time_usec": 54278121615
    },
    {
      "x": 9.784252166748047,
      "y": 0.6287141442298889,
      "z": 1.0205388069152832,
      "time_usec": 54278123871
    },
    {
      "x": 9.784252166748047,
      "y": 0.6287141442298889,
      "z": 0.9541380405426025,
      "time_usec": 54278126122
    },
    {
      "x": 9.784252166748047,
      "y": 0.6287141442298889,
      "z": 0.9397810697555542,
      "time_usec": 54278128370
    },
    {
      "x": 9.756135940551758,
      "y": 0.6239284873008728,
      "z": 0.9487541913986206,
      "time_usec": 54278130641
    },
    {
      "x": 9.76989459991455,
      "y": 0.6287141442298889,
      "z": 0.9583254456520081,
      "time_usec": 54278132899
    },
    {
      "x": 9.784252166748047,
      "y": 0.6287141442298889,
      "z": 0.9966106414794922,
      "time_usec": 54278135157
    },
    {
      "x": 9.79801082611084,
      "y": 0.6191428303718567,
      "z": 1.0115658044815063,
      "time_usec": 54278137407
    },
    {
      "x": 9.81236743927002,
      "y": 0.5856433510780334,
      "z": 1.0402796268463135,
      "time_usec": 54278139670
    },
    {
      "x": 9.793225288391113,
      "y": 0.5665007829666138,
      "z": 1.0444670915603638,
      "time_usec": 54278141928
    },
    {
      "x": 9.778867721557617,
      "y": 0.5473581552505493,
      "z": 1.0396814346313477,
      "time_usec": 54278144186
    },
    {
      "x": 9.783653259277344,
      "y": 0.5138586759567261,
      "z": 1.0253244638442993,
      "time_usec": 54278146437
    },
    {
      "x": 9.783055305480957,
      "y": 0.48514479398727417,
      "z": 1.0301101207733154,
      "time_usec": 54278148700
    },
    {
      "x": 9.806983947753906,
      "y": 0.4749752879142761,
      "z": 1.0307083129882812,
      "time_usec": 54278150957
    },
    {
      "x": 9.79262638092041,
      "y": 0.4660021960735321,
      "z": 1.0301101207733154,
      "time_usec": 54278153216
    },
    {
      "x": 9.811769485473633,
      "y": 0.45104706287384033,
      "z": 1.0115658044815063,
      "time_usec": 54278155471
    },
    {
      "x": 9.826126098632812,
      "y": 0.45583271980285645,
      "z": 1.0115658044815063,
      "time_usec": 54278157727
    },
    {
      "x": 9.854242324829102,
      "y": 0.4701896607875824,
      "z": 1.0163514614105225,
      "time_usec": 54278159988
    },
    {
      "x": 9.868598937988281,
      "y": 0.45583271980285645,
      "z": 1.0163514614105225,
      "time_usec": 54278162245
    },
    {
      "x": 9.859625816345215,
      "y": 0.47976094484329224,
      "z": 0.997208833694458,
      "time_usec": 54278164501
    },
    {
      "x": 9.859625816345215,
      "y": 0.4941178858280182,
      "z": 0.9828519225120544,
      "time_usec": 54278166755
    },
    {
      "x": 9.840482711791992,
      "y": 0.5084748268127441,
      "z": 0.9493523836135864,
      "time_usec": 54278169016
    },
    {
      "x": 9.845867156982422,
      "y": 0.5180460810661316,
      "z": 0.9206385016441345,
      "time_usec": 54278171274
    },
    {
      "x": 9.807581901550293,
      "y": 0.5132604837417603,
      "z": 0.9110672473907471,
      "time_usec": 54278173531
    },
    {
      "x": 9.7938232421875,
      "y": 0.4989035129547119,
      "z": 0.8488538265228271,
      "time_usec": 54278175783
    },
    {
      "x": 9.779465675354004,
      "y": 0.5084748268127441,
      "z": 0.8201399445533752,
      "time_usec": 54278178042
    },
    {
      "x": 9.779465675354004,
      "y": 0.4941178858280182,
      "z": 0.7914260625839233,
      "time_usec": 54278180304
    },
    {
      "x": 9.774680137634277,
      "y": 0.4701896607875824,
      "z": 0.7722834944725037,
      "time_usec": 54278182562
    },
    {
      "x": 9.798608779907227,
      "y": 0.4462614357471466,
      "z": 0.7627122402191162,
      "time_usec": 54278184819
    },
    {
      "x": 9.817152976989746,
      "y": 0.43190449476242065,
      "z": 0.7818548083305359,
      "time_usec": 54278187075
    },
    {
      "x": 9.798608779907227,
      "y": 0.42711883783340454,
      "z": 0.8009973764419556,
      "time_usec": 54278189333
    },
    {
      "x": 9.79801082611084,
      "y": 0.3888336718082428,
      "z": 0.8057830333709717,
      "time_usec": 54278191590
    },
    {
      "x": 9.79801082611084,
      "y": 0.3601198196411133,
      "z": 0.8153542876243591,
      "time_usec": 54278193847
    },
    {
      "x": 9.783653259277344,
      "y": 0.32662028074264526,
      "z": 0.8344969153404236,
      "time_usec": 54278196106
    },
    {
      "x": 9.754940032958984,
      "y": 0.32183465361595154,
      "z": 0.8584251403808594,
      "time_usec": 54278198384
    },
    {
      "x": 9.750154495239258,
      "y": 0.3170489966869354,
      "z": 0.8913264274597168,
      "time_usec": 54278200620
    },
    {
      "x": 9.754341125488281,
      "y": 0.3170489966869354,
      "z": 0.9200403094291687,
      "time_usec": 54278202878
    },
    {
      "x": 9.726225852966309,
      "y": 0.34636107087135315,
      "z": 0.9391828775405884,
      "time_usec": 54278205128
    },
    {
      "x": 9.664012908935547,
      "y": 0.3367897868156433,
      "z": 0.9391828775405884,
      "time_usec": 54278207387
    },
    {
      "x": 9.616754531860352,
      "y": 0.32303106784820557,
      "z": 0.9720842242240906,
      "time_usec": 54278209649
    },
    {
      "x": 9.564111709594727,
      "y": 0.31824541091918945,
      "z": 0.9954141974449158,
      "time_usec": 54278211907
    },
    {
      "x": 9.497711181640625,
      "y": 0.3188436031341553,
      "z": 1.0145567655563354,
      "time_usec": 54278214164
    },
    {
      "x": 9.46899700164795,
      "y": 0.357128769159317,
      "z": 1.0378868579864502,
      "time_usec": 54278216418
    },
    {
      "x": 9.44028377532959,
      "y": 0.3577269911766052,
      "z": 1.0857433080673218,
      "time_usec": 54278218676
    },
    {
      "x": 9.435498237609863,
      "y": 0.3577269911766052,
      "z": 1.090528964996338,
      "time_usec": 54278220925
    },
    {
      "x": 9.435498237609863,
      "y": 0.33379876613616943,
      "z": 1.114457130432129,
      "time_usec": 54278223193
    },
    {
      "x": 9.449854850769043,
      "y": 0.3290131092071533,
      "z": 1.1383854150772095,
      "time_usec": 54278225450
    },
    {
      "x": 9.487542152404785,
      "y": 0.3284149169921875,
      "z": 1.1623135805130005,
      "time_usec": 54278227708
    },
    {
      "x": 9.510871887207031,
      "y": 0.33798620104789734,
      "z": 1.186241865158081,
      "time_usec": 54278229967
    },
    {
      "x": 9.539586067199707,
      "y": 0.30927231907844543,
      "z": 1.2011969089508057,
      "time_usec": 54278232225
    },
    {
      "x": 9.5533447265625,
      "y": 0.2949153780937195,
      "z": 1.210768222808838,
      "time_usec": 54278234482
    },
    {
      "x": 9.572486877441406,
      "y": 0.29012975096702576,
      "z": 1.2299108505249023,
      "time_usec": 54278236733
    },
    {
      "x": 9.614959716796875,
      "y": 0.27038896083831787,
      "z": 1.2299108505249023,
      "time_usec": 54278238996
    },
    {
      "x": 9.653244972229004,
      "y": 0.27038896083831787,
      "z": 1.1922239065170288,
      "time_usec": 54278241252
    },
    {
      "x": 9.65803050994873,
      "y": 0.24167509377002716,
      "z": 1.1491531133651733,
      "time_usec": 54278243511
    },
    {
      "x": 9.69631576538086,
      "y": 0.24107688665390015,
      "z": 1.1108678579330444,
      "time_usec": 54278245764
    },
    {
      "x": 9.729815483093262,
      "y": 0.24107688665390015,
      "z": 1.0396814346313477,
      "time_usec": 54278248020
    },
    {
      "x": 9.777671813964844,
      "y": 0.2356930375099182,
      "z": 0.9822536706924438,
      "time_usec": 54278250283
    },
    {
      "x": 9.777671813964844,
      "y": 0.2356930375099182,
      "z": 0.906281590461731,
      "time_usec": 54278252541
    },
    {
      "x": 9.81117057800293,
      "y": 0.23030917346477509,
      "z": 0.8488538265228271,
      "time_usec": 54278254792
    },
    {
      "x": 9.80219841003418,
      "y": 0.259621262550354,
      "z": 0.8249256014823914,
      "time_usec": 54278257042
    },
    {
      "x": 9.80219841003418,
      "y": 0.268594354391098,
      "z": 0.7818548083305359,
      "time_usec": 54278259312
    },
    {
      "x": 9.826126098632812,
      "y": 0.24466611444950104,
      "z": 0.763310432434082,
      "time_usec": 54278261568
    },
    {
      "x": 9.811769485473633,
      "y": 0.23030917346477509,
      "z": 0.7818548083305359,
      "time_usec": 54278263820
    },
    {
      "x": 9.811769485473633,
      "y": 0.23030917346477509,
      "z": 0.8201399445533752,
      "time_usec": 54278266081
    },
    {
      "x": 9.762716293334961,
      "y": -0.003589233849197626,
      "z": 0.8823533654212952,
      "time_usec": 54278268339
    },
    {
      "x": 9.757930755615234,
      "y": 0.02512463741004467,
      "z": 0.9200403094291687,
      "time_usec": 54278270603
    },
    {
      "x": 9.758528709411621,
      "y": 0.17347964644432068,
      "z": 0.9678967595100403,
      "time_usec": 54278272857
    },
    {
      "x": 9.749555587768555,
      "y": 0.32243284583091736,
      "z": 1.0157532691955566,
      "time_usec": 54278275114
    },
    {
