{
  "accelerations": [
    {
      "x": 9.853643417358398,
      "y": -0.14656038582324982,
      "z": 1.3022937774658203,
      "time_usec": 53368706323
    },
    {
      "x": 9.839286804199219,
      "y": -0.15134602785110474,
      "z": 1.3022937774658203,
      "time_usec": 53368708578
    },
    {
      "x": 9.839286804199219,
      "y": -0.16091732680797577,
      "z": 1.3262219429016113,
      "time_usec": 53368710836
    },
    {
      "x": 9.81535816192627,
      "y": -0.1704886108636856,
      "z": 1.316650629043579,
      "time_usec": 53368713095
    },
    {
      "x": 9.772886276245117,
      "y": -0.19381862878799438,
      "z": 1.3214362859725952,
      "time_usec": 53368715350
    },
    {
      "x": 9.748957633972168,
      "y": -0.21296121180057526,
      "z": 1.3208380937576294,
      "time_usec": 53368717607
    },
    {
      "x": 9.710672378540039,
      "y": -0.23688943684101105,
      "z": 1.3495519161224365,
      "time_usec": 53368719864
    },
    {
      "x": 9.695717811584473,
      "y": -0.2793620526790619,
      "z": 1.3830515146255493,
      "time_usec": 53368722122
    },
    {
      "x": 9.681360244750977,
      "y": -0.29850462079048157,
      "z": 1.4117653369903564,
      "time_usec": 53368724378
    },
    {
      "x": 9.667003631591797,
      "y": -0.3080759048461914,
      "z": 1.4207384586334229,
      "time_usec": 53368726633
    },
    {
      "x": 9.671789169311523,
      "y": -0.32243284583091736,
      "z": 1.4398809671401978,
      "time_usec": 53368728894
    },
    {
      "x": 9.643074989318848,
      "y": -0.3367897868156433,
      "z": 1.4638092517852783,
      "time_usec": 53368731152
    },
    {
      "x": 9.652048110961914,
      "y": -0.3607180118560791,
      "z": 1.4781662225723267,
      "time_usec": 53368733410
    },
    {
      "x": 9.642477035522461,
      "y": -0.37028929591178894,
      "z": 1.5068800449371338,
      "time_usec": 53368735666
    },
    {
      "x": 9.66640567779541,
      "y": -0.37028929591178894,
      "z": 1.5020943880081177,
      "time_usec": 53368737923
    },
    {
      "x": 9.675976753234863,
      "y": -0.37028929591178894,
      "z": 1.5308083295822144,
      "time_usec": 53368740181
    },
    {
      "x": 9.66640567779541,
      "y": -0.34636107087135315,
      "z": 1.5260226726531982,
      "time_usec": 53368742438
    },
    {
      "x": 9.69511890411377,
      "y": -0.3320041298866272,
      "z": 1.51166570186615,
      "time_usec": 53368744695
    },
    {
      "x": 9.709476470947266,
      "y": -0.3320041298866272,
      "z": 1.5020943880081177,
      "time_usec": 53368746953
    },
    {
      "x": 9.709476470947266,
      "y": -0.3320041298866272,
      "z": 1.459621787071228,
      "time_usec": 53368749211
    },
    {
      "x": 9.723833084106445,
      "y": -0.31345975399017334,
      "z": 1.4404792785644531,
      "time_usec": 53368751468
    },
    {
      "x": 9.728618621826172,
      "y": -0.33738797903060913,
      "z": 1.430907964706421,
      "time_usec": 53368753725
    },
    {
      "x": 9.719047546386719,
      "y": -0.34217363595962524,
      "z": 1.459621787071228,
      "time_usec": 53368755982
    },
    {
      "x": 9.738189697265625,
      "y": -0.34695929288864136,
      "z": 1.4644074440002441,
      "time_usec": 53368758239
    },
    {
      "x": 9.742377281188965,
      "y": -0.3565305769443512,
      "z": 1.4739787578582764,
      "time_usec": 53368760498
    },
    {
      "x": 9.756733894348145,
      "y": -0.3852444589138031,
      "z": 1.4835500717163086,
      "time_usec": 53368762758
    },
    {
      "x": 9.756733894348145,
      "y": -0.39481574296951294,
      "z": 1.4979069232940674,
      "time_usec": 53368765008
    },
    {
      "x": 9.77527904510498,
      "y": -0.4043870270252228,
      "z": 1.4979069232940674,
      "time_usec": 53368767257
    },
    {
      "x": 9.784850120544434,
      "y": -0.4091726839542389,
      "z": 1.521835207939148,
      "time_usec": 53368769525
    },
    {
      "x": 9.80399227142334,
      "y": -0.4091726839542389,
      "z": 1.5361921787261963,
      "time_usec": 53368771784
    },
    {
      "x": 9.822537422180176,
      "y": -0.39960137009620667,
      "z": 1.545763373374939,
      "time_usec": 53368774044
    },
    {
      "x": 9.851250648498535,
      "y": -0.39541393518447876,
      "z": 1.551147222518921,
      "time_usec": 53368776300
    },
    {
      "x": 9.851250648498535,
      "y": -0.36610186100006104,
      "z": 1.5792629718780518,
      "time_usec": 53368778557
    },
    {
      "x": 9.851250648498535,
      "y": -0.3613162338733673,
      "z": 1.5750755071640015,
      "time_usec": 53368780800
    },
    {
      "x": 9.870393753051758,
      "y": -0.3523431420326233,
      "z": 1.594218134880066,
      "time_usec": 53368783057
    },
    {
      "x": 9.860821723937988,
      "y": -0.36670008301734924,
      "z": 1.5798611640930176,
      "time_usec": 53368785327
    },
    {
      "x": 9.846465110778809,
      "y": -0.357128769159317,
      "z": 1.555932879447937,
      "time_usec": 53368787581
    },
    {
      "x": 9.842277526855469,
      "y": -0.34277185797691345,
      "z": 1.5032907724380493,
      "time_usec": 53368789845
    },
    {
      "x": 9.827920913696289,
      "y": -0.3278166949748993,
      "z": 1.4985052347183228,
      "time_usec": 53368792099
    },
    {
      "x": 9.828518867492676,
      "y": -0.3086741268634796,
      "z": 1.4937195777893066,
      "time_usec": 53368794358
    },
    {
      "x": 9.838089942932129,
      "y": -0.2997010350227356,
      "z": 1.469791293144226,
      "time_usec": 53368796611
    },
    {
      "x": 9.82373332977295,
      "y": -0.2799602448940277,
      "z": 1.46500563621521,
      "time_usec": 53368798855
    },
    {
      "x": 9.80937671661377,
      "y": -0.275174617767334,
      "z": 1.46500563621521,
      "time_usec": 53368801116
    },
    {
      "x": 9.814162254333496,
      "y": -0.27038896083831787,
      "z": 1.4745769500732422,
      "time_usec": 53368803386
    },
    {
      "x": 9.80937671661377,
      "y": -0.2512463629245758,
      "z": 1.469791293144226,
      "time_usec": 53368805640
    },
    {
      "x": 9.80937671661377,
      "y": -0.2560320198535919,
      "z": 1.46500563621521,
      "time_usec": 53368807900
    },
    {
      "x": 9.800403594970703,
      "y": -0.23688943684101105,
      "z": 1.4644074440002441,
      "time_usec": 53368810157
    },
    {
      "x": 9.78126049041748,
      "y": -0.26560330390930176,
      "z": 1.4404792785644531,
      "time_usec": 53368812417
    },
    {
      "x": 9.78126049041748,
      "y": -0.275174617767334,
      "z": 1.4404792785644531,
      "time_usec": 53368814672
    },
    {
      "x": 9.78126049041748,
      "y": -0.2799602448940277,
      "z": 1.435693621635437,
      "time_usec": 53368816922
    },
    {
      "x": 9.786046028137207,
      "y": -0.2512463629245758,
      "z": 1.4261223077774048,
      "time_usec": 53368819175
    },
    {
      "x": 9.78126049041748,
      "y": -0.26081767678260803,
      "z": 1.4117653369903564,
      "time_usec": 53368821446
    },
    {
      "x": 9.7669038772583,
      "y": -0.27038896083831787,
      "z": 1.430907964706421,
      "time_usec": 53368823702
    },
    {
      "x": 9.79083251953125,
      "y": -0.26560330390930176,
      "z": 1.4075778722763062,
      "time_usec": 53368825957
    },
    {
      "x": 9.786046028137207,
      "y": -0.26081767678260803,
      "z": 1.4171491861343384,
      "time_usec": 53368828216
    },
    {
      "x": 9.771689414978027,
      "y": -0.26560330390930176,
      "z": 1.4213366508483887,
      "time_usec": 53368830474
    },
    {
      "x": 9.771689414978027,
      "y": -0.2799602448940277,
      "z": 1.4213366508483887,
      "time_usec": 53368832733
    },
    {
      "x": 9.757332801818848,
      "y": -0.275174617767334,
      "z": 1.4117653369903564,
      "time_usec": 53368834988
    },
    {
      "x": 9.771689414978027,
      "y": -0.2560320198535919,
      "z": 1.4261223077774048,
      "time_usec": 53368837242
    },
    {
      "x": 9.7669038772583,
      "y": -0.24646073579788208,
      "z": 1.435693621635437,
      "time_usec": 53368839505
    },
    {
      "x": 9.78126049041748,
      "y": -0.23210379481315613,
      "z": 1.4261223077774048,
      "time_usec": 53368841761
    },
    {
      "x": 9.753145217895508,
      "y": -0.24646073579788208,
      "z": 1.430907964706421,
      "time_usec": 53368844018
    },
    {
      "x": 9.734002113342285,
      "y": -0.24646073579788208,
      "z": 1.4117653369903564,
      "time_usec": 53368846271
    },
    {
      "x": 9.724431037902832,
      "y": -0.26560330390930176,
      "z": 1.435693621635437,
      "time_usec": 53368848533
    },
    {
      "x": 9.734002113342285,
      "y": -0.2512463629245758,
      "z": 1.4213366508483887,
      "time_usec": 53368850790
    },
    {
      "x": 9.724431037902832,
      "y": -0.27038896083831787,
      "z": 1.397408366203308,
      "time_usec": 53368853048
    },
    {
      "x": 9.734002113342285,
      "y": -0.2799602448940277,
      "z": 1.397408366203308,
      "time_usec": 53368855300
    },
    {
      "x": 9.724431037902832,
      "y": -0.2799602448940277,
      "z": 1.3830515146255493,
      "time_usec": 53368857562
    },
    {
      "x": 9.719645500183105,
      "y": -0.29431718587875366,
      "z": 1.3830515146255493,
      "time_usec": 53368859817
    },
    {
      "x": 9.7005033493042,
      "y": -0.29431718587875366,
      "z": 1.4021940231323242,
      "time_usec": 53368862068
    },
    {
      "x": 9.695717811584473,
      "y": -0.2799602448940277,
      "z": 1.4117653369903564,
      "time_usec": 53368864334
    },
    {
      "x": 9.7005033493042,
      "y": -0.2847459018230438,
      "z": 1.4213366508483887,
      "time_usec": 53368866589
    },
    {
      "x": 9.7005033493042,
      "y": -0.29431718587875366,
      "z": 1.4261223077774048,
      "time_usec": 53368868850
    },
    {
      "x": 9.705288887023926,
      "y": -0.31345975399017334,
      "z": 1.4261223077774048,
      "time_usec": 53368871101
    },
    {
      "x": 9.738189697265625,
      "y": -0.29431718587875366,
      "z": 1.4452649354934692,
      "time_usec": 53368873363
    },
    {
      "x": 9.757332801818848,
      "y": -0.3086741268634796,
      "z": 1.430907964706421,
      "time_usec": 53368875616
    },
    {
      "x": 9.742975234985352,
      "y": -0.3086741268634796,
      "z": 1.435693621635437,
      "time_usec": 53368877877
    },
    {
      "x": 9.7669038772583,
      "y": -0.3086741268634796,
      "z": 1.4213366508483887,
      "time_usec": 53368880136
    },
    {
      "x": 9.752547264099121,
      "y": -0.32303106784820557,
      "z": 1.4213366508483887,
      "time_usec": 53368882394
    },
    {
      "x": 9.734002113342285,
      "y": -0.32303106784820557,
      "z": 1.3830515146255493,
      "time_usec": 53368884648
    },
    {
      "x": 9.714859962463379,
      "y": -0.3278166949748993,
      "z": 1.3782658576965332,
      "time_usec": 53368886895
    },
    {
      "x": 9.695717811584473,
      "y": -0.3326023519039154,
      "z": 1.3639088869094849,
      "time_usec": 53368889165
    },
    {
      "x": 9.695717811584473,
      "y": -0.31824541091918945,
      "z": 1.3639088869094849,
      "time_usec": 53368891423
    },
    {
      "x": 9.691530227661133,
      "y": -0.3278166949748993,
      "z": 1.306481122970581,
      "time_usec": 53368893681
    },
    {
      "x": 9.686744689941406,
      "y": -0.2991028428077698,
      "z": 1.3351950645446777,
      "time_usec": 53368895921
    },
    {
      "x": 9.67777156829834,
      "y": -0.2799602448940277,
      "z": 1.2681959867477417,
      "time_usec": 53368898179
    },
    {
      "x": 9.677172660827637,
      "y": -0.2745763957500458,
      "z": 1.3830515146255493,
      "time_usec": 53368900436
    },
    {
      "x": 9.663414001464844,
      "y": -0.26081767678260803,
      "z": 1.2586246728897095,
      "time_usec": 53368902700
    },
    {
      "x": 9.681958198547363,
      "y": -0.2315055876970291,
      "z": 1.3543375730514526,
      "time_usec": 53368904969
    },
    {
      "x": 9.69212818145752,
      "y": -0.21774685382843018,
      "z": 1.2538390159606934,
      "time_usec": 53368907222
    },
    {
      "x": 9.692726135253906,
      "y": -0.1746760457754135,
      "z": 1.215553879737854,
      "time_usec": 53368909484
    },
    {
      "x": 9.705886840820312,
      "y": -0.20817556977272034,
      "z": 1.3256237506866455,
      "time_usec": 53368911740
    },
    {
      "x": 9.668798446655273,
      "y": -0.17946170270442963,
      "z": 1.1868400573730469,
      "time_usec": 53368913996
    },
    {
      "x": 9.658628463745117,
      "y": -0.19322042167186737,
      "z": 1.3112667798995972,
      "time_usec": 53368916248
    },
    {
      "x": 9.630513191223145,
      "y": -0.2027917206287384,
      "z": 1.306481122970581,
      "time_usec": 53368918498
    },
    {
      "x": 9.601799011230469,
      "y": -0.2315055876970291,
      "z": 1.296311616897583,
      "time_usec": 53368920765
    },
    {
      "x": 9.615557670593262,
      "y": -0.2554338276386261,
      "z": 1.363310694694519,
      "time_usec": 53368923016
    },
    {
      "x": 9.597013473510742,
      "y": -0.23629122972488403,
      "z": 1.3298112154006958,
      "time_usec": 53368925278
    },
    {
      "x": 9.587442398071289,
      "y": -0.2315055876970291,
      "z": 1.358525037765503,
      "time_usec": 53368927528
    },
    {
      "x": 9.601201057434082,
      "y": -0.2602194547653198,
      "z": 1.3920245170593262,
      "time_usec": 53368929802
    },
    {
      "x": 9.596415519714355,
      "y": -0.25064817070961,
      "z": 1.4111671447753906,
      "time_usec": 53368932055
    },
    {
      "x": 9.591629981994629,
      "y": -0.2548356056213379,
      "z": 1.425524115562439,
      "time_usec": 53368934310
    },
    {
      "x": 9.619745254516602,
      "y": -0.2554338276386261,
      "z": 1.4350954294204712,
      "time_usec": 53368936564
    },
    {
      "x": 9.634101867675781,
      "y": -0.26979073882102966,
      "z": 1.4350954294204712,
      "time_usec": 53368938824
    },
    {
      "x": 9.648459434509277,
      "y": -0.2602194547653198,
      "z": 1.44945228099823,
      "time_usec": 53368941072
    },
    {
      "x": 9.65803050994873,
      "y": -0.24586252868175507,
      "z": 1.454237937927246,
      "time_usec": 53368943340
    },
    {
      "x": 9.719645500183105,
      "y": -0.2273181527853012,
      "z": 1.4404792785644531,
      "time_usec": 53368945595
    },
    {
      "x": 9.729216575622559,
      "y": -0.21774685382843018,
      "z": 1.430907964706421,
      "time_usec": 53368947879
    },
    {
      "x": 9.710672378540039,
      "y": -0.2027917206287384,
      "z": 1.435693621635437,
      "time_usec": 53368950113
    },
    {
      "x": 9.705886840820312,
      "y": -0.19322042167186737,
      "z": 1.4117653369903564,
      "time_usec": 53368952370
    },
    {
      "x": 9.710672378540039,
      "y": -0.18364913761615753,
      "z": 1.4117653369903564,
      "time_usec": 53368954609
    },
    {
      "x": 9.705886840820312,
      "y": -0.19322042167186737,
      "z": 1.4069796800613403,
      "time_usec": 53368956877
    },
    {
      "x": 9.729216575622559,
      "y": -0.1986042857170105,
      "z": 1.4261223077774048,
      "time_usec": 53368959130
    },
    {
      "x": 9.743574142456055,
      "y": -0.17946170270442963,
      "z": 1.4261223077774048,
      "time_usec": 53368961404
    },
    {
      "x": 9.743574142456055,
      "y": -0.18903298676013947,
      "z": 1.435693621635437,
      "time_usec": 53368963658
    },
    {
      "x": 9.757930755615234,
      "y": -0.1746760457754135,
      "z": 1.4404792785644531,
      "time_usec": 53368965914
    },
    {
      "x": 9.748359680175781,
      "y": -0.16031911969184875,
      "z": 1.4261223077774048,
      "time_usec": 53368968172
    },
    {
      "x": 9.762716293334961,
      "y": -0.17946170270442963,
      "z": 1.430907964706421,
      "time_usec": 53368970430
    },
    {
      "x": 9.757930755615234,
      "y": -0.16510476171970367,
      "z": 1.435693621635437,
      "time_usec": 53368972688
    },
    {
      "x": 9.748359680175781,
      "y": -0.18903298676013947,
      "z": 1.4069796800613403,
      "time_usec": 53368974943
    },
    {
      "x": 9.58205795288086,
      "y": -0.2356930375099182,
      "z": 1.4015958309173584,
      "time_usec": 53368977196
    },
    {
      "x": 9.853045463562012,
      "y": -0.18005990982055664,
      "z": 1.3645070791244507,
      "time_usec": 53368979456
    },
    {
      "x": 9.829715728759766,
      "y": -0.1704886108636856,
      "z": 1.3405789136886597,
      "time_usec": 53368981704
    },
    {
      "x": 9.615557670593262,
      "y": -0.24586252868175507,
      "z": 1.3106685876846313,
      "time_usec": 53368983975
    },
    {
      "x": 9.67777156829834,
      "y": -0.24167509377002716,
      "z": 1.306481122970581,
      "time_usec": 53368986226
    },
    {
      "x": 9.725028991699219,
      "y": -0.23210379481315613,
      "z": 1.3112667798995972,
      "time_usec": 53368988493
    },
    {
      "x": 9.644271850585938,
      "y": -0.2554338276386261,
      "z": 1.3208380937576294,
      "time_usec": 53368990748
    },
    {
      "x": 9.587442398071289,
      "y": -0.26500511169433594,
      "z": 1.3202399015426636,
      "time_usec": 53368993003
    },
    {
      "x": 9.639486312866211,
      "y": -0.2841476798057556,
      "z": 1.3256237506866455,
      "time_usec": 53368995255
    },
    {
      "x": 9.634700775146484,
      "y": -0.26979073882102966,
      "z": 1.334596872329712,
      "time_usec": 53368997512
    },
    {
      "x": 9.596415519714355,
      "y": -0.3032902777194977,
      "z": 1.358525037765503,
      "time_usec": 53368999772
    },
    {
      "x": 9.605986595153809,
      "y": -0.31764721870422363,
      "z": 1.3250255584716797,
      "time_usec": 53369002022
    },
    {
      "x": 9.610772132873535,
      "y": -0.3080759048461914,
      "z": 1.3154542446136475,
      "time_usec": 53369004286
    },
    {
      "x": 9.610772132873535,
      "y": -0.3128615617752075,
      "z": 1.3106685876846313,
      "time_usec": 53369006542
    },
    {
      "x": 9.605986595153809,
      "y": -0.31764721870422363,
      "z": 1.296311616897583,
      "time_usec": 53369008803
    },
    {
      "x": 9.591629981994629,
      "y": -0.3367897868156433,
      "z": 1.296311616897583,
      "time_usec": 53369011063
    },
    {
      "x": 9.572486877441406,
      "y": -0.3367897868156433,
      "z": 1.296311616897583,
      "time_usec": 53369013318
    },
    {
      "x": 9.548559188842773,
      "y": -0.355932354927063,
      "z": 1.2915260791778564,
      "time_usec": 53369015573
    },
    {
      "x": 9.553942680358887,
      "y": -0.3320041298866272,
      "z": 1.3010972738265991,
      "time_usec": 53369017830
    },
    {
      "x": 9.520442962646484,
      "y": -0.3361915946006775,
      "z": 1.3010972738265991,
      "time_usec": 53369020092
    },
    {
      "x": 9.515657424926758,
      "y": -0.3409772217273712,
      "z": 1.2867404222488403,
      "time_usec": 53369022342
    },
    {
      "x": 9.525228500366211,
      "y": -0.3601198196411133,
      "z": 1.2819547653198242,
      "time_usec": 53369024606
    },
    {
      "x": 9.510871887207031,
      "y": -0.3696911036968231,
      "z": 1.2675977945327759,
      "time_usec": 53369026858
    },
    {
      "x": 9.525228500366211,
      "y": -0.37447673082351685,
      "z": 1.2532408237457275,
      "time_usec": 53369029122
    },
    {
      "x": 9.525228500366211,
      "y": -0.364905446767807,
      "z": 1.2532408237457275,
      "time_usec": 53369031378
    },
    {
      "x": 9.530014038085938,
      "y": -0.39421752095222473,
      "z": 1.2340983152389526,
      "time_usec": 53369033635
    },
    {
      "x": 9.520442962646484,
      "y": -0.4085744619369507,
      "z": 1.2340983152389526,
      "time_usec": 53369035888
    },
    {
      "x": 9.539586067199707,
      "y": -0.40378883481025696,
      "z": 1.2388839721679688,
      "time_usec": 53369038151
    },
    {
      "x": 9.520442962646484,
      "y": -0.40797626972198486,
      "z": 1.2675977945327759,
      "time_usec": 53369040407
    },
    {
      "x": 9.52941608428955,
      "y": -0.4133601188659668,
      "z": 1.277169108390808,
      "time_usec": 53369042666
    },
    {
      "x": 9.5533447265625,
      "y": -0.4468596279621124,
      "z": 1.3058829307556152,
      "time_usec": 53369044921
    },
    {
      "x": 9.54377269744873,
      "y": -0.4468596279621124,
      "z": 1.2915260791778564,
      "time_usec": 53369047176
    },
    {
      "x": 9.567103385925293,
      "y": -0.42771705985069275,
      "z": 1.3106685876846313,
      "time_usec": 53369049433
    },
    {
      "x": 9.600603103637695,
      "y": -0.4325026869773865,
      "z": 1.2675977945327759,
      "time_usec": 53369051694
    },
    {
      "x": 9.614959716796875,
      "y": -0.4372883439064026,
      "z": 1.2628121376037598,
      "time_usec": 53369053951
    },
    {
      "x": 9.605986595153809,
      "y": -0.42293140292167664,
      "z": 1.2484551668167114,
      "time_usec": 53369056202
    },
    {
      "x": 9.624530792236328,
      "y": -0.4426721930503845,
      "z": 1.2394821643829346,
      "time_usec": 53369058450
    },
    {
      "x": 9.648459434509277,
      "y": -0.42831525206565857,
      "z": 1.2346965074539185,
      "time_usec": 53369060708
    },
    {
      "x": 9.648459434509277,
      "y": -0.42352959513664246,
      "z": 1.2394821643829346,
      "time_usec": 53369062970
    },
    {
      "x": 9.620343208312988,
      "y": -0.39900317788124084,
      "z": 1.2346965074539185,
      "time_usec": 53369065240
    },
    {
      "x": 9.625128746032715,
      "y": -0.3798605799674988,
      "z": 1.2251251935958862,
      "time_usec": 53369067490
    },
    {
      "x": 9.629914283752441,
      "y": -0.3517449200153351,
      "z": 1.215553879737854,
      "time_usec": 53369069740
    },
    {
      "x": 9.625727653503418,
      "y": -0.33738797903060913,
      "z": 1.2059825658798218,
      "time_usec": 53369071998
    },
    {
      "x": 9.630513191223145,
      "y": -0.34217363595962524,
      "z": 1.1868400573730469,
      "time_usec": 53369074265
    },
    {
      "x": 9.606584548950195,
      "y": -0.3326023519039154,
      "z": 1.1820544004440308,
      "time_usec": 53369076512
    },
    {
      "x": 9.611370086669922,
      "y": -0.32303106784820557,
      "z": 1.1820544004440308,
      "time_usec": 53369078770
    },
    {
      "x": 9.625727653503418,
      "y": -0.3278166949748993,
      "z": 1.1676974296569824,
      "time_usec": 53369081026
    },
    {
      "x": 9.625727653503418,
      "y": -0.3086741268634796,
      "z": 1.1581261157989502,
      "time_usec": 53369083284
    },
    {
      "x": 9.606584548950195,
      "y": -0.3326023519039154,
      "z": 1.153340458869934,
      "time_usec": 53369085541
    },
    {
      "x": 9.592227935791016,
      "y": -0.32243284583091736,
      "z": 1.1772687435150146,
      "time_usec": 53369087802
    },
    {
      "x": 9.53061294555664,
      "y": -0.34636107087135315,
      "z": 1.1383854150772095,
      "time_usec": 53369090070
    },
    {
      "x": 9.521040916442871,
      "y": -0.34636107087135315,
      "z": 1.1670992374420166,
      "time_usec": 53369092319
    },
    {
      "x": 9.506684303283691,
      "y": -0.3607180118560791,
      "z": 1.1527422666549683,
      "time_usec": 53369094576
    },
    {
      "x": 9.492925643920898,
      "y": -0.3320041298866272,
      "z": 1.1479566097259521,
      "time_usec": 53369096826
    },
    {
      "x": 9.483354568481445,
      "y": -0.3655036687850952,
      "z": 1.1288141012191772,
      "time_usec": 53369099090
    },
    {
      "x": 9.488140106201172,
      "y": -0.35114672780036926,
      "z": 1.114457130432129,
      "time_usec": 53369101345
    },
    {
      "x": 9.497711181640625,
      "y": -0.37028929591178894,
      "z": 1.057029366493225,
      "time_usec": 53369103613
    },
    {
      "x": 9.497711181640625,
      "y": -0.34636107087135315,
      "z": 1.0666006803512573,
      "time_usec": 53369105856
    },
    {
      "x": 9.516854286193848,
      "y": -0.3415754437446594,
      "z": 1.0618150234222412,
      "time_usec": 53369108118
    },
    {
      "x": 9.531210899353027,
      "y": -0.3320041298866272,
      "z": 1.038485050201416,
      "time_usec": 53369110386
    },
    {
      "x": 9.592825889587402,
      "y": -0.3278166949748993,
      "z": 1.0671988725662231,
      "time_usec": 53369112643
    },
    {
      "x": 9.5264253616333,
      "y": -0.32243284583091736,
      "z": 1.0666006803512573,
      "time_usec": 53369114888
    },
    {
      "x": 9.517452239990234,
      "y": -0.29371899366378784,
      "z": 1.0666006803512573,
      "time_usec": 53369117145
    },
    {
      "x": 9.621540069580078,
      "y": -0.2799602448940277,
      "z": 1.1054840087890625,
      "time_usec": 53369119398
    },
    {
      "x": 9.616754531860352,
      "y": -0.275174617767334,
      "z": 1.1102696657180786,
      "time_usec": 53369121659
    },
    {
      "x": 9.611968994140625,
      "y": -0.2799602448940277,
      "z": 1.1198409795761108,
      "time_usec": 53369123918
    },
    {
      "x": 9.668798446655273,
      "y": -0.26081767678260803,
      "z": 1.153340458869934,
      "time_usec": 53369126189
    },
    {
      "x": 9.664012908935547,
      "y": -0.275174617767334,
      "z": 1.153340458869934,
      "time_usec": 53369128445
    },
    {
      "x": 9.668798446655273,
      "y": -0.28953152894973755,
      "z": 1.1437692642211914,
      "time_usec": 53369130689
    },
    {
      "x": 9.716055870056152,
      "y": -0.29012975096702576,
      "z": 1.1539387702941895,
      "time_usec": 53369132946
    },
    {
      "x": 9.711270332336426,
      "y": -0.275174617767334,
      "z": 1.1778669357299805,
      "time_usec": 53369135213
    },
    {
      "x": 9.720842361450195,
      "y": -0.2799602448940277,
      "z": 1.197009563446045,
      "time_usec": 53369137460
    },
    {
      "x": 9.720842361450195,
      "y": -0.275174617767334,
      "z": 1.2305090427398682,
      "time_usec": 53369139718
    },
    {
      "x": 9.711270332336426,
      "y": -0.2799602448940277,
      "z": 1.2490534782409668,
      "time_usec": 53369141972
    },
    {
      "x": 9.725028991699219,
      "y": -0.2847459018230438,
      "z": 1.2687941789627075,
      "time_usec": 53369144234
    },
    {
      "x": 9.715457916259766,
      "y": -0.3086741268634796,
      "z": 1.277767300605774,
      "time_usec": 53369146495
    },
    {
      "x": 9.691530227661133,
      "y": -0.33738797903060913,
      "z": 1.2634103298187256,
      "time_usec": 53369148752
    },
    {
      "x": 9.686744689941406,
      "y": -0.3517449200153351,
      "z": 1.2442678213119507,
      "time_usec": 53369151020
    },
    {
      "x": 9.672985076904297,
      "y": -0.36610186100006104,
      "z": 1.2203395366668701,
      "time_usec": 53369153269
    },
    {
      "x": 9.682557106018066,
      "y": -0.3756731450557709,
      "z": 1.191625714302063,
      "time_usec": 53369155521
    },
    {
      "x": 9.658628463745117,
      "y": -0.380458801984787,
      "z": 1.1724830865859985,
      "time_usec": 53369157784
    },
    {
      "x": 9.639486312866211,
      "y": -0.3756731450557709,
      "z": 1.1772687435150146,
      "time_usec": 53369160048
    },
    {
      "x": 9.629914283752441,
      "y": -0.3852444589138031,
      "z": 1.196411371231079,
      "time_usec": 53369162308
    },
    {
      "x": 9.611370086669922,
      "y": -0.37088751792907715,
      "z": 1.191625714302063,
      "time_usec": 53369164564
    },
    {
      "x": 9.601799011230469,
      "y": -0.3607180118560791,
      "z": 1.2346965074539185,
      "time_usec": 53369166814
    },
    {
      "x": 9.587442398071289,
      "y": -0.355932354927063,
      "z": 1.2628121376037598,
      "time_usec": 53369169077
    },
    {
      "x": 9.586843490600586,
      "y": -0.34636107087135315,
      "z": 1.2867404222488403,
      "time_usec": 53369171330
    },
    {
      "x": 9.610772132873535,
      "y": -0.3320041298866272,
      "z": 1.296311616897583,
      "time_usec": 53369173579
    },
    {
      "x": 9.605986595153809,
      "y": -0.3320041298866272,
      "z": 1.3154542446136475,
      "time_usec": 53369175843
    },
    {
      "x": 9.605986595153809,
      "y": -0.3415754437446594,
      "z": 1.3154542446136475,
      "time_usec": 53369178105
    },
    {
      "x": 9.605986595153809,
      "y": -0.3320041298866272,
      "z": 1.3106685876846313,
      "time_usec": 53369180366
    },
    {
      "x": 9.629914283752441,
      "y": -0.3367897868156433,
      "z": 1.3112667798995972,
      "time_usec": 53369182620
    },
    {
      "x": 9.634700775146484,
      "y": -0.33738797903060913,
      "z": 1.2969099283218384,
      "time_usec": 53369184862
    },
    {
      "x": 9.629914283752441,
      "y": -0.3320041298866272,
      "z": 1.2969099283218384,
      "time_usec": 53369187119
    },
    {
      "x": 9.653244972229004,
      "y": -0.34217363595962524,
      "z": 1.2969099283218384,
      "time_usec": 53369189376
    },
    {
      "x": 9.667601585388184,
      "y": -0.34695929288864136,
      "z": 1.301695466041565,
      "time_usec": 53369191640
    },
    {
      "x": 9.686744689941406,
      "y": -0.3038884699344635,
      "z": 1.2921242713928223,
      "time_usec": 53369193909
    },
    {
      "x": 9.69631576538086,
      "y": -0.31824541091918945,
      "z": 1.301695466041565,
      "time_usec": 53369196162
    },
    {
      "x": 9.729815483093262,
      "y": -0.3086741268634796,
      "z": 1.2831511497497559,
      "time_usec": 53369198424
    },
    {
      "x": 9.729815483093262,
      "y": -0.2991028428077698,
      "z": 1.292722463607788,
      "time_usec": 53369200677
    },
    {
      "x": 9.748957633972168,
      "y": -0.29431718587875366,
      "z": 1.2975081205368042,
      "time_usec": 53369202938
    },
    {
      "x": 9.753145217895508,
      "y": -0.31405797600746155,
      "z": 1.2975081205368042,
      "time_usec": 53369205193
    },
    {
      "x": 9.768099784851074,
      "y": -0.2757728099822998,
      "z": 1.2831511497497559,
      "time_usec": 53369207446
    },
    {
      "x": 9.791430473327637,
      "y": -0.2805584669113159,
      "z": 1.311864972114563,
      "time_usec": 53369209708
    },
    {
      "x": 9.796216011047363,
      "y": -0.2757728099822998,
      "z": 1.2735798358917236,
      "time_usec": 53369211966
    },
    {
      "x": 9.80100154876709,
      "y": -0.26141586899757385,
      "z": 1.292722463607788,
      "time_usec": 53369214223
    },
    {
      "x": 9.810572624206543,
      "y": -0.2757728099822998,
      "z": 1.2687941789627075,
      "time_usec": 53369216476
    },
    {
      "x": 9.829715728759766,
      "y": -0.26620152592658997,
      "z": 1.2502498626708984,
      "time_usec": 53369218740
    },
    {
      "x": 9.848857879638672,
      "y": -0.251844584941864,
      "z": 1.2646067142486572,
      "time_usec": 53369220990
    },
    {
      "x": 9.863214492797852,
      "y": -0.23808585107326508,
      "z": 1.2454642057418823,
      "time_usec": 53369223240
    },
    {
      "x": 9.858428955078125,
      "y": -0.25244277715682983,
      "z": 1.2598211765289307,
      "time_usec": 53369225503
    },
    {
      "x": 9.8871431350708,
      "y": -0.23808585107326508,
      "z": 1.2598211765289307,
      "time_usec": 53369227763
    },
    {
      "x": 9.877572059631348,
      "y": -0.2476571500301361,
      "z": 1.2741780281066895,
      "time_usec": 53369230027
    },
    {
      "x": 9.89133071899414,
      "y": -0.25244277715682983,
      "z": 1.2741780281066895,
      "time_usec": 53369232279
    },
    {
      "x": 9.910472869873047,
      "y": -0.2476571500301361,
      "z": 1.2837493419647217,
      "time_usec": 53369234540
    },
    {
      "x": 9.90568733215332,
      "y": -0.25244277715682983,
      "z": 1.3076776266098022,
      "time_usec": 53369236792
    },
    {
      "x": 9.89133071899414,
      "y": -0.23808585107326508,
      "z": 1.3124631643295288,
      "time_usec": 53369239054
    },
    {
      "x": 9.886545181274414,
      "y": -0.25244277715682983,
      "z": 1.293320655822754,
      "time_usec": 53369241311
    },
    {
      "x": 9.886545181274414,
      "y": -0.2667997181415558,
      "z": 1.3076776266098022,
      "time_usec": 53369243566
    },
    {
      "x": 9.867402076721191,
      "y": -0.2763710021972656,
      "z": 1.29810631275177,
      "time_usec": 53369245821
    },
    {
      "x": 9.867402076721191,
      "y": -0.28594231605529785,
      "z": 1.2789636850357056,
      "time_usec": 53369248083
    },
    {
      "x": 9.834501266479492,
      "y": -0.26620152592658997,
      "z": 1.2741780281066895,
      "time_usec": 53369250341
    },
    {
      "x": 9.810572624206543,
      "y": -0.2709871530532837,
      "z": 1.2735798358917236,
      "time_usec": 53369252599
    },
    {
      "x": 9.781859397888184,
      "y": -0.28534409403800964,
      "z": 1.2831511497497559,
      "time_usec": 53369254856
    },
    {
      "x": 9.78664493560791,
      "y": -0.29012975096702576,
      "z": 1.2735798358917236,
      "time_usec": 53369257108
    },
    {
      "x": 9.792028427124023,
      "y": -0.2709871530532837,
      "z": 1.2687941789627075,
      "time_usec": 53369259370
    },
    {
      "x": 9.792028427124023,
      "y": -0.26141586899757385,
      "z": 1.2735798358917236,
      "time_usec": 53369261627
    },
    {
      "x": 9.78664493560791,
      "y": -0.2757728099822998,
      "z": 1.2735798358917236,
      "time_usec": 53369263885
    },
    {
      "x": 9.792028427124023,
      "y": -0.2757728099822998,
      "z": 1.2448660135269165,
      "time_usec": 53369266137
    },
    {
      "x": 9.801599502563477,
      "y": -0.2805584669113159,
      "z": 1.2352946996688843,
      "time_usec": 53369268399
    },
    {
      "x": 9.79681396484375,
      "y": -0.28534409403800964,
      "z": 1.2161520719528198,
      "time_usec": 53369270654
    },
    {
      "x": 9.8207426071167,
      "y": -0.29012975096702576,
      "z": 1.1976077556610107,
      "time_usec": 53369272917
    },
    {
      "x": 9.81117057800293,
      "y": -0.29012975096702576,
      "z": 1.1928220987319946,
      "time_usec": 53369275170
    },
    {
      "x": 9.8207426071167,
      "y": -0.2805584669113159,
      "z": 1.1880364418029785,
      "time_usec": 53369277425
    },
    {
      "x": 9.815957069396973,
      "y": -0.2709871530532837,
      "z": 1.2023934125900269,
      "time_usec": 53369279685
    },
    {
      "x": 9.801599502563477,
      "y": -0.2805584669113159,
      "z": 1.2448660135269165,
      "time_usec": 53369281940
    },
    {
      "x": 9.805787086486816,
      "y": -0.2757728099822998,
      "z": 1.2544373273849487,
      "time_usec": 53369284205
    },
    {
      "x": 9.768099784851074,
      "y": -0.2566302418708801,
      "z": 1.2544373273849487,
      "time_usec": 53369286453
    },
    {
      "x": 9.777671813964844,
      "y": -0.26141586899757385,
      "z": 1.2640085220336914,
      "time_usec": 53369288717
    },
    {
      "x": 9.768099784851074,
      "y": -0.26620152592658997,
      "z": 1.2783654928207397,
      "time_usec": 53369290974
    },
    {
      "x": 9.744172096252441,
      "y": -0.26560330390930176,
      "z": 1.2687941789627075,
      "time_usec": 53369293231
    },
    {
      "x": 9.729815483093262,
      "y": -0.26560330390930176,
      "z": 1.2783654928207397,
      "time_usec": 53369295482
    },
    {
      "x": 9.729815483093262,
      "y": -0.28953152894973755,
      "z": 1.2592228651046753,
      "time_usec": 53369297739
    },
    {
      "x": 9.716055870056152,
      "y": -0.275174617767334,
      "z": 1.2400803565979004,
      "time_usec": 53369300002
    },
    {
      "x": 9.711270332336426,
      "y": -0.2847459018230438,
      "z": 1.2448660135269165,
      "time_usec": 53369302257
    },
    {
      "x": 9.67777156829834,
      "y": -0.28953152894973755,
      "z": 1.2538390159606934,
      "time_usec": 53369304517
    },
    {
      "x": 9.682557106018066,
      "y": -0.3038884699344635,
      "z": 1.2729816436767578,
      "time_usec": 53369306766
    },
    {
      "x": 9.65384292602539,
      "y": -0.31345975399017334,
      "z": 1.2634103298187256,
      "time_usec": 53369309020
    },
    {
      "x": 9.629914283752441,
      "y": -0.3326023519039154,
      "z": 1.2681959867477417,
      "time_usec": 53369311286
    },
    {
      "x": 9.658628463745117,
      "y": -0.33738797903060913,
      "z": 1.2873386144638062,
      "time_usec": 53369313547
    },
    {
      "x": 9.625128746032715,
      "y": -0.3320041298866272,
      "z": 1.2873386144638062,
      "time_usec": 53369315802
    },
    {
      "x": 9.610772132873535,
      "y": -0.34636107087135315,
      "z": 1.2915260791778564,
      "time_usec": 53369318059
    },
    {
      "x": 9.610772132873535,
      "y": -0.3607180118560791,
      "z": 1.3010972738265991,
      "time_usec": 53369320306
    },
    {
      "x": 9.596415519714355,
      "y": -0.35114672780036926,
      "z": 1.3058829307556152,
      "time_usec": 53369322575
    },
    {
      "x": 9.58205795288086,
      "y": -0.3655036687850952,
      "z": 1.2915260791778564,
      "time_usec": 53369324832
    },
    {
      "x": 9.572486877441406,
      "y": -0.355932354927063,
      "z": 1.3106685876846313,
      "time_usec": 53369327090
    },
    {
      "x": 9.553942680358887,
      "y": -0.3655036687850952,
      "z": 1.2867404222488403,
      "time_usec": 53369329349
    },
    {
      "x": 9.539586067199707,
      "y": -0.3367897868156433,
      "z": 1.277169108390808,
      "time_usec": 53369331605
    },
    {
      "x": 9.558728218078613,
      "y": -0.3367897868156433,
      "z": 1.272383451461792,
      "time_usec": 53369333863
    },
    {
      "x": 9.544371604919434,
      "y": -0.34636107087135315,
      "z": 1.277169108390808,
      "time_usec": 53369336115
    },
    {
      "x": 9.553942680358887,
      "y": -0.355932354927063,
      "z": 1.2580264806747437,
      "time_usec": 53369338377
    },
    {
      "x": 9.558728218078613,
      "y": -0.34636107087135315,
      "z": 1.2532408237457275,
      "time_usec": 53369340631
    },
    {
      "x": 9.57787036895752,
      "y": -0.32721850275993347,
      "z": 1.2436695098876953,
      "time_usec": 53369342894
    },
    {
      "x": 9.573084831237793,
      "y": -0.34636107087135315,
      "z": 1.2340983152389526,
      "time_usec": 53369345149
    },
    {
      "x": 9.573084831237793,
      "y": -0.34636107087135315,
      "z": 1.2436695098876953,
      "time_usec": 53369347403
    },
    {
      "x": 9.568299293518066,
      "y": -0.3607180118560791,
      "z": 1.2197413444519043,
      "time_usec": 53369349665
    },
    {
      "x": 9.573084831237793,
      "y": -0.3415754437446594,
      "z": 1.2149556875228882,
      "time_usec": 53369351921
    },
    {
      "x": 9.597013473510742,
      "y": -0.32721850275993347,
      "z": 1.2203395366668701,
      "time_usec": 53369354179
    },
    {
      "x": 9.597013473510742,
      "y": -0.3320041298866272,
      "z": 1.2059825658798218,
      "time_usec": 53369356431
    },
    {
      "x": 9.611370086669922,
      "y": -0.2841476798057556,
      "z": 1.2059825658798218,
      "time_usec": 53369358693
    },
    {
      "x": 9.620942115783691,
      "y": -0.28953152894973755,
      "z": 1.196411371231079,
      "time_usec": 53369360952
    },
    {
      "x": 9.597013473510742,
      "y": -0.29371899366378784,
      "z": 1.215553879737854,
      "time_usec": 53369363211
    },
    {
      "x": 9.611370086669922,
      "y": -0.2602194547653198,
      "z": 1.2059825658798218,
      "time_usec": 53369365458
    },
    {
      "x": 9.597611427307129,
      "y": -0.26500511169433594,
      "z": 1.191625714302063,
      "time_usec": 53369367710
    },
    {
      "x": 9.592825889587402,
      "y": -0.2841476798057556,
      "z": 1.1629117727279663,
      "time_usec": 53369369980
    },
    {
      "x": 9.597611427307129,
      "y": -0.26979073882102966,
      "z": 1.1629117727279663,
      "time_usec": 53369372239
    },
    {
      "x": 9.592825889587402,
      "y": -0.2847459018230438,
      "z": 1.1102696657180786,
      "time_usec": 53369374497
    },
    {
      "x": 9.58325481414795,
      "y": -0.2745763957500458,
      "z": 1.124626636505127,
      "time_usec": 53369376746
    },
    {
      "x": 9.57906723022461,
      "y": -0.26560330390930176,
      "z": 1.0767701864242554,
      "time_usec": 53369379005
    },
    {
      "x": 9.583852767944336,
      "y": -0.2799602448940277,
      "z": 1.057627558708191,
      "time_usec": 53369381262
    },
    {
      "x": 9.593423843383789,
      "y": -0.275174617767334,
      "z": 1.0528420209884644,
      "time_usec": 53369383518
    },
    {
      "x": 9.593423843383789,
      "y": -0.275174617767334,
      "z": 1.0145567655563354,
      "time_usec": 53369385777
    },
    {
      "x": 9.588638305664062,
      "y": -0.275174617767334,
      "z": 1.0097711086273193,
      "time_usec": 53369388036
    },
    {
      "x": 9.626923561096191,
      "y": -0.26081767678260803,
      "z": 0.9912267923355103,
      "time_usec": 53369390302
    },
    {
      "x": 9.626923561096191,
      "y": -0.2799602448940277,
      "z": 0.9864411354064941,
      "time_usec": 53369392558
    },
    {
      "x": 9.631709098815918,
      "y": -0.27038896083831787,
      "z": 0.9768698215484619,
      "time_usec": 53369394811
    },
    {
      "x": 9.655637741088867,
      "y": -0.2709871530532837,
      "z": 0.9720842242240906,
      "time_usec": 53369397063
    },
    {
      "x": 9.655637741088867,
      "y": -0.2566302418708801,
      "z": 0.9768698215484619,
      "time_usec": 53369399324
    },
    {
      "x": 9.626923561096191,
      "y": -0.21296121180057526,
      "z": 0.9864411354064941,
      "time_usec": 53369401572
    },
    {
      "x": 9.631709098815918,
      "y": -0.24167509377002716,
      "z": 1.0055837631225586,
      "time_usec": 53369403841
    },
    {
      "x": 9.626923561096191,
      "y": -0.24646073579788208,
      "z": 1.0199406147003174,
      "time_usec": 53369406093
    },
    {
      "x": 9.602995872497559,
      "y": -0.20338992774486542,
      "z": 1.038485050201416,
      "time_usec": 53369408357
    },
    {
      "x": 9.598209381103516,
      "y": -0.24646073579788208,
      "z": 1.0528420209884644,
      "time_usec": 53369410609
    },
    {
      "x": 9.602995872497559,
      "y": -0.26560330390930176,
      "z": 1.062413215637207,
      "time_usec": 53369412871
    },
    {
      "x": 9.588638305664062,
      "y": -0.27038896083831787,
      "z": 1.0719845294952393,
      "time_usec": 53369415126
    },
    {
      "x": 9.597611427307129,
      "y": -0.27038896083831787,
      "z": 1.1054840087890625,
      "time_usec": 53369417381
    },
    {
      "x": 9.597611427307129,
      "y": -0.3086741268634796,
      "z": 1.1102696657180786,
      "time_usec": 53369419636
    },
    {
      "x": 9.611968994140625,
      "y": -0.29431718587875366,
      "z": 1.1198409795761108,
      "time_usec": 53369421887
    },
    {
      "x": 9.597611427307129,
      "y": -0.31824541091918945,
      "z": 1.1102696657180786,
      "time_usec": 53369424156
    },
    {
      "x": 9.631111145019531,
      "y": -0.3038884699344635,
      "z": 1.0911271572113037,
      "time_usec": 53369426410
    },
    {
      "x": 9.607182502746582,
      "y": -0.31345975399017334,
      "z": 1.124626636505127,
      "time_usec": 53369428675
    },
    {
      "x": 9.607182502746582,
      "y": -0.2991028428077698,
      "z": 1.124626636505127,
      "time_usec": 53369430929
    },
    {
      "x": 9.588040351867676,
      "y": -0.3032902777194977,
      "z": 1.1389836072921753,
      "time_usec": 53369433187
    },
    {
      "x": 9.578469276428223,
      "y": -0.28893333673477173,
      "z": 1.1485549211502075,
      "time_usec": 53369435440
    },
    {
      "x": 9.58325481414795,
      "y": -0.3080759048461914,
      "z": 1.1676974296569824,
      "time_usec": 53369437696
    },
    {
      "x": 9.592825889587402,
      "y": -0.3128615617752075,
      "z": 1.1676974296569824,
      "time_usec": 53369439959
    },
    {
      "x": 9.587442398071289,
      "y": -0.3080759048461914,
      "z": 1.1868400573730469,
      "time_usec": 53369442217
    },
    {
      "x": 9.606584548950195,
      "y": -0.3278166949748993,
      "z": 1.1820544004440308,
      "time_usec": 53369444473
    },
    {
      "x": 9.625727653503418,
      "y": -0.32303106784820557,
      "z": 1.1724830865859985,
      "time_usec": 53369446725
    },
    {
      "x": 9.625727653503418,
      "y": -0.33738797903060913,
      "z": 1.1772687435150146,
      "time_usec": 53369448988
    },
    {
      "x": 9.620942115783691,
      "y": -0.33738797903060913,
      "z": 1.2011969089508057,
      "time_usec": 53369451247
    },
    {
      "x": 9.629914283752441,
      "y": -0.3517449200153351,
      "z": 1.215553879737854,
      "time_usec": 53369453504
    },
    {
      "x": 9.620343208312988,
      "y": -0.37088751792907715,
      "z": 1.2059825658798218,
      "time_usec": 53369455754
    },
    {
      "x": 9.630513191223145,
      "y": -0.34217363595962524,
      "z": 1.1820544004440308,
      "time_usec": 53369458015
    },
    {
      "x": 9.630513191223145,
      "y": -0.3565305769443512,
      "z": 1.1581261157989502,
      "time_usec": 53369460269
    },
    {
      "x": 9.644869804382324,
      "y": -0.34217363595962524,
      "z": 1.1629117727279663,
      "time_usec": 53369462533
    },
    {
      "x": 9.616155624389648,
      "y": -0.3613162338733673,
      "z": 1.1341979503631592,
      "time_usec": 53369464788
    },
    {
      "x": 9.635298728942871,
      "y": -0.3613162338733673,
      "z": 1.1389836072921753,
      "time_usec": 53369467043
    },
    {
      "x": 9.616155624389648,
      "y": -0.3756731450557709,
      "z": 1.1198409795761108,
      "time_usec": 53369469305
    },
    {
      "x": 9.625727653503418,
      "y": -0.3756731450557709,
      "z": 1.129412293434143,
      "time_usec": 53369471562
    },
    {
      "x": 9.620942115783691,
      "y": -0.37088751792907715,
      "z": 1.0863415002822876,
      "time_usec": 53369473806
    },
    {
      "x": 9.630513191223145,
      "y": -0.3852444589138031,
      "z": 1.0719845294952393,
      "time_usec": 53369476060
    },
    {
      "x": 9.630513191223145,
      "y": -0.3756731450557709,
      "z": 1.062413215637207,
      "time_usec": 53369478320
    },
    {
      "x": 9.611370086669922,
      "y": -0.3852444589138031,
      "z": 1.0863415002822876,
      "time_usec": 53369480594
    },
    {
      "x": 9.640084266662598,
      "y": -0.3756731450557709,
      "z": 1.0911271572113037,
      "time_usec": 53369482851
    },
    {
      "x": 9.640084266662598,
      "y": -0.3900300860404968,
      "z": 1.1054840087890625,
      "time_usec": 53369485106
    },
    {
      "x": 9.640084266662598,
      "y": -0.37088751792907715,
      "z": 1.1054840087890625,
      "time_usec": 53369487351
    },
    {
      "x": 9.649057388305664,
      "y": -0.37088751792907715,
      "z": 1.1437692642211914,
      "time_usec": 53369489621
    },
    {
      "x": 9.658628463745117,
      "y": -0.3565305769443512,
      "z": 1.1676974296569824,
      "time_usec": 53369491877
    },
    {
      "x": 9.682557106018066,
      "y": -0.34695929288864136,
      "z": 1.1724830865859985,
      "time_usec": 53369494137
    },
    {
      "x": 9.710672378540039,
      "y": -0.3326023519039154,
      "z": 1.2065808773040771,
      "time_usec": 53369496387
    },
    {
      "x": 9.720243453979492,
      "y": -0.34217363595962524,
      "z": 1.2161520719528198,
      "time_usec": 53369498649
    },
    {
      "x": 9.739386558532715,
      "y": -0.34277185797691345,
      "z": 1.225723385810852,
      "time_usec": 53369500907
    },
    {
      "x": 9.739386558532715,
      "y": -0.357128769159317,
      "z": 1.2352946996688843,
      "time_usec": 53369503166
    },
    {
      "x": 9.753743171691895,
      "y": -0.3523431420326233,
      "z": 1.2448660135269165,
      "time_usec": 53369505424
    },
    {
      "x": 9.77707290649414,
      "y": -0.36670008301734924,
      "z": 1.2640085220336914,
      "time_usec": 53369507676
    },
    {
      "x": 9.738788604736328,
      "y": -0.39541393518447876,
      "z": 1.2831511497497559,
      "time_usec": 53369509937
    },
    {
      "x": 9.757930755615234,
      "y": -0.3858426511287689,
      "z": 1.2831511497497559,
      "time_usec": 53369512193
    },
    {
      "x": 9.748359680175781,
      "y": -0.4001995921134949,
      "z": 1.292722463607788,
      "time_usec": 53369514450
    },
    {
      "x": 9.738788604736328,
      "y": -0.4097708761692047,
      "z": 1.2975081205368042,
      "time_usec": 53369516703
    },
    {
      "x": 9.734002113342285,
      "y": -0.41934216022491455,
      "z": 1.2975081205368042,
      "time_usec": 53369518963
    },
    {
      "x": 9.719645500183105,
      "y": -0.42831525206565857,
      "z": 1.3112667798995972,
      "time_usec": 53369521211
    },
    {
      "x": 9.734002113342285,
      "y": -0.4289134442806244,
      "z": 1.292722463607788,
      "time_usec": 53369523481
    },
    {
      "x": 9.729216575622559,
      "y": -0.4384847581386566,
      "z": 1.287936806678772,
      "time_usec": 53369525734
    },
    {
      "x": 9.729216575622559,
      "y": -0.45284169912338257,
      "z": 1.287936806678772,
      "time_usec": 53369528000
    },
    {
      "x": 9.729216575622559,
      "y": -0.45284169912338257,
      "z": 1.287936806678772,
      "time_usec": 53369530257
    },
    {
      "x": 9.742975234985352,
      "y": -0.47198426723480225,
      "z": 1.287936806678772,
      "time_usec": 53369532508
    },
    {
      "x": 9.752547264099121,
      "y": -0.47676992416381836,
      "z": 1.2831511497497559,
      "time_usec": 53369534753
    },
    {
      "x": 9.762118339538574,
      "y": -0.4863412082195282,
      "z": 1.292722463607788,
      "time_usec": 53369537018
    },
    {
      "x": 9.771689414978027,
      "y": -0.4815555512905121,
      "z": 1.2975081205368042,
      "time_usec": 53369539274
    },
    {
      "x": 9.818947792053223,
      "y": -0.49651068449020386,
      "z": 1.2975081205368042,
      "time_usec": 53369541530
    },
    {
      "x": 9.833304405212402,
      "y": -0.5108676552772522,
      "z": 1.2783654928207397,
      "time_usec": 53369543784
    },
    {
      "x": 9.847661972045898,
      "y": -0.5108676552772522,
      "z": 1.2837493419647217,
      "time_usec": 53369546047
    },
    {
      "x": 9.875777244567871,
      "y": -0.5204389095306396,
      "z": 1.2598211765289307,
      "time_usec": 53369548301
    },
    {
      "x": 9.871589660644531,
      "y": -0.5300102233886719,
      "z": 1.2406785488128662,
      "time_usec": 53369550560
    },
    {
      "x": 9.876375198364258,
      "y": -0.49172505736351013,
      "z": 1.2215359210968018,
      "time_usec": 53369552828
    },
    {
      "x": 9.862018585205078,
      "y": -0.486939400434494,
      "z": 1.2215359210968018,
      "time_usec": 53369555086
    },
    {
      "x": 9.833903312683105,
      "y": -0.4821537733078003,
      "z": 1.2215359210968018,
      "time_usec": 53369557338
    },
    {
      "x": 9.838089942932129,
      "y": -0.486939400434494,
      "z": 1.231107234954834,
      "time_usec": 53369559598
    },
    {
      "x": 9.800403594970703,
      "y": -0.46779683232307434,
      "z": 1.2305090427398682,
      "time_usec": 53369561856
    },
    {
      "x": 9.814760208129883,
      "y": -0.4821537733078003,
      "z": 1.2352946996688843,
      "time_usec": 53369564113
    },
    {
      "x": 9.776474952697754,
      "y": -0.4911268353462219,
      "z": 1.2544373273849487,
      "time_usec": 53369566362
    },
    {
      "x": 9.78126049041748,
      "y": -0.5102694034576416,
      "z": 1.2640085220336914,
      "time_usec": 53369568614
    },
    {
      "x": 9.7669038772583,
      "y": -0.5246263742446899,
      "z": 1.2640085220336914,
      "time_usec": 53369570885
    },
    {
      "x": 9.742975234985352,
      "y": -0.5389832854270935,
      "z": 1.2640085220336914,
      "time_usec": 53369573144
    },
    {
      "x": 9.756733894348145,
      "y": -0.582054078578949,
      "z": 1.292722463607788,
      "time_usec": 53369575402
    },
    {
      "x": 9.775876998901367,
      "y": -0.5916253924369812,
      "z": 1.311864972114563,
      "time_usec": 53369577652
    },
    {
      "x": 9.780064582824707,
      "y": -0.6107679605484009,
      "z": 1.3453645706176758,
      "time_usec": 53369579916
    },
    {
      "x": 9.780064582824707,
      "y": -0.6346961855888367,
      "z": 1.3836497068405151,
      "time_usec": 53369582168
    },
    {
      "x": 9.784252166748047,
      "y": -0.6538388133049011,
      "z": 1.4171491861343384,
      "time_usec": 53369584416
    },
    {
      "x": 9.803394317626953,
      "y": -0.6586244106292725,
      "z": 1.4219348430633545,
      "time_usec": 53369586680
    },
    {
      "x": 9.817152976989746,
      "y": -0.6777670383453369,
      "z": 1.4506487846374512,
      "time_usec": 53369588944
    },
    {
      "x": 9.817152976989746,
      "y": -0.6681957244873047,
      "z": 1.4554343223571777,
      "time_usec": 53369591204
    },
    {
      "x": 9.8267240524292,
      "y": -0.6921239495277405,
      "z": 1.445863127708435,
      "time_usec": 53369593459
    },
    {
      "x": 9.817152976989746,
      "y": -0.6969096064567566,
      "z": 1.445863127708435,
      "time_usec": 53369595711
    },
    {
      "x": 9.836296081542969,
      "y": -0.6927221417427063,
      "z": 1.4315061569213867,
      "time_usec": 53369597974
    },
    {
      "x": 9.845867156982422,
      "y": -0.6879364848136902,
      "z": 1.4219348430633545,
      "time_usec": 53369600227
    },
    {
      "x": 9.865009307861328,
      "y": -0.6735795736312866,
      "z": 1.4123635292053223,
      "time_usec": 53369602477
    },
    {
      "x": 9.903294563293457,
      "y": -0.6640082597732544,
      "z": 1.389033555984497,
      "time_usec": 53369604744
    },
    {
      "x": 9.908080101013184,
      "y": -0.6305087804794312,
      "z": 1.3459627628326416,
      "time_usec": 53369606997
    },
    {
      "x": 9.91825008392334,
      "y": -0.6023930907249451,
      "z": 1.317248821258545,
      "time_usec": 53369609259
    },
    {
      "x": 9.951150894165039,
      "y": -0.6023930907249451,
      "z": 1.2885349988937378,
      "time_usec": 53369611517
    },
    {
      "x": 9.951749801635742,
      "y": -0.5736792087554932,
      "z": 1.2604193687438965,
      "time_usec": 53369613775
    },
    {
      "x": 9.975677490234375,
      "y": -0.5832505226135254,
      "z": 1.2652050256729126,
      "time_usec": 53369616026
    },
    {
      "x": 9.980463027954102,
      "y": -0.5545366406440735,
      "z": 1.2317054271697998,
      "time_usec": 53369618273
    },
    {
      "x": 9.975677490234375,
      "y": -0.544965386390686,
      "z": 1.217348575592041,
      "time_usec": 53369620534
    },
    {
      "x": 9.985248565673828,
      "y": -0.5210371017456055,
      "z": 1.1982059478759766,
      "time_usec": 53369622805
    },
    {
      "x": 9.981060981750488,
      "y": -0.5018945336341858,
      "z": 1.1838489770889282,
      "time_usec": 53369625063
    },
    {
      "x": 9.985847473144531,
      "y": -0.47796630859375,
      "z": 1.217348575592041,
      "time_usec": 53369627316
    },
    {
      "x": 9.971489906311035,
      "y": -0.46360939741134644,
      "z": 1.2269197702407837,
      "time_usec": 53369629574
    },
    {
      "x": 9.985847473144531,
      "y": -0.43489551544189453,
      "z": 1.2269197702407837,
      "time_usec": 53369631834
    },
    {
      "x": 9.966704368591309,
      "y": -0.4061816334724426,
      "z": 1.236491084098816,
      "time_usec": 53369634092
    },
    {
      "x": 9.948160171508789,
      "y": -0.4013960063457489,
      "z": 1.2317054271697998,
      "time_usec": 53369636344
    },
    {
      "x": 9.92423152923584,
      "y": -0.381655216217041,
      "z": 1.23589289188385,
      "time_usec": 53369638603
    },
    {
      "x": 9.92423152923584,
      "y": -0.3720839321613312,
      "z": 1.231107234954834,
      "time_usec": 53369640847
    },
    {
      "x": 9.92423152923584,
      "y": -0.381655216217041,
      "z": 1.23589289188385,
      "time_usec": 53369643106
    },
    {
      "x": 9.90568733215332,
      "y": -0.3768695592880249,
      "z": 1.2215359210968018,
      "time_usec": 53369645364
    },
    {
      "x": 9.905089378356934,
      "y": -0.38644084334373474,
      "z": 1.23589289188385,
      "time_usec": 53369647622
    },
    {
      "x": 9.900303840637207,
      "y": -0.39601215720176697,
      "z": 1.2646067142486572,
      "time_usec": 53369649883
    },
    {
      "x": 9.885947227478027,
      "y": -0.4582255482673645,
      "z": 1.29810631275177,
      "time_usec": 53369652151
    },
    {
      "x": 9.866804122924805,
      "y": -0.4630111753940582,
      "z": 1.3316057920455933,
      "time_usec": 53369654394
    },
    {
      "x": 9.875777244567871,
      "y": -0.4773681163787842,
      "z": 1.3794622421264648,
      "time_usec": 53369656655
    },
    {
      "x": 9.89432144165039,
      "y": -0.4773681163787842,
      "z": 1.4273186922073364,
      "time_usec": 53369658918
    },
    {
      "x": 9.879964828491211,
      "y": -0.486939400434494,
      "z": 1.4315061569213867,
      "time_usec": 53369661169
    },
    {
      "x": 9.899106979370117,
      "y": -0.47258245944976807,
      "z": 1.4225330352783203,
      "time_usec": 53369663438
    },
    {
      "x": 9.894919395446777,
      "y": -0.4582255482673645,
      "z": 1.3986048698425293,
      "time_usec": 53369665688
    },
    {
      "x": 9.918848037719727,
      "y": -0.4486542344093323,
      "z": 1.3746765851974487,
      "time_usec": 53369667955
    },
    {
      "x": 9.92841911315918,
      "y": -0.4295116662979126,
      "z": 1.3411771059036255,
      "time_usec": 53369670210
    },
    {
      "x": 9.929018020629883,
      "y": -0.39601215720176697,
      "z": 1.3124631643295288,
      "time_usec": 53369672467
    },
    {
      "x": 9.938589096069336,
      "y": -0.3774677813053131,
      "z": 1.2837493419647217,
      "time_usec": 53369674722
    },
    {
      "x": 9.938589096069336,
      "y": -0.372682124376297,
      "z": 1.241276741027832,
      "time_usec": 53369676972
    },
    {
      "x": 9.920044898986816,
      "y": -0.3535395562648773,
      "z": 1.2263215780258179,
      "time_usec": 53369679225
    },
    {
      "x": 9.900901794433594,
      "y": -0.33858439326286316,
      "z": 1.207179069519043,
      "time_usec": 53369681492
    },
    {
      "x": 9.882357597351074,
      "y": -0.3194418251514435,
      "z": 1.1736794710159302,
      "time_usec": 53369683740
    },
    {
      "x": 9.849455833435059,
      "y": -0.2955136001110077,
      "z": 1.144965648651123,
      "time_usec": 53369686005
    },
    {
      "x": 9.826126098632812,
      "y": -0.28115665912628174,
      "z": 1.0971091985702515,
      "time_usec": 53369688256
    },
    {
      "x": 9.783653259277344,
      "y": -0.26201409101486206,
      "z": 1.077966570854187,
      "time_usec": 53369690526
    },
    {
      "x": 9.764511108398438,
      "y": -0.24227328598499298,
      "z": 1.0827522277832031,
      "time_usec": 53369692774
    },
    {
