{
  "frames": [
    {
      "frame_id": 0,
      "sensor_timestamp": 53369094937283,
      "time_usec": 53369094937
    },
    {
      "frame_id": 1,
      "sensor_timestamp": 53369161429958,
      "time_usec": 53369161429
    },
    {
      "frame_id": 2,
      "sensor_timestamp": 53369194676540,
      "time_usec": 53369194676
    },
    {
      "frame_id": 3,
      "sensor_timestamp": 53369227922878,
      "time_usec": 53369227922
    },
    {
      "frame_id": 4,
      "sensor_timestamp": 53369261169216,
      "time_usec": 53369261169
    },
    {
      "frame_id": 5,
      "sensor_timestamp": 53369294415554,
      "time_usec": 53369294415
    },
    {
      "frame_id": 6,
      "sensor_timestamp": 53369327662136,
      "time_usec": 53369327662
    },
    {
      "frame_id": 7,
      "sensor_timestamp": 53369360908474,
      "time_usec": 53369360908
    },
    {
      "frame_id": 8,
      "sensor_timestamp": 53369394154812,
      "time_usec": 53369394154
    },
    {
      "frame_id": 9,
      "sensor_timestamp": 53369427401150,
      "time_usec": 53369427401
    },
    {
      "frame_id": 10,
      "sensor_timestamp": 53369460647732,
      "time_usec": 53369460647
    },
    {
      "frame_id": 11,
      "sensor_timestamp": 53369493894070,
      "time_usec": 53369493894
    },
    {
      "frame_id": 12,
      "sensor_timestamp": 53369527140408,
      "time_usec": 53369527140
    },
    {
      "frame_id": 13,
      "sensor_timestamp": 53369560386745,
      "time_usec": 53369560386
    },
    {
      "frame_id": 14,
      "sensor_timestamp": 53369593633327,
      "time_usec": 53369593633
    },
    {
      "frame_id": 15,
      "sensor_timestamp": 53369626879665,
      "time_usec": 53369626879
    },
    {
      "frame_id": 16,
      "sensor_timestamp": 53369660126003,
      "time_usec": 53369660126
    },
    {
      "frame_id": 17,
      "sensor_timestamp": 53369693372341,
      "time_usec": 53369693372
    },
    {
      "frame_id": 18,
      "sensor_timestamp": 53369726618923,
      "time_usec": 53369726618
    },
    {
      "frame_id": 19,
      "sensor_timestamp": 53369759865261,
      "time_usec": 53369759865
    },
    {
      "frame_id": 20,
      "sensor_timestamp": 53369793111599,
      "time_usec": 53369793111
    },
    {
      "frame_id": 21,
      "sensor_timestamp": 53369826357937,
      "time_usec": 53369826357
    },
    {
      "frame_id": 22,
      "sensor_timestamp": 53369859604519,
      "time_usec": 53369859604
    },
    {
      "frame_id": 23,
      "sensor_timestamp": 53369892850857,
      "time_usec": 53369892850
    },
    {
      "frame_id": 24,
      "sensor_timestamp": 53369926097195,
      "time_usec": 53369926097
    },
    {
      "frame_id": 25,
      "sensor_timestamp": 53369959343533,
      "time_usec": 53369959343
    },
    {
      "frame_id": 26,
      "sensor_timestamp": 53369992590115,
      "time_usec": 53369992590
    },
    {
      "frame_id": 27,
      "sensor_timestamp": 53370025836452,
      "time_usec": 53370025836
    },
    {
      "frame_id": 28,
      "sensor_timestamp": 53370059082790,
      "time_usec": 53370059082
    },
    {
      "frame_id": 29,
      "sensor_timestamp": 53370092329128,
      "time_usec": 53370092329
    },
    {
      "frame_id": 30,
      "sensor_timestamp": 53370125575466,
      "time_usec": 53370125575
    },
    {
      "frame_id": 31,
      "sensor_timestamp": 53370158822048,
      "time_usec": 53370158822
    },
    {
      "frame_id": 32,
      "sensor_timestamp": 53370192068386,
      "time_usec": 53370192068
    },
    {
      "frame_id": 33,
      "sensor_timestamp": 53370225314724,
      "time_usec": 53370225314
    },
    {
      "frame_id": 34,
      "sensor_timestamp": 53370258561062,
      "time_usec": 53370258561
    },
    {
      "frame_id": 35,
      "sensor_timestamp": 53370291807644,
      "time_usec": 53370291807
    },
    {
      "frame_id": 36,
      "sensor_timestamp": 53370325053982,
      "time_usec": 53370325053
    },
    {
      "frame_id": 37,
      "sensor_timestamp": 53370358300320,
      "time_usec": 53370358300
    },
    {
      "frame_id": 38,
      "sensor_timestamp": 53370391546658,
      "time_usec": 53370391546
    },
    {
      "frame_id": 39,
      "sensor_timestamp": 53370424793240,
      "time_usec": 53370424793
    },
    {
      "frame_id": 40,
      "sensor_timestamp": 53370458039577,
      "time_usec": 53370458039
    },
    {
      "frame_id": 41,
      "sensor_timestamp": 53370491285915,
      "time_usec": 53370491285
    },
    {
      "frame_id": 42,
      "sensor_timestamp": 53370524532253,
      "time_usec": 53370524532
    },
    {
      "frame_id": 43,
      "sensor_timestamp": 53370557778835,
      "time_usec": 53370557778
    },
    {
      "frame_id": 44,
      "sensor_timestamp": 53370591025173,
      "time_usec": 53370591025
    },
    {
      "frame_id": 45,
      "sensor_timestamp": 53370624271511,
      "time_usec": 53370624271
    },
    {
      "frame_id": 46,
      "sensor_timestamp": 53370657517849,
      "time_usec": 53370657517
    },
    {
      "frame_id": 47,
      "sensor_timestamp": 53370690764431,
      "time_usec": 53370690764
    },
    {
      "frame_id": 48,
      "sensor_timestamp": 53370724010769,
      "time_usec": 53370724010
    },
    {
      "frame_id": 49,
      "sensor_timestamp": 53370757257107,
      "time_usec": 53370757257
    },
    {
      "frame_id": 50,
      "sensor_timestamp": 53370790503445,
      "time_usec": 53370790503
    },
    {
      "frame_id": 51,
      "sensor_timestamp": 53370823750027,
      "time_usec": 53370823750
    },
    {
      "frame_id": 52,
      "sensor_timestamp": 53370856996365,
      "time_usec": 53370856996
    },
    {
      "frame_id": 53,
      "sensor_timestamp": 53370890242702,
      "time_usec": 53370890242
    },
    {
      "frame_id": 54,
      "sensor_timestamp": 53370923489040,
      "time_usec": 53370923489
    },
    {
      "frame_id": 55,
      "sensor_timestamp": 53370956735622,
      "time_usec": 53370956735
    },
    {
      "frame_id": 56,
      "sensor_timestamp": 53370989981960,
      "time_usec": 53370989981
    },
    {
      "frame_id": 57,
      "sensor_timestamp": 53371023228298,
      "time_usec": 53371023228
    },
    {
      "frame_id": 58,
      "sensor_timestamp": 53371056474636,
      "time_usec": 53371056474
    },
    {
      "frame_id": 59,
      "sensor_timestamp": 53371089721218,
      "time_usec": 53371089721
    },
    {
      "frame_id": 60,
      "sensor_timestamp": 53371122967556,
      "time_usec": 53371122967
    },
    {
      "frame_id": 61,
      "sensor_timestamp": 53371156213894,
      "time_usec": 53371156213
    },
    {
      "frame_id": 62,
      "sensor_timestamp": 53371189460232,
      "time_usec": 53371189460
    },
    {
      "frame_id": 63,
      "sensor_timestamp": 53371222706814,
      "time_usec": 53371222706
    },
    {
      "frame_id": 64,
      "sensor_timestamp": 53371255953152,
      "time_usec": 53371255953
    },
    {
      "frame_id": 65,
      "sensor_timestamp": 53371289199490,
      "time_usec": 53371289199
    },
    {
      "frame_id": 66,
      "sensor_timestamp": 53371322445827,
      "time_usec": 53371322445
    },
    {
      "frame_id": 67,
      "sensor_timestamp": 53371355692165,
      "time_usec": 53371355692
    },
    {
      "frame_id": 68,
      "sensor_timestamp": 53371388938747,
      "time_usec": 53371388938
    },
    {
      "frame_id": 69,
      "sensor_timestamp": 53371422185085,
      "time_usec": 53371422185
    },
    {
      "frame_id": 70,
      "sensor_timestamp": 53371455431423,
      "time_usec": 53371455431
    },
    {
      "frame_id": 71,
      "sensor_timestamp": 53371488677761,
      "time_usec": 53371488677
    },
    {
      "frame_id": 72,
      "sensor_timestamp": 53371521924343,
      "time_usec": 53371521924
    },
    {
      "frame_id": 73,
      "sensor_timestamp": 53371555170681,
      "time_usec": 53371555170
    },
    {
      "frame_id": 74,
      "sensor_timestamp": 53371588417019,
      "time_usec": 53371588417
    },
    {
      "frame_id": 75,
      "sensor_timestamp": 53371621663357,
      "time_usec": 53371621663
    },
    {
      "frame_id": 76,
      "sensor_timestamp": 53371654909939,
      "time_usec": 53371654909
    },
    {
      "frame_id": 77,
      "sensor_timestamp": 53371688156277,
      "time_usec": 53371688156
    },
    {
      "frame_id": 78,
      "sensor_timestamp": 53371721402615,
      "time_usec": 53371721402
    },
    {
      "frame_id": 79,
      "sensor_timestamp": 53371754648952,
      "time_usec": 53371754648
    },
    {
      "frame_id": 80,
      "sensor_timestamp": 53371787895534,
      "time_usec": 53371787895
    },
    {
      "frame_id": 81,
      "sensor_timestamp": 53371821141872,
      "time_usec": 53371821141
    },
    {
      "frame_id": 82,
      "sensor_timestamp": 53371854388210,
      "time_usec": 53371854388
    },
    {
      "frame_id": 83,
      "sensor_timestamp": 53371887634548,
      "time_usec": 53371887634
    },
    {
      "frame_id": 84,
      "sensor_timestamp": 53371920881130,
      "time_usec": 53371920881
    },
    {
      "frame_id": 85,
      "sensor_timestamp": 53371954127468,
      "time_usec": 53371954127
    },
    {
      "frame_id": 86,
      "sensor_timestamp": 53371987373806,
      "time_usec": 53371987373
    },
    {
      "frame_id": 87,
      "sensor_timestamp": 53372020620144,
      "time_usec": 53372020620
    },
    {
      "frame_id": 88,
      "sensor_timestamp": 53372053866726,
      "time_usec": 53372053866
    },
    {
      "frame_id": 89,
      "sensor_timestamp": 53372087113064,
      "time_usec": 53372087113
    },
    {
      "frame_id": 90,
      "sensor_timestamp": 53372120359402,
      "time_usec": 53372120359
    },
    {
      "frame_id": 91,
      "sensor_timestamp": 53372153605740,
      "time_usec": 53372153605
    },
    {
      "frame_id": 92,
      "sensor_timestamp": 53372186852322,
      "time_usec": 53372186852
    },
    {
      "frame_id": 93,
      "sensor_timestamp": 53372220098659,
      "time_usec": 53372220098
    },
    {
      "frame_id": 94,
      "sensor_timestamp": 53372253344997,
      "time_usec": 53372253344
    },
    {
      "frame_id": 95,
      "sensor_timestamp": 53372286591335,
      "time_usec": 53372286591
    },
    {
      "frame_id": 96,
      "sensor_timestamp": 53372319837917,
      "time_usec": 53372319837
    },
    {
      "frame_id": 97,
      "sensor_timestamp": 53372353084255,
      "time_usec": 53372353084
    },
    {
      "frame_id": 98,
      "sensor_timestamp": 53372386330593,
      "time_usec": 53372386330
    },
    {
      "frame_id": 99,
      "sensor_timestamp": 53372419576931,
      "time_usec": 53372419576
    },
    {
      "frame_id": 100,
      "sensor_timestamp": 53372452823513,
      "time_usec": 53372452823
    },
    {
      "frame_id": 101,
      "sensor_timestamp": 53372486069851,
      "time_usec": 53372486069
    },
    {
      "frame_id": 102,
      "sensor_timestamp": 53372519316189,
      "time_usec": 53372519316
    },
    {
      "frame_id": 103,
      "sensor_timestamp": 53372552562527,
      "time_usec": 53372552562
    },
    {
      "frame_id": 104,
      "sensor_timestamp": 53372585808865,
      "time_usec": 53372585808
    },
    {
      "frame_id": 105,
      "sensor_timestamp": 53372619055447,
      "time_usec": 53372619055
    },
    {
      "frame_id": 106,
      "sensor_timestamp": 53372652301784,
      "time_usec": 53372652301
    },
    {
      "frame_id": 107,
      "sensor_timestamp": 53372685548122,
      "time_usec": 53372685548
    },
    {
      "frame_id": 108,
      "sensor_timestamp": 53372718794460,
      "time_usec": 53372718794
    },
    {
      "frame_id": 109,
      "sensor_timestamp": 53372752041042,
      "time_usec": 53372752041
    },
    {
      "frame_id": 110,
      "sensor_timestamp": 53372785287380,
      "time_usec": 53372785287
    },
    {
      "frame_id": 111,
      "sensor_timestamp": 53372818533718,
      "time_usec": 53372818533
    },
    {
      "frame_id": 112,
      "sensor_timestamp": 53372851780056,
      "time_usec": 53372851780
    },
    {
      "frame_id": 113,
      "sensor_timestamp": 53372885026638,
      "time_usec": 53372885026
    },
    {
      "frame_id": 114,
      "sensor_timestamp": 53372918272976,
      "time_usec": 53372918272
    },
    {
      "frame_id": 115,
      "sensor_timestamp": 53372951519314,
      "time_usec": 53372951519
    },
    {
      "frame_id": 116,
      "sensor_timestamp": 53372984765652,
      "time_usec": 53372984765
    },
    {
      "frame_id": 117,
      "sensor_timestamp": 53373018012234,
      "time_usec": 53373018012
    },
    {
      "frame_id": 118,
      "sensor_timestamp": 53373051258572,
      "time_usec": 53373051258
    },
    {
      "frame_id": 119,
      "sensor_timestamp": 53373084504909,
      "time_usec": 53373084504
    },
    {
      "frame_id": 120,
      "sensor_timestamp": 53373117751247,
      "time_usec": 53373117751
    },
    {
      "frame_id": 121,
      "sensor_timestamp": 53373150997829,
      "time_usec": 53373150997
    },
    {
      "frame_id": 122,
      "sensor_timestamp": 53373184244167,
      "time_usec": 53373184244
    },
    {
      "frame_id": 123,
      "sensor_timestamp": 53373217490505,
      "time_usec": 53373217490
    },
    {
      "frame_id": 124,
      "sensor_timestamp": 53373250736843,
      "time_usec": 53373250736
    },
    {
      "frame_id": 125,
      "sensor_timestamp": 53373283983425,
      "time_usec": 53373283983
    },
    {
      "frame_id": 126,
      "sensor_timestamp": 53373317229763,
      "time_usec": 53373317229
    },
    {
      "frame_id": 127,
      "sensor_timestamp": 53373350476101,
      "time_usec": 53373350476
    },
    {
      "frame_id": 128,
      "sensor_timestamp": 53373383722439,
      "time_usec": 53373383722
    },
    {
      "frame_id": 129,
      "sensor_timestamp": 53373416969021,
      "time_usec": 53373416969
    },
    {
      "frame_id": 130,
      "sensor_timestamp": 53373450215359,
      "time_usec": 53373450215
    },
    {
      "frame_id": 131,
      "sensor_timestamp": 53373483461697,
      "time_usec": 53373483461
    },
    {
      "frame_id": 132,
      "sensor_timestamp": 53373516708034,
      "time_usec": 53373516708
    },
    {
      "frame_id": 133,
      "sensor_timestamp": 53373549954617,
      "time_usec": 53373549954
    },
    {
      "frame_id": 134,
      "sensor_timestamp": 53373583200954,
      "time_usec": 53373583200
    },
    {
      "frame_id": 135,
      "sensor_timestamp": 53373616447292,
      "time_usec": 53373616447
    },
    {
      "frame_id": 136,
      "sensor_timestamp": 53373649693630,
      "time_usec": 53373649693
    },
    {
      "frame_id": 137,
      "sensor_timestamp": 53373682940212,
      "time_usec": 53373682940
    },
    {
      "frame_id": 138,
      "sensor_timestamp": 53373716186550,
      "time_usec": 53373716186
    },
    {
      "frame_id": 139,
      "sensor_timestamp": 53373749432888,
      "time_usec": 53373749432
    },
    {
      "frame_id": 140,
      "sensor_timestamp": 53373782679226,
      "time_usec": 53373782679
    },
    {
      "frame_id": 141,
      "sensor_timestamp": 53373815925564,
      "time_usec": 53373815925
    },
    {
      "frame_id": 142,
      "sensor_timestamp": 53373849172146,
      "time_usec": 53373849172
    },
    {
      "frame_id": 143,
      "sensor_timestamp": 53373882418484,
      "time_usec": 53373882418
    },
    {
      "frame_id": 144,
      "sensor_timestamp": 53373915664822,
      "time_usec": 53373915664
    },
    {
      "frame_id": 145,
      "sensor_timestamp": 53373948911159,
      "time_usec": 53373948911
    },
    {
      "frame_id": 146,
      "sensor_timestamp": 53373982157742,
      "time_usec": 53373982157
    },
    {
      "frame_id": 147,
      "sensor_timestamp": 53374015404079,
      "time_usec": 53374015404
    },
    {
      "frame_id": 148,
      "sensor_timestamp": 53374048650417,
      "time_usec": 53374048650
    },
    {
      "frame_id": 149,
      "sensor_timestamp": 53374081896755,
      "time_usec": 53374081896
    },
    {
      "frame_id": 150,
      "sensor_timestamp": 53374115143337,
      "time_usec": 53374115143
    },
    {
      "frame_id": 151,
      "sensor_timestamp": 53374148389675,
      "time_usec": 53374148389
    },
    {
      "frame_id": 152,
      "sensor_timestamp": 53374181636013,
      "time_usec": 53374181636
    },
    {
      "frame_id": 153,
      "sensor_timestamp": 53374214882351,
      "time_usec": 53374214882
    },
    {
      "frame_id": 154,
      "sensor_timestamp": 53374248128933,
      "time_usec": 53374248128
    },
    {
      "frame_id": 155,
      "sensor_timestamp": 53374281375271,
      "time_usec": 53374281375
    },
    {
      "frame_id": 156,
      "sensor_timestamp": 53374314621609,
      "time_usec": 53374314621
    },
    {
      "frame_id": 157,
      "sensor_timestamp": 53374347867947,
      "time_usec": 53374347867
    },
    {
      "frame_id": 158,
      "sensor_timestamp": 53374381114529,
      "time_usec": 53374381114
    },
    {
      "frame_id": 159,
      "sensor_timestamp": 53374414360867,
      "time_usec": 53374414360
    },
    {
      "frame_id": 160,
      "sensor_timestamp": 53374447607204,
      "time_usec": 53374447607
    },
    {
      "frame_id": 161,
      "sensor_timestamp": 53374480853542,
      "time_usec": 53374480853
    },
    {
      "frame_id": 162,
      "sensor_timestamp": 53374514100124,
      "time_usec": 53374514100
    },
    {
      "frame_id": 163,
      "sensor_timestamp": 53374547346462,
      "time_usec": 53374547346
    },
    {
      "frame_id": 164,
      "sensor_timestamp": 53374580592800,
      "time_usec": 53374580592
    },
    {
      "frame_id": 165,
      "sensor_timestamp": 53374613839138,
      "time_usec": 53374613839
    },
    {
      "frame_id": 166,
      "sensor_timestamp": 53374647085720,
      "time_usec": 53374647085
    },
    {
      "frame_id": 167,
      "sensor_timestamp": 53374680332058,
      "time_usec": 53374680332
    },
    {
      "frame_id": 168,
      "sensor_timestamp": 53374713578396,
      "time_usec": 53374713578
    },
    {
      "frame_id": 169,
      "sensor_timestamp": 53374746824734,
      "time_usec": 53374746824
    },
    {
      "frame_id": 170,
      "sensor_timestamp": 53374780071316,
      "time_usec": 53374780071
    },
    {
      "frame_id": 171,
      "sensor_timestamp": 53374813317654,
      "time_usec": 53374813317
    },
    {
      "frame_id": 172,
      "sensor_timestamp": 53374846563992,
      "time_usec": 53374846563
    },
    {
      "frame_id": 173,
      "sensor_timestamp": 53374879810329,
      "time_usec": 53374879810
    },
    {
      "frame_id": 174,
      "sensor_timestamp": 53374913056911,
      "time_usec": 53374913056
    },
    {
      "frame_id": 175,
      "sensor_timestamp": 53374946303249,
      "time_usec": 53374946303
    },
    {
      "frame_id": 176,
      "sensor_timestamp": 53374979549587,
      "time_usec": 53374979549
    },
    {
      "frame_id": 177,
      "sensor_timestamp": 53375012795925,
      "time_usec": 53375012795
    },
    {
      "frame_id": 178,
      "sensor_timestamp": 53375046042263,
      "time_usec": 53375046042
    },
    {
      "frame_id": 179,
      "sensor_timestamp": 53375079288845,
      "time_usec": 53375079288
    },
    {
      "frame_id": 180,
      "sensor_timestamp": 53375112535183,
      "time_usec": 53375112535
    },
    {
      "frame_id": 181,
      "sensor_timestamp": 53375145781521,
      "time_usec": 53375145781
    },
    {
      "frame_id": 182,
      "sensor_timestamp": 53375179027859,
      "time_usec": 53375179027
    },
    {
      "frame_id": 183,
      "sensor_timestamp": 53375212274441,
      "time_usec": 53375212274
    },
    {
      "frame_id": 184,
      "sensor_timestamp": 53375245520779,
      "time_usec": 53375245520
    },
    {
      "frame_id": 185,
      "sensor_timestamp": 53375278767117,
      "time_usec": 53375278767
    },
    {
      "frame_id": 186,
      "sensor_timestamp": 53375312013454,
      "time_usec": 53375312013
    },
    {
      "frame_id": 187,
      "sensor_timestamp": 53375345260036,
      "time_usec": 53375345260
    },
    {
      "frame_id": 188,
      "sensor_timestamp": 53375378506374,
      "time_usec": 53375378506
    },
    {
      "frame_id": 189,
      "sensor_timestamp": 53375411752712,
      "time_usec": 53375411752
    },
    {
      "frame_id": 190,
      "sensor_timestamp": 53375444999050,
      "time_usec": 53375444999
    },
    {
      "frame_id": 191,
      "sensor_timestamp": 53375478245632,
      "time_usec": 53375478245
    },
    {
      "frame_id": 192,
      "sensor_timestamp": 53375511491970,
      "time_usec": 53375511491
    },
    {
      "frame_id": 193,
      "sensor_timestamp": 53375544738308,
      "time_usec": 53375544738
    },
    {
      "frame_id": 194,
      "sensor_timestamp": 53375577984646,
      "time_usec": 53375577984
    },
    {
      "frame_id": 195,
      "sensor_timestamp": 53375611231228,
      "time_usec": 53375611231
    },
    {
      "frame_id": 196,
      "sensor_timestamp": 53375644477566,
      "time_usec": 53375644477
    },
    {
      "frame_id": 197,
      "sensor_timestamp": 53375677723904,
      "time_usec": 53375677723
    },
    {
      "frame_id": 198,
      "sensor_timestamp": 53375710970242,
      "time_usec": 53375710970
    },
    {
      "frame_id": 199,
      "sensor_timestamp": 53375744216824,
      "time_usec": 53375744216
    },
    {
      "frame_id": 200,
      "sensor_timestamp": 53375777463161,
      "time_usec": 53375777463
    },
    {
      "frame_id": 201,
      "sensor_timestamp": 53375810709499,
      "time_usec": 53375810709
    },
    {
      "frame_id": 202,
      "sensor_timestamp": 53375843955837,
      "time_usec": 53375843955
    },
    {
      "frame_id": 203,
      "sensor_timestamp": 53375877202419,
      "time_usec": 53375877202
    },
    {
      "frame_id": 204,
      "sensor_timestamp": 53375910448757,
      "time_usec": 53375910448
    },
    {
      "frame_id": 205,
      "sensor_timestamp": 53375943695095,
      "time_usec": 53375943695
    },
    {
      "frame_id": 206,
      "sensor_timestamp": 53375976941433,
      "time_usec": 53375976941
    },
    {
      "frame_id": 207,
      "sensor_timestamp": 53376010188015,
      "time_usec": 53376010188
    },
    {
      "frame_id": 208,
      "sensor_timestamp": 53376043434353,
      "time_usec": 53376043434
    },
    {
      "frame_id": 209,
      "sensor_timestamp": 53376076680691,
      "time_usec": 53376076680
    },
    {
      "frame_id": 210,
      "sensor_timestamp": 53376109927029,
      "time_usec": 53376109927
    },
    {
      "frame_id": 211,
      "sensor_timestamp": 53376143173367,
      "time_usec": 53376143173
    },
    {
      "frame_id": 212,
      "sensor_timestamp": 53376176419949,
      "time_usec": 53376176419
    },
    {
      "frame_id": 213,
      "sensor_timestamp": 53376209666286,
      "time_usec": 53376209666
    },
    {
      "frame_id": 214,
      "sensor_timestamp": 53376242912624,
      "time_usec": 53376242912
    },
    {
      "frame_id": 215,
      "sensor_timestamp": 53376276158962,
      "time_usec": 53376276158
    },
    {
      "frame_id": 216,
      "sensor_timestamp": 53376309405544,
      "time_usec": 53376309405
    },
    {
      "frame_id": 217,
      "sensor_timestamp": 53376342651882,
      "time_usec": 53376342651
    },
    {
      "frame_id": 218,
      "sensor_timestamp": 53376375898220,
      "time_usec": 53376375898
    },
    {
      "frame_id": 219,
      "sensor_timestamp": 53376409144558,
      "time_usec": 53376409144
    },
    {
      "frame_id": 220,
      "sensor_timestamp": 53376442391140,
      "time_usec": 53376442391
    },
    {
      "frame_id": 221,
      "sensor_timestamp": 53376475637478,
      "time_usec": 53376475637
    },
    {
      "frame_id": 222,
      "sensor_timestamp": 53376508883816,
      "time_usec": 53376508883
    },
    {
      "frame_id": 223,
      "sensor_timestamp": 53376542101403,
      "time_usec": 53376542101
    },
    {
      "frame_id": 224,
      "sensor_timestamp": 53376575376736,
      "time_usec": 53376575376
    },
    {
      "frame_id": 225,
      "sensor_timestamp": 53376608623074,
      "time_usec": 53376608623
    },
    {
      "frame_id": 226,
      "sensor_timestamp": 53376641869411,
      "time_usec": 53376641869
    },
    {
      "frame_id": 227,
      "sensor_timestamp": 53376675115749,
      "time_usec": 53376675115
    },
    {
      "frame_id": 228,
      "sensor_timestamp": 53376708362331,
      "time_usec": 53376708362
    },
    {
      "frame_id": 229,
      "sensor_timestamp": 53376741608669,
      "time_usec": 53376741608
    },
    {
      "frame_id": 230,
      "sensor_timestamp": 53376774855007,
      "time_usec": 53376774855
    },
    {
      "frame_id": 231,
      "sensor_timestamp": 53376808101345,
      "time_usec": 53376808101
    },
    {
      "frame_id": 232,
      "sensor_timestamp": 53376841347927,
      "time_usec": 53376841347
    },
    {
      "frame_id": 233,
      "sensor_timestamp": 53376874594265,
      "time_usec": 53376874594
    },
    {
      "frame_id": 234,
      "sensor_timestamp": 53376907840603,
      "time_usec": 53376907840
    },
    {
      "frame_id": 235,
      "sensor_timestamp": 53376941086941,
      "time_usec": 53376941086
    },
    {
      "frame_id": 236,
      "sensor_timestamp": 53376974333523,
      "time_usec": 53376974333
    },
    {
      "frame_id": 237,
      "sensor_timestamp": 53377007579861,
      "time_usec": 53377007579
    },
    {
      "frame_id": 238,
      "sensor_timestamp": 53377040826199,
      "time_usec": 53377040826
    },
    {
      "frame_id": 239,
      "sensor_timestamp": 53377074072536,
      "time_usec": 53377074072
    },
    {
      "frame_id": 240,
      "sensor_timestamp": 53377107319118,
      "time_usec": 53377107319
    },
    {
      "frame_id": 241,
      "sensor_timestamp": 53377140565456,
      "time_usec": 53377140565
    },
    {
      "frame_id": 242,
      "sensor_timestamp": 53377173811794,
      "time_usec": 53377173811
    },
    {
      "frame_id": 243,
      "sensor_timestamp": 53377207058132,
      "time_usec": 53377207058
    },
    {
      "frame_id": 244,
      "sensor_timestamp": 53377240304714,
      "time_usec": 53377240304
    },
    {
      "frame_id": 245,
      "sensor_timestamp": 53377273551052,
      "time_usec": 53377273551
    },
    {
      "frame_id": 246,
      "sensor_timestamp": 53377306797390,
      "time_usec": 53377306797
    },
    {
      "frame_id": 247,
      "sensor_timestamp": 53377340043728,
      "time_usec": 53377340043
    },
    {
      "frame_id": 248,
      "sensor_timestamp": 53377373290066,
      "time_usec": 53377373290
    },
    {
      "frame_id": 249,
      "sensor_timestamp": 53377406536648,
      "time_usec": 53377406536
    },
    {
      "frame_id": 250,
      "sensor_timestamp": 53377439782986,
      "time_usec": 53377439782
    },
    {
      "frame_id": 251,
      "sensor_timestamp": 53377473029324,
      "time_usec": 53377473029
    },
    {
      "frame_id": 252,
      "sensor_timestamp": 53377506275661,
      "time_usec": 53377506275
    },
    {
      "frame_id": 253,
      "sensor_timestamp": 53377539606897,
      "time_usec": 53377539606
    },
    {
      "frame_id": 254,
      "sensor_timestamp": 53377572768581,
      "time_usec": 53377572768
    },
    {
      "frame_id": 255,
      "sensor_timestamp": 53377606014919,
      "time_usec": 53377606014
    },
    {
      "frame_id": 256,
      "sensor_timestamp": 53377639261257,
      "time_usec": 53377639261
    },
    {
      "frame_id": 257,
      "sensor_timestamp": 53377672507839,
      "time_usec": 53377672507
    },
    {
      "frame_id": 258,
      "sensor_timestamp": 53377705754177,
      "time_usec": 53377705754
    },
    {
      "frame_id": 259,
      "sensor_timestamp": 53377739000515,
      "time_usec": 53377739000
    },
    {
      "frame_id": 260,
      "sensor_timestamp": 53377772246853,
      "time_usec": 53377772246
    },
    {
      "frame_id": 261,
      "sensor_timestamp": 53377805493435,
      "time_usec": 53377805493
    },
    {
      "frame_id": 262,
      "sensor_timestamp": 53377838739773,
      "time_usec": 53377838739
    },
    {
      "frame_id": 263,
      "sensor_timestamp": 53377871986111,
      "time_usec": 53377871986
    },
    {
      "frame_id": 264,
      "sensor_timestamp": 53377905232449,
      "time_usec": 53377905232
    },
    {
      "frame_id": 265,
      "sensor_timestamp": 53377938479031,
      "time_usec": 53377938479
    },
    {
      "frame_id": 266,
      "sensor_timestamp": 53377971725368,
      "time_usec": 53377971725
    },
    {
      "frame_id": 267,
      "sensor_timestamp": 53378004971706,
      "time_usec": 53378004971
    },
    {
      "frame_id": 268,
      "sensor_timestamp": 53378038218044,
      "time_usec": 53378038218
    },
    {
      "frame_id": 269,
      "sensor_timestamp": 53378071464626,
      "time_usec": 53378071464
    },
    {
      "frame_id": 270,
      "sensor_timestamp": 53378104710964,
      "time_usec": 53378104710
    },
    {
      "frame_id": 271,
      "sensor_timestamp": 53378137957302,
      "time_usec": 53378137957
    },
    {
      "frame_id": 272,
      "sensor_timestamp": 53378171203640,
      "time_usec": 53378171203
    },
    {
      "frame_id": 273,
      "sensor_timestamp": 53378204450222,
      "time_usec": 53378204450
    },
    {
      "frame_id": 274,
      "sensor_timestamp": 53378237696560,
      "time_usec": 53378237696
    },
    {
      "frame_id": 275,
      "sensor_timestamp": 53378270942898,
      "time_usec": 53378270942
    },
    {
      "frame_id": 276,
      "sensor_timestamp": 53378304189236,
      "time_usec": 53378304189
    },
    {
      "frame_id": 277,
      "sensor_timestamp": 53378337435818,
      "time_usec": 53378337435
    },
    {
      "frame_id": 278,
      "sensor_timestamp": 53378370682156,
      "time_usec": 53378370682
    },
    {
      "frame_id": 279,
      "sensor_timestamp": 53378403928493,
      "time_usec": 53378403928
    },
    {
      "frame_id": 280,
      "sensor_timestamp": 53378437174831,
      "time_usec": 53378437174
    },
    {
      "frame_id": 281,
      "sensor_timestamp": 53378470421413,
      "time_usec": 53378470421
    },
    {
      "frame_id": 282,
      "sensor_timestamp": 53378503667751,
      "time_usec": 53378503667
    },
    {
      "frame_id": 283,
      "sensor_timestamp": 53378536914089,
      "time_usec": 53378536914
    },
    {
      "frame_id": 284,
      "sensor_timestamp": 53378570160427,
      "time_usec": 53378570160
    },
    {
      "frame_id": 285,
      "sensor_timestamp": 53378603406765,
      "time_usec": 53378603406
    },
    {
      "frame_id": 286,
      "sensor_timestamp": 53378636653347,
      "time_usec": 53378636653
    },
    {
      "frame_id": 287,
      "sensor_timestamp": 53378669899685,
      "time_usec": 53378669899
    },
    {
      "frame_id": 288,
      "sensor_timestamp": 53378703146023,
      "time_usec": 53378703146
    },
    {
      "frame_id": 289,
      "sensor_timestamp": 53378736392361,
      "time_usec": 53378736392
    },
    {
      "frame_id": 290,
      "sensor_timestamp": 53378769638943,
      "time_usec": 53378769638
    },
    {
      "frame_id": 291,
      "sensor_timestamp": 53378802885281,
      "time_usec": 53378802885
    },
    {
      "frame_id": 292,
      "sensor_timestamp": 53378836131618,
      "time_usec": 53378836131
    },
    {
      "frame_id": 293,
      "sensor_timestamp": 53378869377956,
      "time_usec": 53378869377
    },
    {
      "frame_id": 294,
      "sensor_timestamp": 53378902624538,
      "time_usec": 53378902624
    },
    {
      "frame_id": 295,
      "sensor_timestamp": 53378935870876,
      "time_usec": 53378935870
    },
    {
      "frame_id": 296,
      "sensor_timestamp": 53378969117214,
      "time_usec": 53378969117
    },
    {
      "frame_id": 297,
      "sensor_timestamp": 53379002363552,
      "time_usec": 53379002363
    },
    {
      "frame_id": 298,
      "sensor_timestamp": 53379035610134,
      "time_usec": 53379035610
    },
    {
      "frame_id": 299,
      "sensor_timestamp": 53379068856472,
      "time_usec": 53379068856
    },
    {
      "frame_id": 300,
      "sensor_timestamp": 53379102102810,
      "time_usec": 53379102102
    },
    {
      "frame_id": 301,
      "sensor_timestamp": 53379135349148,
      "time_usec": 53379135349
    },
    {
      "frame_id": 302,
      "sensor_timestamp": 53379168595730,
      "time_usec": 53379168595
    },
    {
      "frame_id": 303,
      "sensor_timestamp": 53379201842068,
      "time_usec": 53379201842
    },
    {
      "frame_id": 304,
      "sensor_timestamp": 53379235088406,
      "time_usec": 53379235088
    },
    {
      "frame_id": 305,
      "sensor_timestamp": 53379268334743,
      "time_usec": 53379268334
    },
    {
      "frame_id": 306,
      "sensor_timestamp": 53379301581325,
      "time_usec": 53379301581
    },
    {
      "frame_id": 307,
      "sensor_timestamp": 53379334827663,
      "time_usec": 53379334827
    },
    {
      "frame_id": 308,
      "sensor_timestamp": 53379368074001,
      "time_usec": 53379368074
    },
    {
      "frame_id": 309,
      "sensor_timestamp": 53379401320339,
      "time_usec": 53379401320
    },
    {
      "frame_id": 310,
      "sensor_timestamp": 53379434566921,
      "time_usec": 53379434566
    },
    {
      "frame_id": 311,
      "sensor_timestamp": 53379467813259,
      "time_usec": 53379467813
    },
    {
      "frame_id": 312,
      "sensor_timestamp": 53379501059597,
      "time_usec": 53379501059
    },
    {
      "frame_id": 313,
      "sensor_timestamp": 53379534305935,
      "time_usec": 53379534305
    },
    {
      "frame_id": 314,
      "sensor_timestamp": 53379567514613,
      "time_usec": 53379567514
    },
    {
      "frame_id": 315,
      "sensor_timestamp": 53379600798855,
      "time_usec": 53379600798
    },
    {
      "frame_id": 316,
      "sensor_timestamp": 53379634045193,
      "time_usec": 53379634045
    },
    {
      "frame_id": 317,
      "sensor_timestamp": 53379667291531,
      "time_usec": 53379667291
    },
    {
      "frame_id": 318,
      "sensor_timestamp": 53379700538113,
      "time_usec": 53379700538
    },
    {
      "frame_id": 319,
      "sensor_timestamp": 53379733784450,
      "time_usec": 53379733784
    },
    {
      "frame_id": 320,
      "sensor_timestamp": 53379767030788,
      "time_usec": 53379767030
    },
    {
      "frame_id": 321,
      "sensor_timestamp": 53379800277126,
      "time_usec": 53379800277
    },
    {
      "frame_id": 322,
      "sensor_timestamp": 53379833523464,
      "time_usec": 53379833523
    },
    {
      "frame_id": 323,
      "sensor_timestamp": 53379866770046,
      "time_usec": 53379866770
    },
    {
      "frame_id": 324,
      "sensor_timestamp": 53379900016384,
      "time_usec": 53379900016
    },
    {
      "frame_id": 325,
      "sensor_timestamp": 53379933262722,
      "time_usec": 53379933262
    },
    {
      "frame_id": 326,
      "sensor_timestamp": 53379966509060,
      "time_usec": 53379966509
    },
    {
      "frame_id": 327,
      "sensor_timestamp": 53379999755642,
      "time_usec": 53379999755
    },
    {
      "frame_id": 328,
      "sensor_timestamp": 53380033001980,
      "time_usec": 53380033001
    },
    {
      "frame_id": 329,
      "sensor_timestamp": 53380066248318,
      "time_usec": 53380066248
    },
    {
      "frame_id": 330,
      "sensor_timestamp": 53380099494656,
      "time_usec": 53380099494
    },
    {
      "frame_id": 331,
      "sensor_timestamp": 53380132741238,
      "time_usec": 53380132741
    },
    {
      "frame_id": 332,
      "sensor_timestamp": 53380165987575,
      "time_usec": 53380165987
    },
    {
      "frame_id": 333,
      "sensor_timestamp": 53380199233913,
      "time_usec": 53380199233
    },
    {
      "frame_id": 334,
      "sensor_timestamp": 53380232480251,
      "time_usec": 53380232480
    },
    {
      "frame_id": 335,
      "sensor_timestamp": 53380265726833,
      "time_usec": 53380265726
    },
    {
      "frame_id": 336,
      "sensor_timestamp": 53380298973171,
      "time_usec": 53380298973
    },
    {
      "frame_id": 337,
      "sensor_timestamp": 53380329438878,
      "time_usec": 53380329438
    },
    {
      "frame_id": 338,
      "sensor_timestamp": 53380362685216,
      "time_usec": 53380362685
    },
    {
      "frame_id": 339,
      "sensor_timestamp": 53380395931798,
      "time_usec": 53380395931
    },
    {
      "frame_id": 340,
      "sensor_timestamp": 53380429178136,
      "time_usec": 53380429178
    },
    {
      "frame_id": 341,
      "sensor_timestamp": 53380462424474,
      "time_usec": 53380462424
    },
    {
      "frame_id": 342,
      "sensor_timestamp": 53380495670812,
      "time_usec": 53380495670
    },
    {
      "frame_id": 343,
      "sensor_timestamp": 53380528917394,
      "time_usec": 53380528917
    },
    {
      "frame_id": 344,
      "sensor_timestamp": 53380562163732,
      "time_usec": 53380562163
    },
    {
      "frame_id": 345,
      "sensor_timestamp": 53380595410069,
      "time_usec": 53380595410
    },
    {
      "frame_id": 346,
      "sensor_timestamp": 53380628656407,
      "time_usec": 53380628656
    },
    {
      "frame_id": 347,
      "sensor_timestamp": 53380661902989,
      "time_usec": 53380661902
    },
    {
      "frame_id": 348,
      "sensor_timestamp": 53380695149327,
      "time_usec": 53380695149
    },
    {
      "frame_id": 349,
      "sensor_timestamp": 53380728395665,
      "time_usec": 53380728395
    },
    {
      "frame_id": 350,
      "sensor_timestamp": 53380761642003,
      "time_usec": 53380761642
    },
    {
      "frame_id": 351,
      "sensor_timestamp": 53380794888585,
      "time_usec": 53380794888
    },
    {
      "frame_id": 352,
      "sensor_timestamp": 53380828134923,
      "time_usec": 53380828134
    },
    {
      "frame_id": 353,
      "sensor_timestamp": 53380861381261,
      "time_usec": 53380861381
    },
    {
      "frame_id": 354,
      "sensor_timestamp": 53380894627599,
      "time_usec": 53380894627
    },
    {
      "frame_id": 355,
      "sensor_timestamp": 53380927874181,
      "time_usec": 53380927874
    },
    {
      "frame_id": 356,
      "sensor_timestamp": 53380961120519,
      "time_usec": 53380961120
    },
    {
      "frame_id": 357,
      "sensor_timestamp": 53380994366857,
      "time_usec": 53380994366
    },
    {
      "frame_id": 358,
      "sensor_timestamp": 53381027613194,
      "time_usec": 53381027613
    },
    {
      "frame_id": 359,
      "sensor_timestamp": 53381060859532,
      "time_usec": 53381060859
    },
    {
      "frame_id": 360,
      "sensor_timestamp": 53381094106114,
      "time_usec": 53381094106
    },
    {
      "frame_id": 361,
      "sensor_timestamp": 53381127352452,
      "time_usec": 53381127352
    },
    {
      "frame_id": 362,
      "sensor_timestamp": 53381160598790,
      "time_usec": 53381160598
    },
    {
      "frame_id": 363,
      "sensor_timestamp": 53381193845128,
      "time_usec": 53381193845
    },
    {
      "frame_id": 364,
      "sensor_timestamp": 53381227091710,
      "time_usec": 53381227091
    },
    {
      "frame_id": 365,
      "sensor_timestamp": 53381260338048,
      "time_usec": 53381260338
    },
    {
      "frame_id": 366,
      "sensor_timestamp": 53381293584386,
      "time_usec": 53381293584
    },
    {
      "frame_id": 367,
      "sensor_timestamp": 53381326830724,
      "time_usec": 53381326830
    },
    {
      "frame_id": 368,
      "sensor_timestamp": 53381360077306,
      "time_usec": 53381360077
    },
    {
      "frame_id": 369,
      "sensor_timestamp": 53381396104275,
      "time_usec": 53381396104
    },
    {
      "frame_id": 370,
      "sensor_timestamp": 53381429350613,
      "time_usec": 53381429350
    },
    {
      "frame_id": 371,
      "sensor_timestamp": 53381462596950,
      "time_usec": 53381462596
    },
    {
      "frame_id": 372,
      "sensor_timestamp": 53381495843533,
      "time_usec": 53381495843
    },
    {
      "frame_id": 373,
      "sensor_timestamp": 53381529089870,
      "time_usec": 53381529089
    },
    {
      "frame_id": 374,
      "sensor_timestamp": 53381562336208,
      "time_usec": 53381562336
    },
    {
      "frame_id": 375,
      "sensor_timestamp": 53381595582546,
      "time_usec": 53381595582
    },
    {
      "frame_id": 376,
      "sensor_timestamp": 53381628829128,
      "time_usec": 53381628829
    },
    {
      "frame_id": 377,
      "sensor_timestamp": 53381662075466,
      "time_usec": 53381662075
    },
    {
      "frame_id": 378,
      "sensor_timestamp": 53381695321804,
      "time_usec": 53381695321
    },
    {
      "frame_id": 379,
      "sensor_timestamp": 53381728568142,
      "time_usec": 53381728568
    },
    {
      "frame_id": 380,
      "sensor_timestamp": 53381761814724,
      "time_usec": 53381761814
    },
    {
      "frame_id": 381,
      "sensor_timestamp": 53381795061062,
      "time_usec": 53381795061
    },
    {
      "frame_id": 382,
      "sensor_timestamp": 53381828307400,
      "time_usec": 53381828307
    },
    {
      "frame_id": 383,
      "sensor_timestamp": 53381861553738,
      "time_usec": 53381861553
    },
    {
      "frame_id": 384,
      "sensor_timestamp": 53381894800320,
      "time_usec": 53381894800
    },
    {
      "frame_id": 385,
      "sensor_timestamp": 53381928046658,
      "time_usec": 53381928046
    },
    {
      "frame_id": 386,
      "sensor_timestamp": 53381961292995,
      "time_usec": 53381961292
    },
    {
      "frame_id": 387,
      "sensor_timestamp": 53381994539333,
      "time_usec": 53381994539
    },
    {
      "frame_id": 388,
      "sensor_timestamp": 53382027785915,
      "time_usec": 53382027785
    },
    {
      "frame_id": 389,
      "sensor_timestamp": 53382061032253,
      "time_usec": 53382061032
    },
    {
      "frame_id": 390,
      "sensor_timestamp": 53382094278591,
      "time_usec": 53382094278
    },
    {
      "frame_id": 391,
      "sensor_timestamp": 53382127524929,
      "time_usec": 53382127524
    },
    {
      "frame_id": 392,
      "sensor_timestamp": 53382160771267,
      "time_usec": 53382160771
    },
    {
      "frame_id": 393,
      "sensor_timestamp": 53382194017849,
      "time_usec": 53382194017
    },
    {
      "frame_id": 394,
      "sensor_timestamp": 53382227264187,
      "time_usec": 53382227264
    },
    {
      "frame_id": 395,
      "sensor_timestamp": 53382260510525,
      "time_usec": 53382260510
    },
    {
      "frame_id": 396,
      "sensor_timestamp": 53382293756863,
      "time_usec": 53382293756
    },
    {
      "frame_id": 397,
      "sensor_timestamp": 53382327003445,
      "time_usec": 53382327003
    },
    {
      "frame_id": 398,
      "sensor_timestamp": 53382360249783,
      "time_usec": 53382360249
    },
    {
      "frame_id": 399,
      "sensor_timestamp": 53382393496120,
      "time_usec": 53382393496
    },
    {
      "frame_id": 400,
      "sensor_timestamp": 53382426742458,
      "time_usec": 53382426742
    },
    {
      "frame_id": 401,
      "sensor_timestamp": 53382459989040,
      "time_usec": 53382459989
    },
    {
      "frame_id": 402,
      "sensor_timestamp": 53382493235378,
      "time_usec": 53382493235
    },
    {
      "frame_id": 403,
      "sensor_timestamp": 53382526481716,
      "time_usec": 53382526481
    },
    {
      "frame_id": 404,
      "sensor_timestamp": 53382559728054,
      "time_usec": 53382559728
    },
    {
      "frame_id": 405,
      "sensor_timestamp": 53382592974636,
      "time_usec": 53382592974
    },
    {
      "frame_id": 406,
      "sensor_timestamp": 53382626220974,
      "time_usec": 53382626220
    },
    {
      "frame_id": 407,
      "sensor_timestamp": 53382659467312,
      "time_usec": 53382659467
    },
    {
      "frame_id": 408,
      "sensor_timestamp": 53382692713650,
      "time_usec": 53382692713
    },
    {
      "frame_id": 409,
      "sensor_timestamp": 53382725960232,
      "time_usec": 53382725960
    },
    {
      "frame_id": 410,
      "sensor_timestamp": 53382759206570,
      "time_usec": 53382759206
    },
    {
      "frame_id": 411,
      "sensor_timestamp": 53382792452908,
      "time_usec": 53382792452
    },
    {
      "frame_id": 412,
      "sensor_timestamp": 53382825699245,
      "time_usec": 53382825699
    },
    {
      "frame_id": 413,
      "sensor_timestamp": 53382858945827,
      "time_usec": 53382858945
    },
    {
      "frame_id": 414,
      "sensor_timestamp": 53382892192165,
      "time_usec": 53382892192
    },
    {
      "frame_id": 415,
      "sensor_timestamp": 53382925438503,
      "time_usec": 53382925438
    },
    {
      "frame_id": 416,
      "sensor_timestamp": 53382958684841,
      "time_usec": 53382958684
    },
    {
      "frame_id": 417,
      "sensor_timestamp": 53382991931423,
      "time_usec": 53382991931
    },
    {
      "frame_id": 418,
      "sensor_timestamp": 53383025177761,
      "time_usec": 53383025177
    },
    {
      "frame_id": 419,
      "sensor_timestamp": 53383058424099,
      "time_usec": 53383058424
    },
    {
      "frame_id": 420,
      "sensor_timestamp": 53383091670437,
      "time_usec": 53383091670
    },
    {
      "frame_id": 421,
      "sensor_timestamp": 53383124917019,
      "time_usec": 53383124917
    },
    {
      "frame_id": 422,
      "sensor_timestamp": 53383158163357,
      "time_usec": 53383158163
    },
    {
      "frame_id": 423,
      "sensor_timestamp": 53383191409695,
      "time_usec": 53383191409
    },
    {
      "frame_id": 424,
      "sensor_timestamp": 53383224656033,
      "time_usec": 53383224656
    },
    {
      "frame_id": 425,
      "sensor_timestamp": 53383257902615,
      "time_usec": 53383257902
    },
    {
      "frame_id": 426,
      "sensor_timestamp": 53383291148952,
      "time_usec": 53383291148
    },
    {
      "frame_id": 427,
      "sensor_timestamp": 53383324395290,
      "time_usec": 53383324395
    },
    {
      "frame_id": 428,
      "sensor_timestamp": 53383357641628,
      "time_usec": 53383357641
    },
    {
      "frame_id": 429,
      "sensor_timestamp": 53383390887966,
      "time_usec": 53383390887
    },
    {
      "frame_id": 430,
      "sensor_timestamp": 53383424134548,
      "time_usec": 53383424134
    },
    {
      "frame_id": 431,
      "sensor_timestamp": 53383457380886,
      "time_usec": 53383457380
    },
    {
      "frame_id": 432,
      "sensor_timestamp": 53383490627224,
      "time_usec": 53383490627
    },
    {
      "frame_id": 433,
      "sensor_timestamp": 53383523873562,
      "time_usec": 53383523873
    },
    {
      "frame_id": 434,
      "sensor_timestamp": 53383557120144,
      "time_usec": 53383557120
    },
    {
      "frame_id": 435,
      "sensor_timestamp": 53383590366482,
      "time_usec": 53383590366
    },
    {
      "frame_id": 436,
      "sensor_timestamp": 53383623612820,
      "time_usec": 53383623612
    },
    {
      "frame_id": 437,
      "sensor_timestamp": 53383656859158,
      "time_usec": 53383656859
    },
    {
      "frame_id": 438,
      "sensor_timestamp": 53383690105740,
      "time_usec": 53383690105
    },
    {
      "frame_id": 439,
      "sensor_timestamp": 53383723352077,
      "time_usec": 53383723352
    },
    {
      "frame_id": 440,
      "sensor_timestamp": 53383756598415,
      "time_usec": 53383756598
    },
    {
      "frame_id": 441,
      "sensor_timestamp": 53383789844753,
      "time_usec": 53383789844
    },
    {
      "frame_id": 442,
      "sensor_timestamp": 53383823091335,
      "time_usec": 53383823091
    },
    {
      "frame_id": 443,
      "sensor_timestamp": 53383856337673,
      "time_usec": 53383856337
    },
    {
      "frame_id": 444,
      "sensor_timestamp": 53383889584011,
      "time_usec": 53383889584
    },
    {
      "frame_id": 445,
      "sensor_timestamp": 53383920049718,
      "time_usec": 53383920049
    },
    {
      "frame_id": 446,
      "sensor_timestamp": 53383953296300,
      "time_usec": 53383953296
    },
    {
      "frame_id": 447,
      "sensor_timestamp": 53383986542638,
      "time_usec": 53383986542
    },
    {
      "frame_id": 448,
      "sensor_timestamp": 53384019788976,
      "time_usec": 53384019788
    },
    {
      "frame_id": 449,
      "sensor_timestamp": 53384053035314,
      "time_usec": 53384053035
    },
    {
      "frame_id": 450,
      "sensor_timestamp": 53384086281896,
      "time_usec": 53384086281
    },
    {
      "frame_id": 451,
      "sensor_timestamp": 53384119528234,
      "time_usec": 53384119528
    },
    {
      "frame_id": 452,
      "sensor_timestamp": 53384152774571,
      "time_usec": 53384152774
    },
    {
      "frame_id": 453,
      "sensor_timestamp": 53384186020909,
      "time_usec": 53384186020
    },
    {
      "frame_id": 454,
      "sensor_timestamp": 53384219267491,
      "time_usec": 53384219267
    },
    {
      "frame_id": 455,
      "sensor_timestamp": 53384252513829,
      "time_usec": 53384252513
    },
    {
      "frame_id": 456,
      "sensor_timestamp": 53384285760167,
      "time_usec": 53384285760
    },
    {
      "frame_id": 457,
      "sensor_timestamp": 53384319006505,
      "time_usec": 53384319006
    },
    {
      "frame_id": 458,
      "sensor_timestamp": 53384352253087,
      "time_usec": 53384352253
    },
    {
      "frame_id": 459,
      "sensor_timestamp": 53384385499425,
      "time_usec": 53384385499
    },
    {
      "frame_id": 460,
      "sensor_timestamp": 53384418745763,
      "time_usec": 53384418745
    },
    {
      "frame_id": 461,
      "sensor_timestamp": 53384451992101,
      "time_usec": 53384451992
    },
    {
      "frame_id": 462,
      "sensor_timestamp": 53384485238683,
      "time_usec": 53384485238
    },
    {
      "frame_id": 463,
      "sensor_timestamp": 53384518485021,
      "time_usec": 53384518485
    },
    {
      "frame_id": 464,
      "sensor_timestamp": 53384551731359,
      "time_usec": 53384551731
    },
    {
      "frame_id": 465,
      "sensor_timestamp": 53384584977696,
      "time_usec": 53384584977
    },
    {
      "frame_id": 466,
      "sensor_timestamp": 53384618224034,
      "time_usec": 53384618224
    },
    {
      "frame_id": 467,
      "sensor_timestamp": 53384651470616,
      "time_usec": 53384651470
    },
    {
      "frame_id": 468,
      "sensor_timestamp": 53384684716954,
      "time_usec": 53384684716
    },
    {
      "frame_id": 469,
      "sensor_timestamp": 53384717963292,
      "time_usec": 53384717963
    },
    {
      "frame_id": 470,
      "sensor_timestamp": 53384751209630,
      "time_usec": 53384751209
    },
    {
      "frame_id": 471,
      "sensor_timestamp": 53384784456212,
      "time_usec": 53384784456
    },
    {
      "frame_id": 472,
      "sensor_timestamp": 53384817702550,
      "time_usec": 53384817702
    },
    {
      "frame_id": 473,
      "sensor_timestamp": 53384850948888,
      "time_usec": 53384850948
    },
    {
      "frame_id": 474,
      "sensor_timestamp": 53384884195226,
      "time_usec": 53384884195
    },
    {
      "frame_id": 475,
      "sensor_timestamp": 53384917441808,
      "time_usec": 53384917441
    },
    {
      "frame_id": 476,
      "sensor_timestamp": 53384950688146,
      "time_usec": 53384950688
    },
    {
      "frame_id": 477,
      "sensor_timestamp": 53384983934484,
      "time_usec": 53384983934
    },
    {
      "frame_id": 478,
      "sensor_timestamp": 53385017180821,
      "time_usec": 53385017180
    },
    {
      "frame_id": 479,
      "sensor_timestamp": 53385050427403,
      "time_usec": 53385050427
    },
    {
      "frame_id": 480,
      "sensor_timestamp": 53385083673741,
      "time_usec": 53385083673
    },
    {
      "frame_id": 481,
      "sensor_timestamp": 53385116920079,
      "time_usec": 53385116920
    },
    {
      "frame_id": 482,
      "sensor_timestamp": 53385150166417,
      "time_usec": 53385150166
    },
    {
      "frame_id": 483,
      "sensor_timestamp": 53385183412999,
      "time_usec": 53385183412
    },
    {
      "frame_id": 484,
      "sensor_timestamp": 53385216659337,
      "time_usec": 53385216659
    },
    {
      "frame_id": 485,
      "sensor_timestamp": 53385249905675,
      "time_usec": 53385249905
    },
    {
      "frame_id": 486,
      "sensor_timestamp": 53385283152013,
      "time_usec": 53385283152
    },
    {
      "frame_id": 487,
      "sensor_timestamp": 53385316398595,
      "time_usec": 53385316398
    },
    {
      "frame_id": 488,
      "sensor_timestamp": 53385349644933,
      "time_usec": 53385349644
    },
    {
      "frame_id": 489,
      "sensor_timestamp": 53385382891271,
      "time_usec": 53385382891
    },
    {
      "frame_id": 490,
      "sensor_timestamp": 53385416137609,
      "time_usec": 53385416137
    },
    {
      "frame_id": 491,
      "sensor_timestamp": 53385449384191,
      "time_usec": 53385449384
    },
    {
      "frame_id": 492,
      "sensor_timestamp": 53385482630528,
      "time_usec": 53385482630
    },
    {
      "frame_id": 493,
      "sensor_timestamp": 53385515876866,
      "time_usec": 53385515876
    },
    {
      "frame_id": 494,
      "sensor_timestamp": 53385549123204,
      "time_usec": 53385549123
    },
    {
      "frame_id": 495,
      "sensor_timestamp": 53385582369786,
      "time_usec": 53385582369
    }
  ]
}