{
  "frames": [
    {
      "frame_id": 0,
      "sensor_timestamp": 54277693909093,
      "time_usec": 54277693909
    },
    {
      "frame_id": 1,
      "sensor_timestamp": 54277760402013,
      "time_usec": 54277760402
    },
    {
      "frame_id": 2,
      "sensor_timestamp": 54277793648351,
      "time_usec": 54277793648
    },
    {
      "frame_id": 3,
      "sensor_timestamp": 54277826894689,
      "time_usec": 54277826894
    },
    {
      "frame_id": 4,
      "sensor_timestamp": 54277860141027,
      "time_usec": 54277860141
    },
    {
      "frame_id": 5,
      "sensor_timestamp": 54277893387609,
      "time_usec": 54277893387
    },
    {
      "frame_id": 6,
      "sensor_timestamp": 54277926633946,
      "time_usec": 54277926633
    },
    {
      "frame_id": 7,
      "sensor_timestamp": 54277959880284,
      "time_usec": 54277959880
    },
    {
      "frame_id": 8,
      "sensor_timestamp": 54277993126622,
      "time_usec": 54277993126
    },
    {
      "frame_id": 9,
      "sensor_timestamp": 54278026373204,
      "time_usec": 54278026373
    },
    {
      "frame_id": 10,
      "sensor_timestamp": 54278059619542,
      "time_usec": 54278059619
    },
    {
      "frame_id": 11,
      "sensor_timestamp": 54278092865880,
      "time_usec": 54278092865
    },
    {
      "frame_id": 12,
      "sensor_timestamp": 54278126112218,
      "time_usec": 54278126112
    },
    {
      "frame_id": 13,
      "sensor_timestamp": 54278159358800,
      "time_usec": 54278159358
    },
    {
      "frame_id": 14,
      "sensor_timestamp": 54278192605138,
      "time_usec": 54278192605
    },
    {
      "frame_id": 15,
      "sensor_timestamp": 54278225851476,
      "time_usec": 54278225851
    },
    {
      "frame_id": 16,
      "sensor_timestamp": 54278259097814,
      "time_usec": 54278259097
    },
    {
      "frame_id": 17,
      "sensor_timestamp": 54278292344396,
      "time_usec": 54278292344
    },
    {
      "frame_id": 18,
      "sensor_timestamp": 54278325590734,
      "time_usec": 54278325590
    },
    {
      "frame_id": 19,
      "sensor_timestamp": 54278358837071,
      "time_usec": 54278358837
    },
    {
      "frame_id": 20,
      "sensor_timestamp": 54278392083409,
      "time_usec": 54278392083
    },
    {
      "frame_id": 21,
      "sensor_timestamp": 54278425329991,
      "time_usec": 54278425329
    },
    {
      "frame_id": 22,
      "sensor_timestamp": 54278458576329,
      "time_usec": 54278458576
    },
    {
      "frame_id": 23,
      "sensor_timestamp": 54278491822667,
      "time_usec": 54278491822
    },
    {
      "frame_id": 24,
      "sensor_timestamp": 54278525069005,
      "time_usec": 54278525069
    },
    {
      "frame_id": 25,
      "sensor_timestamp": 54278558315343,
      "time_usec": 54278558315
    },
    {
      "frame_id": 26,
      "sensor_timestamp": 54278591561925,
      "time_usec": 54278591561
    },
    {
      "frame_id": 27,
      "sensor_timestamp": 54278624808263,
      "time_usec": 54278624808
    },
    {
      "frame_id": 28,
      "sensor_timestamp": 54278658054601,
      "time_usec": 54278658054
    },
    {
      "frame_id": 29,
      "sensor_timestamp": 54278691300939,
      "time_usec": 54278691300
    },
    {
      "frame_id": 30,
      "sensor_timestamp": 54278724547521,
      "time_usec": 54278724547
    },
    {
      "frame_id": 31,
      "sensor_timestamp": 54278757793859,
      "time_usec": 54278757793
    },
    {
      "frame_id": 32,
      "sensor_timestamp": 54278791040196,
      "time_usec": 54278791040
    },
    {
      "frame_id": 33,
      "sensor_timestamp": 54278824286534,
      "time_usec": 54278824286
    },
    {
      "frame_id": 34,
      "sensor_timestamp": 54278857533116,
      "time_usec": 54278857533
    },
    {
      "frame_id": 35,
      "sensor_timestamp": 54278890779454,
      "time_usec": 54278890779
    },
    {
      "frame_id": 36,
      "sensor_timestamp": 54278924025792,
      "time_usec": 54278924025
    },
    {
      "frame_id": 37,
      "sensor_timestamp": 54278957272130,
      "time_usec": 54278957272
    },
    {
      "frame_id": 38,
      "sensor_timestamp": 54278990518712,
      "time_usec": 54278990518
    },
    {
      "frame_id": 39,
      "sensor_timestamp": 54279023765050,
      "time_usec": 54279023765
    },
    {
      "frame_id": 40,
      "sensor_timestamp": 54279057011388,
      "time_usec": 54279057011
    },
    {
      "frame_id": 41,
      "sensor_timestamp": 54279090257726,
      "time_usec": 54279090257
    },
    {
      "frame_id": 42,
      "sensor_timestamp": 54279123504308,
      "time_usec": 54279123504
    },
    {
      "frame_id": 43,
      "sensor_timestamp": 54279156750646,
      "time_usec": 54279156750
    },
    {
      "frame_id": 44,
      "sensor_timestamp": 54279189996984,
      "time_usec": 54279189996
    },
    {
      "frame_id": 45,
      "sensor_timestamp": 54279223243321,
      "time_usec": 54279223243
    },
    {
      "frame_id": 46,
      "sensor_timestamp": 54279256489903,
      "time_usec": 54279256489
    },
    {
      "frame_id": 47,
      "sensor_timestamp": 54279289736241,
      "time_usec": 54279289736
    },
    {
      "frame_id": 48,
      "sensor_timestamp": 54279322982579,
      "time_usec": 54279322982
    },
    {
      "frame_id": 49,
      "sensor_timestamp": 54279356228917,
      "time_usec": 54279356228
    },
    {
      "frame_id": 50,
      "sensor_timestamp": 54279389475499,
      "time_usec": 54279389475
    },
    {
      "frame_id": 51,
      "sensor_timestamp": 54279422721837,
      "time_usec": 54279422721
    },
    {
      "frame_id": 52,
      "sensor_timestamp": 54279455968175,
      "time_usec": 54279455968
    },
    {
      "frame_id": 53,
      "sensor_timestamp": 54279489214513,
      "time_usec": 54279489214
    },
    {
      "frame_id": 54,
      "sensor_timestamp": 54279522461095,
      "time_usec": 54279522461
    },
    {
      "frame_id": 55,
      "sensor_timestamp": 54279555707433,
      "time_usec": 54279555707
    },
    {
      "frame_id": 56,
      "sensor_timestamp": 54279588953771,
      "time_usec": 54279588953
    },
    {
      "frame_id": 57,
      "sensor_timestamp": 54279622200109,
      "time_usec": 54279622200
    },
    {
      "frame_id": 58,
      "sensor_timestamp": 54279655446691,
      "time_usec": 54279655446
    },
    {
      "frame_id": 59,
      "sensor_timestamp": 54279688693028,
      "time_usec": 54279688693
    },
    {
      "frame_id": 60,
      "sensor_timestamp": 54279721939366,
      "time_usec": 54279721939
    },
    {
      "frame_id": 61,
      "sensor_timestamp": 54279755185704,
      "time_usec": 54279755185
    },
    {
      "frame_id": 62,
      "sensor_timestamp": 54279788432042,
      "time_usec": 54279788432
    },
    {
      "frame_id": 63,
      "sensor_timestamp": 54279821678624,
      "time_usec": 54279821678
    },
    {
      "frame_id": 64,
      "sensor_timestamp": 54279854924962,
      "time_usec": 54279854924
    },
    {
      "frame_id": 65,
      "sensor_timestamp": 54279888171300,
      "time_usec": 54279888171
    },
    {
      "frame_id": 66,
      "sensor_timestamp": 54279921417638,
      "time_usec": 54279921417
    },
    {
      "frame_id": 67,
      "sensor_timestamp": 54279954664220,
      "time_usec": 54279954664
    },
    {
      "frame_id": 68,
      "sensor_timestamp": 54279987910558,
      "time_usec": 54279987910
    },
    {
      "frame_id": 69,
      "sensor_timestamp": 54280021156896,
      "time_usec": 54280021156
    },
    {
      "frame_id": 70,
      "sensor_timestamp": 54280054403234,
      "time_usec": 54280054403
    },
    {
      "frame_id": 71,
      "sensor_timestamp": 54280087649816,
      "time_usec": 54280087649
    },
    {
      "frame_id": 72,
      "sensor_timestamp": 54280120896153,
      "time_usec": 54280120896
    },
    {
      "frame_id": 73,
      "sensor_timestamp": 54280154142491,
      "time_usec": 54280154142
    },
    {
      "frame_id": 74,
      "sensor_timestamp": 54280187388829,
      "time_usec": 54280187388
    },
    {
      "frame_id": 75,
      "sensor_timestamp": 54280220635411,
      "time_usec": 54280220635
    },
    {
      "frame_id": 76,
      "sensor_timestamp": 54280253881749,
      "time_usec": 54280253881
    },
    {
      "frame_id": 77,
      "sensor_timestamp": 54280287128087,
      "time_usec": 54280287128
    },
    {
      "frame_id": 78,
      "sensor_timestamp": 54280320374425,
      "time_usec": 54280320374
    },
    {
      "frame_id": 79,
      "sensor_timestamp": 54280353621007,
      "time_usec": 54280353621
    },
    {
      "frame_id": 80,
      "sensor_timestamp": 54280386867345,
      "time_usec": 54280386867
    },
    {
      "frame_id": 81,
      "sensor_timestamp": 54280420113683,
      "time_usec": 54280420113
    },
    {
      "frame_id": 82,
      "sensor_timestamp": 54280453360021,
      "time_usec": 54280453360
    },
    {
      "frame_id": 83,
      "sensor_timestamp": 54280486606603,
      "time_usec": 54280486606
    },
    {
      "frame_id": 84,
      "sensor_timestamp": 54280519852941,
      "time_usec": 54280519852
    },
    {
      "frame_id": 85,
      "sensor_timestamp": 54280553099278,
      "time_usec": 54280553099
    },
    {
      "frame_id": 86,
      "sensor_timestamp": 54280586345616,
      "time_usec": 54280586345
    },
    {
      "frame_id": 87,
      "sensor_timestamp": 54280619592198,
      "time_usec": 54280619592
    },
    {
      "frame_id": 88,
      "sensor_timestamp": 54280652838536,
      "time_usec": 54280652838
    },
    {
      "frame_id": 89,
      "sensor_timestamp": 54280686084874,
      "time_usec": 54280686084
    },
    {
      "frame_id": 90,
      "sensor_timestamp": 54280719331212,
      "time_usec": 54280719331
    },
    {
      "frame_id": 91,
      "sensor_timestamp": 54280752577794,
      "time_usec": 54280752577
    },
    {
      "frame_id": 92,
      "sensor_timestamp": 54280785824132,
      "time_usec": 54280785824
    },
    {
      "frame_id": 93,
      "sensor_timestamp": 54280819070470,
      "time_usec": 54280819070
    },
    {
      "frame_id": 94,
      "sensor_timestamp": 54280852316808,
      "time_usec": 54280852316
    },
    {
      "frame_id": 95,
      "sensor_timestamp": 54280885563390,
      "time_usec": 54280885563
    },
    {
      "frame_id": 96,
      "sensor_timestamp": 54280918809728,
      "time_usec": 54280918809
    },
    {
      "frame_id": 97,
      "sensor_timestamp": 54280952056066,
      "time_usec": 54280952056
    },
    {
      "frame_id": 98,
      "sensor_timestamp": 54280985302403,
      "time_usec": 54280985302
    },
    {
      "frame_id": 99,
      "sensor_timestamp": 54281018548741,
      "time_usec": 54281018548
    },
    {
      "frame_id": 100,
      "sensor_timestamp": 54281051795323,
      "time_usec": 54281051795
    },
    {
      "frame_id": 101,
      "sensor_timestamp": 54281085041661,
      "time_usec": 54281085041
    },
    {
      "frame_id": 102,
      "sensor_timestamp": 54281118287999,
      "time_usec": 54281118287
    },
    {
      "frame_id": 103,
      "sensor_timestamp": 54281151534337,
      "time_usec": 54281151534
    },
    {
      "frame_id": 104,
      "sensor_timestamp": 54281184780919,
      "time_usec": 54281184780
    },
    {
      "frame_id": 105,
      "sensor_timestamp": 54281218027257,
      "time_usec": 54281218027
    },
    {
      "frame_id": 106,
      "sensor_timestamp": 54281251273595,
      "time_usec": 54281251273
    },
    {
      "frame_id": 107,
      "sensor_timestamp": 54281284519933,
      "time_usec": 54281284519
    },
    {
      "frame_id": 108,
      "sensor_timestamp": 54281317766515,
      "time_usec": 54281317766
    },
    {
      "frame_id": 109,
      "sensor_timestamp": 54281351012853,
      "time_usec": 54281351012
    },
    {
      "frame_id": 110,
      "sensor_timestamp": 54281384259191,
      "time_usec": 54281384259
    },
    {
      "frame_id": 111,
      "sensor_timestamp": 54281417505528,
      "time_usec": 54281417505
    },
    {
      "frame_id": 112,
      "sensor_timestamp": 54281450752111,
      "time_usec": 54281450752
    },
    {
      "frame_id": 113,
      "sensor_timestamp": 54281483998448,
      "time_usec": 54281483998
    },
    {
      "frame_id": 114,
      "sensor_timestamp": 54281517244786,
      "time_usec": 54281517244
    },
    {
      "frame_id": 115,
      "sensor_timestamp": 54281550491124,
      "time_usec": 54281550491
    },
    {
      "frame_id": 116,
      "sensor_timestamp": 54281583737706,
      "time_usec": 54281583737
    },
    {
      "frame_id": 117,
      "sensor_timestamp": 54281616984044,
      "time_usec": 54281616984
    },
    {
      "frame_id": 118,
      "sensor_timestamp": 54281650230382,
      "time_usec": 54281650230
    },
    {
      "frame_id": 119,
      "sensor_timestamp": 54281683476720,
      "time_usec": 54281683476
    },
    {
      "frame_id": 120,
      "sensor_timestamp": 54281716723302,
      "time_usec": 54281716723
    },
    {
      "frame_id": 121,
      "sensor_timestamp": 54281749969640,
      "time_usec": 54281749969
    },
    {
      "frame_id": 122,
      "sensor_timestamp": 54281783215978,
      "time_usec": 54281783215
    },
    {
      "frame_id": 123,
      "sensor_timestamp": 54281816462316,
      "time_usec": 54281816462
    },
    {
      "frame_id": 124,
      "sensor_timestamp": 54281849708898,
      "time_usec": 54281849708
    },
    {
      "frame_id": 125,
      "sensor_timestamp": 54281882955236,
      "time_usec": 54281882955
    },
    {
      "frame_id": 126,
      "sensor_timestamp": 54281916201573,
      "time_usec": 54281916201
    },
    {
      "frame_id": 127,
      "sensor_timestamp": 54281949447911,
      "time_usec": 54281949447
    },
    {
      "frame_id": 128,
      "sensor_timestamp": 54281982694493,
      "time_usec": 54281982694
    },
    {
      "frame_id": 129,
      "sensor_timestamp": 54282015940831,
      "time_usec": 54282015940
    },
    {
      "frame_id": 130,
      "sensor_timestamp": 54282049187169,
      "time_usec": 54282049187
    },
    {
      "frame_id": 131,
      "sensor_timestamp": 54282082433507,
      "time_usec": 54282082433
    },
    {
      "frame_id": 132,
      "sensor_timestamp": 54282115680089,
      "time_usec": 54282115680
    },
    {
      "frame_id": 133,
      "sensor_timestamp": 54282148926427,
      "time_usec": 54282148926
    },
    {
      "frame_id": 134,
      "sensor_timestamp": 54282182172765,
      "time_usec": 54282182172
    },
    {
      "frame_id": 135,
      "sensor_timestamp": 54282215419103,
      "time_usec": 54282215419
    },
    {
      "frame_id": 136,
      "sensor_timestamp": 54282248665441,
      "time_usec": 54282248665
    },
    {
      "frame_id": 137,
      "sensor_timestamp": 54282281912023,
      "time_usec": 54282281912
    },
    {
      "frame_id": 138,
      "sensor_timestamp": 54282315158361,
      "time_usec": 54282315158
    },
    {
      "frame_id": 139,
      "sensor_timestamp": 54282348404698,
      "time_usec": 54282348404
    },
    {
      "frame_id": 140,
      "sensor_timestamp": 54282381651036,
      "time_usec": 54282381651
    },
    {
      "frame_id": 141,
      "sensor_timestamp": 54282414897618,
      "time_usec": 54282414897
    },
    {
      "frame_id": 142,
      "sensor_timestamp": 54282448143956,
      "time_usec": 54282448143
    },
    {
      "frame_id": 143,
      "sensor_timestamp": 54282481390294,
      "time_usec": 54282481390
    },
    {
      "frame_id": 144,
      "sensor_timestamp": 54282514636632,
      "time_usec": 54282514636
    },
    {
      "frame_id": 145,
      "sensor_timestamp": 54282547883214,
      "time_usec": 54282547883
    },
    {
      "frame_id": 146,
      "sensor_timestamp": 54282581129552,
      "time_usec": 54282581129
    },
    {
      "frame_id": 147,
      "sensor_timestamp": 54282614375890,
      "time_usec": 54282614375
    },
    {
      "frame_id": 148,
      "sensor_timestamp": 54282647622228,
      "time_usec": 54282647622
    },
    {
      "frame_id": 149,
      "sensor_timestamp": 54282680868810,
      "time_usec": 54282680868
    },
    {
      "frame_id": 150,
      "sensor_timestamp": 54282714115148,
      "time_usec": 54282714115
    },
    {
      "frame_id": 151,
      "sensor_timestamp": 54282747361486,
      "time_usec": 54282747361
    },
    {
      "frame_id": 152,
      "sensor_timestamp": 54282780607823,
      "time_usec": 54282780607
    },
    {
      "frame_id": 153,
      "sensor_timestamp": 54282813854405,
      "time_usec": 54282813854
    },
    {
      "frame_id": 154,
      "sensor_timestamp": 54282847100743,
      "time_usec": 54282847100
    },
    {
      "frame_id": 155,
      "sensor_timestamp": 54282880347081,
      "time_usec": 54282880347
    },
    {
      "frame_id": 156,
      "sensor_timestamp": 54282913593419,
      "time_usec": 54282913593
    },
    {
      "frame_id": 157,
      "sensor_timestamp": 54282946840001,
      "time_usec": 54282946840
    },
    {
      "frame_id": 158,
      "sensor_timestamp": 54282980086339,
      "time_usec": 54282980086
    },
    {
      "frame_id": 159,
      "sensor_timestamp": 54283013332677,
      "time_usec": 54283013332
    },
    {
      "frame_id": 160,
      "sensor_timestamp": 54283046579015,
      "time_usec": 54283046579
    },
    {
      "frame_id": 161,
      "sensor_timestamp": 54283079825597,
      "time_usec": 54283079825
    },
    {
      "frame_id": 162,
      "sensor_timestamp": 54283113071935,
      "time_usec": 54283113071
    },
    {
      "frame_id": 163,
      "sensor_timestamp": 54283146318273,
      "time_usec": 54283146318
    },
    {
      "frame_id": 164,
      "sensor_timestamp": 54283179564611,
      "time_usec": 54283179564
    },
    {
      "frame_id": 165,
      "sensor_timestamp": 54283212811193,
      "time_usec": 54283212811
    },
    {
      "frame_id": 166,
      "sensor_timestamp": 54283246057530,
      "time_usec": 54283246057
    },
    {
      "frame_id": 167,
      "sensor_timestamp": 54283279303868,
      "time_usec": 54283279303
    },
    {
      "frame_id": 168,
      "sensor_timestamp": 54283312550206,
      "time_usec": 54283312550
    },
    {
      "frame_id": 169,
      "sensor_timestamp": 54283345796544,
      "time_usec": 54283345796
    },
    {
      "frame_id": 170,
      "sensor_timestamp": 54283379043126,
      "time_usec": 54283379043
    },
    {
      "frame_id": 171,
      "sensor_timestamp": 54283412289464,
      "time_usec": 54283412289
    },
    {
      "frame_id": 172,
      "sensor_timestamp": 54283445535802,
      "time_usec": 54283445535
    },
    {
      "frame_id": 173,
      "sensor_timestamp": 54283478782140,
      "time_usec": 54283478782
    },
    {
      "frame_id": 174,
      "sensor_timestamp": 54283512028722,
      "time_usec": 54283512028
    },
    {
      "frame_id": 175,
      "sensor_timestamp": 54283545275060,
      "time_usec": 54283545275
    },
    {
      "frame_id": 176,
      "sensor_timestamp": 54283578521398,
      "time_usec": 54283578521
    },
    {
      "frame_id": 177,
      "sensor_timestamp": 54283611767736,
      "time_usec": 54283611767
    },
    {
      "frame_id": 178,
      "sensor_timestamp": 54283645014318,
      "time_usec": 54283645014
    },
    {
      "frame_id": 179,
      "sensor_timestamp": 54283678260655,
      "time_usec": 54283678260
    },
    {
      "frame_id": 180,
      "sensor_timestamp": 54283711506993,
      "time_usec": 54283711506
    },
    {
      "frame_id": 181,
      "sensor_timestamp": 54283744753331,
      "time_usec": 54283744753
    },
    {
      "frame_id": 182,
      "sensor_timestamp": 54283777999913,
      "time_usec": 54283777999
    },
    {
      "frame_id": 183,
      "sensor_timestamp": 54283811246251,
      "time_usec": 54283811246
    },
    {
      "frame_id": 184,
      "sensor_timestamp": 54283844492589,
      "time_usec": 54283844492
    },
    {
      "frame_id": 185,
      "sensor_timestamp": 54283877738927,
      "time_usec": 54283877738
    },
    {
      "frame_id": 186,
      "sensor_timestamp": 54283910985509,
      "time_usec": 54283910985
    },
    {
      "frame_id": 187,
      "sensor_timestamp": 54283944231847,
      "time_usec": 54283944231
    },
    {
      "frame_id": 188,
      "sensor_timestamp": 54283977478185,
      "time_usec": 54283977478
    },
    {
      "frame_id": 189,
      "sensor_timestamp": 54284010724523,
      "time_usec": 54284010724
    },
    {
      "frame_id": 190,
      "sensor_timestamp": 54284043971105,
      "time_usec": 54284043971
    },
    {
      "frame_id": 191,
      "sensor_timestamp": 54284077217443,
      "time_usec": 54284077217
    },
    {
      "frame_id": 192,
      "sensor_timestamp": 54284110463780,
      "time_usec": 54284110463
    },
    {
      "frame_id": 193,
      "sensor_timestamp": 54284143710118,
      "time_usec": 54284143710
    },
    {
      "frame_id": 194,
      "sensor_timestamp": 54284176956700,
      "time_usec": 54284176956
    },
    {
      "frame_id": 195,
      "sensor_timestamp": 54284210203038,
      "time_usec": 54284210203
    },
    {
      "frame_id": 196,
      "sensor_timestamp": 54284243449376,
      "time_usec": 54284243449
    },
    {
      "frame_id": 197,
      "sensor_timestamp": 54284276695714,
      "time_usec": 54284276695
    },
    {
      "frame_id": 198,
      "sensor_timestamp": 54284309942296,
      "time_usec": 54284309942
    },
    {
      "frame_id": 199,
      "sensor_timestamp": 54284343188634,
      "time_usec": 54284343188
    },
    {
      "frame_id": 200,
      "sensor_timestamp": 54284376434972,
      "time_usec": 54284376434
    },
    {
      "frame_id": 201,
      "sensor_timestamp": 54284409681310,
      "time_usec": 54284409681
    },
    {
      "frame_id": 202,
      "sensor_timestamp": 54284442927892,
      "time_usec": 54284442927
    },
    {
      "frame_id": 203,
      "sensor_timestamp": 54284476174230,
      "time_usec": 54284476174
    },
    {
      "frame_id": 204,
      "sensor_timestamp": 54284509420568,
      "time_usec": 54284509420
    },
    {
      "frame_id": 205,
      "sensor_timestamp": 54284542666905,
      "time_usec": 54284542666
    },
    {
      "frame_id": 206,
      "sensor_timestamp": 54284575913243,
      "time_usec": 54284575913
    },
    {
      "frame_id": 207,
      "sensor_timestamp": 54284609159825,
      "time_usec": 54284609159
    },
    {
      "frame_id": 208,
      "sensor_timestamp": 54284642406163,
      "time_usec": 54284642406
    },
    {
      "frame_id": 209,
      "sensor_timestamp": 54284675652501,
      "time_usec": 54284675652
    },
    {
      "frame_id": 210,
      "sensor_timestamp": 54284708898839,
      "time_usec": 54284708898
    },
    {
      "frame_id": 211,
      "sensor_timestamp": 54284742145421,
      "time_usec": 54284742145
    },
    {
      "frame_id": 212,
      "sensor_timestamp": 54284775391759,
      "time_usec": 54284775391
    },
    {
      "frame_id": 213,
      "sensor_timestamp": 54284808638097,
      "time_usec": 54284808638
    },
    {
      "frame_id": 214,
      "sensor_timestamp": 54284841884435,
      "time_usec": 54284841884
    },
    {
      "frame_id": 215,
      "sensor_timestamp": 54284875131017,
      "time_usec": 54284875131
    },
    {
      "frame_id": 216,
      "sensor_timestamp": 54284908377355,
      "time_usec": 54284908377
    },
    {
      "frame_id": 217,
      "sensor_timestamp": 54284941623693,
      "time_usec": 54284941623
    },
    {
      "frame_id": 218,
      "sensor_timestamp": 54284974870030,
      "time_usec": 54284974870
    },
    {
      "frame_id": 219,
      "sensor_timestamp": 54285008116612,
      "time_usec": 54285008116
    },
    {
      "frame_id": 220,
      "sensor_timestamp": 54285041362950,
      "time_usec": 54285041362
    },
    {
      "frame_id": 221,
      "sensor_timestamp": 54285074609288,
      "time_usec": 54285074609
    },
    {
      "frame_id": 222,
      "sensor_timestamp": 54285107855626,
      "time_usec": 54285107855
    },
    {
      "frame_id": 223,
      "sensor_timestamp": 54285141102208,
      "time_usec": 54285141102
    },
    {
      "frame_id": 224,
      "sensor_timestamp": 54285174348546,
      "time_usec": 54285174348
    },
    {
      "frame_id": 225,
      "sensor_timestamp": 54285207594884,
      "time_usec": 54285207594
    },
    {
      "frame_id": 226,
      "sensor_timestamp": 54285240841222,
      "time_usec": 54285240841
    },
    {
      "frame_id": 227,
      "sensor_timestamp": 54285274087804,
      "time_usec": 54285274087
    },
    {
      "frame_id": 228,
      "sensor_timestamp": 54285307334142,
      "time_usec": 54285307334
    },
    {
      "frame_id": 229,
      "sensor_timestamp": 54285340580480,
      "time_usec": 54285340580
    },
    {
      "frame_id": 230,
      "sensor_timestamp": 54285373826818,
      "time_usec": 54285373826
    },
    {
      "frame_id": 231,
      "sensor_timestamp": 54285407073400,
      "time_usec": 54285407073
    },
    {
      "frame_id": 232,
      "sensor_timestamp": 54285440319737,
      "time_usec": 54285440319
    },
    {
      "frame_id": 233,
      "sensor_timestamp": 54285473566075,
      "time_usec": 54285473566
    },
    {
      "frame_id": 234,
      "sensor_timestamp": 54285506812413,
      "time_usec": 54285506812
    },
    {
      "frame_id": 235,
      "sensor_timestamp": 54285540058995,
      "time_usec": 54285540058
    },
    {
      "frame_id": 236,
      "sensor_timestamp": 54285573305333,
      "time_usec": 54285573305
    },
    {
      "frame_id": 237,
      "sensor_timestamp": 54285606551671,
      "time_usec": 54285606551
    },
    {
      "frame_id": 238,
      "sensor_timestamp": 54285639798009,
      "time_usec": 54285639798
    },
    {
      "frame_id": 239,
      "sensor_timestamp": 54285673044591,
      "time_usec": 54285673044
    },
    {
      "frame_id": 240,
      "sensor_timestamp": 54285706290929,
      "time_usec": 54285706290
    },
    {
      "frame_id": 241,
      "sensor_timestamp": 54285739537267,
      "time_usec": 54285739537
    },
    {
      "frame_id": 242,
      "sensor_timestamp": 54285772783605,
      "time_usec": 54285772783
    },
    {
      "frame_id": 243,
      "sensor_timestamp": 54285806029943,
      "time_usec": 54285806029
    },
    {
      "frame_id": 244,
      "sensor_timestamp": 54285839276525,
      "time_usec": 54285839276
    },
    {
      "frame_id": 245,
      "sensor_timestamp": 54285872522862,
      "time_usec": 54285872522
    },
    {
      "frame_id": 246,
      "sensor_timestamp": 54285905769200,
      "time_usec": 54285905769
    },
    {
      "frame_id": 247,
      "sensor_timestamp": 54285939015538,
      "time_usec": 54285939015
    },
    {
      "frame_id": 248,
      "sensor_timestamp": 54285972262120,
      "time_usec": 54285972262
    },
    {
      "frame_id": 249,
      "sensor_timestamp": 54286005508458,
      "time_usec": 54286005508
    },
    {
      "frame_id": 250,
      "sensor_timestamp": 54286038754796,
      "time_usec": 54286038754
    },
    {
      "frame_id": 251,
      "sensor_timestamp": 54286072001134,
      "time_usec": 54286072001
    },
    {
      "frame_id": 252,
      "sensor_timestamp": 54286105247716,
      "time_usec": 54286105247
    },
    {
      "frame_id": 253,
      "sensor_timestamp": 54286138494054,
      "time_usec": 54286138494
    },
    {
      "frame_id": 254,
      "sensor_timestamp": 54286171740392,
      "time_usec": 54286171740
    },
    {
      "frame_id": 255,
      "sensor_timestamp": 54286204986730,
      "time_usec": 54286204986
    },
    {
      "frame_id": 256,
      "sensor_timestamp": 54286238233312,
      "time_usec": 54286238233
    },
    {
      "frame_id": 257,
      "sensor_timestamp": 54286271479650,
      "time_usec": 54286271479
    },
    {
      "frame_id": 258,
      "sensor_timestamp": 54286304725987,
      "time_usec": 54286304725
    },
    {
      "frame_id": 259,
      "sensor_timestamp": 54286337972325,
      "time_usec": 54286337972
    },
    {
      "frame_id": 260,
      "sensor_timestamp": 54286371218907,
      "time_usec": 54286371218
    },
    {
      "frame_id": 261,
      "sensor_timestamp": 54286404465245,
      "time_usec": 54286404465
    },
    {
      "frame_id": 262,
      "sensor_timestamp": 54286437711583,
      "time_usec": 54286437711
    },
    {
      "frame_id": 263,
      "sensor_timestamp": 54286470957921,
      "time_usec": 54286470957
    },
    {
      "frame_id": 264,
      "sensor_timestamp": 54286504204503,
      "time_usec": 54286504204
    },
    {
      "frame_id": 265,
      "sensor_timestamp": 54286537450841,
      "time_usec": 54286537450
    },
    {
      "frame_id": 266,
      "sensor_timestamp": 54286570697179,
      "time_usec": 54286570697
    },
    {
      "frame_id": 267,
      "sensor_timestamp": 54286603943517,
      "time_usec": 54286603943
    },
    {
      "frame_id": 268,
      "sensor_timestamp": 54286637190099,
      "time_usec": 54286637190
    },
    {
      "frame_id": 269,
      "sensor_timestamp": 54286670436437,
      "time_usec": 54286670436
    },
    {
      "frame_id": 270,
      "sensor_timestamp": 54286703682775,
      "time_usec": 54286703682
    },
    {
      "frame_id": 271,
      "sensor_timestamp": 54286736929112,
      "time_usec": 54286736929
    },
    {
      "frame_id": 272,
      "sensor_timestamp": 54286770175694,
      "time_usec": 54286770175
    },
    {
      "frame_id": 273,
      "sensor_timestamp": 54286803422032,
      "time_usec": 54286803422
    },
    {
      "frame_id": 274,
      "sensor_timestamp": 54286836668370,
      "time_usec": 54286836668
    },
    {
      "frame_id": 275,
      "sensor_timestamp": 54286869914708,
      "time_usec": 54286869914
    },
    {
      "frame_id": 276,
      "sensor_timestamp": 54286903161290,
      "time_usec": 54286903161
    },
    {
      "frame_id": 277,
      "sensor_timestamp": 54286936407628,
      "time_usec": 54286936407
    },
    {
      "frame_id": 278,
      "sensor_timestamp": 54286969653966,
      "time_usec": 54286969653
    },
    {
      "frame_id": 279,
      "sensor_timestamp": 54287002900304,
      "time_usec": 54287002900
    },
    {
      "frame_id": 280,
      "sensor_timestamp": 54287036146642,
      "time_usec": 54287036146
    },
    {
      "frame_id": 281,
      "sensor_timestamp": 54287069393224,
      "time_usec": 54287069393
    },
    {
      "frame_id": 282,
      "sensor_timestamp": 54287102639562,
      "time_usec": 54287102639
    },
    {
      "frame_id": 283,
      "sensor_timestamp": 54287135885900,
      "time_usec": 54287135885
    },
    {
      "frame_id": 284,
      "sensor_timestamp": 54287169132237,
      "time_usec": 54287169132
    },
    {
      "frame_id": 285,
      "sensor_timestamp": 54287202378819,
      "time_usec": 54287202378
    },
    {
      "frame_id": 286,
      "sensor_timestamp": 54287235625157,
      "time_usec": 54287235625
    },
    {
      "frame_id": 287,
      "sensor_timestamp": 54287268871495,
      "time_usec": 54287268871
    },
    {
      "frame_id": 288,
      "sensor_timestamp": 54287302117833,
      "time_usec": 54287302117
    },
    {
      "frame_id": 289,
      "sensor_timestamp": 54287335364415,
      "time_usec": 54287335364
    },
    {
      "frame_id": 290,
      "sensor_timestamp": 54287368610753,
      "time_usec": 54287368610
    },
    {
      "frame_id": 291,
      "sensor_timestamp": 54287401857091,
      "time_usec": 54287401857
    },
    {
      "frame_id": 292,
      "sensor_timestamp": 54287435103429,
      "time_usec": 54287435103
    },
    {
      "frame_id": 293,
      "sensor_timestamp": 54287468350011,
      "time_usec": 54287468350
    },
    {
      "frame_id": 294,
      "sensor_timestamp": 54287501596349,
      "time_usec": 54287501596
    },
    {
      "frame_id": 295,
      "sensor_timestamp": 54287534842687,
      "time_usec": 54287534842
    },
    {
      "frame_id": 296,
      "sensor_timestamp": 54287568089025,
      "time_usec": 54287568089
    },
    {
      "frame_id": 297,
      "sensor_timestamp": 54287601335607,
      "time_usec": 54287601335
    },
    {
      "frame_id": 298,
      "sensor_timestamp": 54287634581944,
      "time_usec": 54287634581
    },
    {
      "frame_id": 299,
      "sensor_timestamp": 54287667828282,
      "time_usec": 54287667828
    },
    {
      "frame_id": 300,
      "sensor_timestamp": 54287701074620,
      "time_usec": 54287701074
    },
    {
      "frame_id": 301,
      "sensor_timestamp": 54287734321202,
      "time_usec": 54287734321
    },
    {
      "frame_id": 302,
      "sensor_timestamp": 54287767567540,
      "time_usec": 54287767567
    },
    {
      "frame_id": 303,
      "sensor_timestamp": 54287800813878,
      "time_usec": 54287800813
    },
    {
      "frame_id": 304,
      "sensor_timestamp": 54287834060216,
      "time_usec": 54287834060
    },
    {
      "frame_id": 305,
      "sensor_timestamp": 54287867306798,
      "time_usec": 54287867306
    },
    {
      "frame_id": 306,
      "sensor_timestamp": 54287900553136,
      "time_usec": 54287900553
    },
    {
      "frame_id": 307,
      "sensor_timestamp": 54287933799474,
      "time_usec": 54287933799
    },
    {
      "frame_id": 308,
      "sensor_timestamp": 54287967045812,
      "time_usec": 54287967045
    },
    {
      "frame_id": 309,
      "sensor_timestamp": 54288000292394,
      "time_usec": 54288000292
    },
    {
      "frame_id": 310,
      "sensor_timestamp": 54288033538732,
      "time_usec": 54288033538
    },
    {
      "frame_id": 311,
      "sensor_timestamp": 54288066785069,
      "time_usec": 54288066785
    },
    {
      "frame_id": 312,
      "sensor_timestamp": 54288100031407,
      "time_usec": 54288100031
    },
    {
      "frame_id": 313,
      "sensor_timestamp": 54288133277989,
      "time_usec": 54288133277
    },
    {
      "frame_id": 314,
      "sensor_timestamp": 54288166524327,
      "time_usec": 54288166524
    },
    {
      "frame_id": 315,
      "sensor_timestamp": 54288199770665,
      "time_usec": 54288199770
    },
    {
      "frame_id": 316,
      "sensor_timestamp": 54288233017003,
      "time_usec": 54288233017
    },
    {
      "frame_id": 317,
      "sensor_timestamp": 54288266263341,
      "time_usec": 54288266263
    },
    {
      "frame_id": 318,
      "sensor_timestamp": 54288299509923,
      "time_usec": 54288299509
    },
    {
      "frame_id": 319,
      "sensor_timestamp": 54288332756261,
      "time_usec": 54288332756
    },
    {
      "frame_id": 320,
      "sensor_timestamp": 54288366002599,
      "time_usec": 54288366002
    },
    {
      "frame_id": 321,
      "sensor_timestamp": 54288399248937,
      "time_usec": 54288399248
    },
    {
      "frame_id": 322,
      "sensor_timestamp": 54288432495519,
      "time_usec": 54288432495
    },
    {
      "frame_id": 323,
      "sensor_timestamp": 54288465741857,
      "time_usec": 54288465741
    },
    {
      "frame_id": 324,
      "sensor_timestamp": 54288498988194,
      "time_usec": 54288498988
    },
    {
      "frame_id": 325,
      "sensor_timestamp": 54288532234532,
      "time_usec": 54288532234
    },
    {
      "frame_id": 326,
      "sensor_timestamp": 54288565481114,
      "time_usec": 54288565481
    },
    {
      "frame_id": 327,
      "sensor_timestamp": 54288598727452,
      "time_usec": 54288598727
    },
    {
      "frame_id": 328,
      "sensor_timestamp": 54288631973790,
      "time_usec": 54288631973
    },
    {
      "frame_id": 329,
      "sensor_timestamp": 54288665220128,
      "time_usec": 54288665220
    },
    {
      "frame_id": 330,
      "sensor_timestamp": 54288698466710,
      "time_usec": 54288698466
    },
    {
      "frame_id": 331,
      "sensor_timestamp": 54288731713048,
      "time_usec": 54288731713
    },
    {
      "frame_id": 332,
      "sensor_timestamp": 54288764959386,
      "time_usec": 54288764959
    },
    {
      "frame_id": 333,
      "sensor_timestamp": 54288798205724,
      "time_usec": 54288798205
    },
    {
      "frame_id": 334,
      "sensor_timestamp": 54288831452306,
      "time_usec": 54288831452
    },
    {
      "frame_id": 335,
      "sensor_timestamp": 54288864698644,
      "time_usec": 54288864698
    },
    {
      "frame_id": 336,
      "sensor_timestamp": 54288897944982,
      "time_usec": 54288897944
    },
    {
      "frame_id": 337,
      "sensor_timestamp": 54288931191319,
      "time_usec": 54288931191
    },
    {
      "frame_id": 338,
      "sensor_timestamp": 54288964437902,
      "time_usec": 54288964437
    },
    {
      "frame_id": 339,
      "sensor_timestamp": 54288997684239,
      "time_usec": 54288997684
    },
    {
      "frame_id": 340,
      "sensor_timestamp": 54289030930577,
      "time_usec": 54289030930
    },
    {
      "frame_id": 341,
      "sensor_timestamp": 54289064176915,
      "time_usec": 54289064176
    },
    {
      "frame_id": 342,
      "sensor_timestamp": 54289097423497,
      "time_usec": 54289097423
    },
    {
      "frame_id": 343,
      "sensor_timestamp": 54289130669835,
      "time_usec": 54289130669
    },
    {
      "frame_id": 344,
      "sensor_timestamp": 54289163916173,
      "time_usec": 54289163916
    },
    {
      "frame_id": 345,
      "sensor_timestamp": 54289199943142,
      "time_usec": 54289199943
    },
    {
      "frame_id": 346,
      "sensor_timestamp": 54289233189724,
      "time_usec": 54289233189
    },
    {
      "frame_id": 347,
      "sensor_timestamp": 54289266436062,
      "time_usec": 54289266436
    },
    {
      "frame_id": 348,
      "sensor_timestamp": 54289299682400,
      "time_usec": 54289299682
    },
    {
      "frame_id": 349,
      "sensor_timestamp": 54289332928738,
      "time_usec": 54289332928
    },
    {
      "frame_id": 350,
      "sensor_timestamp": 54289366175320,
      "time_usec": 54289366175
    },
    {
      "frame_id": 351,
      "sensor_timestamp": 54289399421658,
      "time_usec": 54289399421
    },
    {
      "frame_id": 352,
      "sensor_timestamp": 54289432667995,
      "time_usec": 54289432667
    },
    {
      "frame_id": 353,
      "sensor_timestamp": 54289465914333,
      "time_usec": 54289465914
    },
    {
      "frame_id": 354,
      "sensor_timestamp": 54289499160671,
      "time_usec": 54289499160
    },
    {
      "frame_id": 355,
      "sensor_timestamp": 54289532407253,
      "time_usec": 54289532407
    },
    {
      "frame_id": 356,
      "sensor_timestamp": 54289565653591,
      "time_usec": 54289565653
    },
    {
      "frame_id": 357,
      "sensor_timestamp": 54289598899929,
      "time_usec": 54289598899
    },
    {
      "frame_id": 358,
      "sensor_timestamp": 54289632146267,
      "time_usec": 54289632146
    },
    {
      "frame_id": 359,
      "sensor_timestamp": 54289665392849,
      "time_usec": 54289665392
    },
    {
      "frame_id": 360,
      "sensor_timestamp": 54289698639187,
      "time_usec": 54289698639
    },
    {
      "frame_id": 361,
      "sensor_timestamp": 54289731885525,
      "time_usec": 54289731885
    },
    {
      "frame_id": 362,
      "sensor_timestamp": 54289765131863,
      "time_usec": 54289765131
    },
    {
      "frame_id": 363,
      "sensor_timestamp": 54289798378445,
      "time_usec": 54289798378
    },
    {
      "frame_id": 364,
      "sensor_timestamp": 54289831624783,
      "time_usec": 54289831624
    },
    {
      "frame_id": 365,
      "sensor_timestamp": 54289864871120,
      "time_usec": 54289864871
    },
    {
      "frame_id": 366,
      "sensor_timestamp": 54289898117458,
      "time_usec": 54289898117
    },
    {
      "frame_id": 367,
      "sensor_timestamp": 54289931364040,
      "time_usec": 54289931364
    },
    {
      "frame_id": 368,
      "sensor_timestamp": 54289964610378,
      "time_usec": 54289964610
    },
    {
      "frame_id": 369,
      "sensor_timestamp": 54289997856716,
      "time_usec": 54289997856
    },
    {
      "frame_id": 370,
      "sensor_timestamp": 54290031103054,
      "time_usec": 54290031103
    },
    {
      "frame_id": 371,
      "sensor_timestamp": 54290064349636,
      "time_usec": 54290064349
    },
    {
      "frame_id": 372,
      "sensor_timestamp": 54290097595974,
      "time_usec": 54290097595
    },
    {
      "frame_id": 373,
      "sensor_timestamp": 54290130842312,
      "time_usec": 54290130842
    },
    {
      "frame_id": 374,
      "sensor_timestamp": 54290164088650,
      "time_usec": 54290164088
    },
    {
      "frame_id": 375,
      "sensor_timestamp": 54290197335232,
      "time_usec": 54290197335
    },
    {
      "frame_id": 376,
      "sensor_timestamp": 54290230581570,
      "time_usec": 54290230581
    },
    {
      "frame_id": 377,
      "sensor_timestamp": 54290263827908,
      "time_usec": 54290263827
    },
    {
      "frame_id": 378,
      "sensor_timestamp": 54290297074245,
      "time_usec": 54290297074
    },
    {
      "frame_id": 379,
      "sensor_timestamp": 54290330320827,
      "time_usec": 54290330320
    },
    {
      "frame_id": 380,
      "sensor_timestamp": 54290363567165,
      "time_usec": 54290363567
    },
    {
      "frame_id": 381,
      "sensor_timestamp": 54290396813503,
      "time_usec": 54290396813
    },
    {
      "frame_id": 382,
      "sensor_timestamp": 54290430059841,
      "time_usec": 54290430059
    },
    {
      "frame_id": 383,
      "sensor_timestamp": 54290463265180,
      "time_usec": 54290463265
    },
    {
      "frame_id": 384,
      "sensor_timestamp": 54290496552761,
      "time_usec": 54290496552
    },
    {
      "frame_id": 385,
      "sensor_timestamp": 54290529799099,
      "time_usec": 54290529799
    },
    {
      "frame_id": 386,
      "sensor_timestamp": 54290563045437,
      "time_usec": 54290563045
    },
    {
      "frame_id": 387,
      "sensor_timestamp": 54290596291775,
      "time_usec": 54290596291
    },
    {
      "frame_id": 388,
      "sensor_timestamp": 54290629538357,
      "time_usec": 54290629538
    },
    {
      "frame_id": 389,
      "sensor_timestamp": 54290662784695,
      "time_usec": 54290662784
    },
    {
      "frame_id": 390,
      "sensor_timestamp": 54290696031033,
      "time_usec": 54290696031
    },
    {
      "frame_id": 391,
      "sensor_timestamp": 54290729277370,
      "time_usec": 54290729277
    },
    {
      "frame_id": 392,
      "sensor_timestamp": 54290762523952,
      "time_usec": 54290762523
    },
    {
      "frame_id": 393,
      "sensor_timestamp": 54290795770290,
      "time_usec": 54290795770
    },
    {
      "frame_id": 394,
      "sensor_timestamp": 54290829016628,
      "time_usec": 54290829016
    },
    {
      "frame_id": 395,
      "sensor_timestamp": 54290862262966,
      "time_usec": 54290862262
    },
    {
      "frame_id": 396,
      "sensor_timestamp": 54290895509548,
      "time_usec": 54290895509
    },
    {
      "frame_id": 397,
      "sensor_timestamp": 54290928755886,
      "time_usec": 54290928755
    },
    {
      "frame_id": 398,
      "sensor_timestamp": 54290962002224,
      "time_usec": 54290962002
    },
    {
      "frame_id": 399,
      "sensor_timestamp": 54290995248562,
      "time_usec": 54290995248
    },
    {
      "frame_id": 400,
      "sensor_timestamp": 54291028495144,
      "time_usec": 54291028495
    },
    {
      "frame_id": 401,
      "sensor_timestamp": 54291061741482,
      "time_usec": 54291061741
    },
    {
      "frame_id": 402,
      "sensor_timestamp": 54291094987820,
      "time_usec": 54291094987
    },
    {
      "frame_id": 403,
      "sensor_timestamp": 54291128234158,
      "time_usec": 54291128234
    },
    {
      "frame_id": 404,
      "sensor_timestamp": 54291161480740,
      "time_usec": 54291161480
    },
    {
      "frame_id": 405,
      "sensor_timestamp": 54291194727077,
      "time_usec": 54291194727
    },
    {
      "frame_id": 406,
      "sensor_timestamp": 54291227973415,
      "time_usec": 54291227973
    },
    {
      "frame_id": 407,
      "sensor_timestamp": 54291261219753,
      "time_usec": 54291261219
    },
    {
      "frame_id": 408,
      "sensor_timestamp": 54291294466335,
      "time_usec": 54291294466
    },
    {
      "frame_id": 409,
      "sensor_timestamp": 54291327785728,
      "time_usec": 54291327785
    },
    {
      "frame_id": 410,
      "sensor_timestamp": 54291360959011,
      "time_usec": 54291360959
    },
    {
      "frame_id": 411,
      "sensor_timestamp": 54291394205349,
      "time_usec": 54291394205
    },
    {
      "frame_id": 412,
      "sensor_timestamp": 54291427451931,
      "time_usec": 54291427451
    },
    {
      "frame_id": 413,
      "sensor_timestamp": 54291460698269,
      "time_usec": 54291460698
    },
    {
      "frame_id": 414,
      "sensor_timestamp": 54291493944607,
      "time_usec": 54291493944
    },
    {
      "frame_id": 415,
      "sensor_timestamp": 54291527190945,
      "time_usec": 54291527190
    },
    {
      "frame_id": 416,
      "sensor_timestamp": 54291560437527,
      "time_usec": 54291560437
    },
    {
      "frame_id": 417,
      "sensor_timestamp": 54291593683865,
      "time_usec": 54291593683
    },
    {
      "frame_id": 418,
      "sensor_timestamp": 54291626930202,
      "time_usec": 54291626930
    },
    {
      "frame_id": 419,
      "sensor_timestamp": 54291660176540,
      "time_usec": 54291660176
    },
    {
      "frame_id": 420,
      "sensor_timestamp": 54291693387657,
      "time_usec": 54291693387
    },
    {
      "frame_id": 421,
      "sensor_timestamp": 54291726669460,
      "time_usec": 54291726669
    },
    {
      "frame_id": 422,
      "sensor_timestamp": 54291759915798,
      "time_usec": 54291759915
    },
    {
      "frame_id": 423,
      "sensor_timestamp": 54291793162136,
      "time_usec": 54291793162
    },
    {
      "frame_id": 424,
      "sensor_timestamp": 54291826408474,
      "time_usec": 54291826408
    },
    {
      "frame_id": 425,
      "sensor_timestamp": 54291859655056,
      "time_usec": 54291859655
    },
    {
      "frame_id": 426,
      "sensor_timestamp": 54291892901394,
      "time_usec": 54291892901
    },
    {
      "frame_id": 427,
      "sensor_timestamp": 54291926147732,
      "time_usec": 54291926147
    },
    {
      "frame_id": 428,
      "sensor_timestamp": 54291959394070,
      "time_usec": 54291959394
    },
    {
      "frame_id": 429,
      "sensor_timestamp": 54291992640652,
      "time_usec": 54291992640
    },
    {
      "frame_id": 430,
      "sensor_timestamp": 54292025886990,
      "time_usec": 54292025886
    },
    {
      "frame_id": 431,
      "sensor_timestamp": 54292059133327,
      "time_usec": 54292059133
    },
    {
      "frame_id": 432,
      "sensor_timestamp": 54292092379665,
      "time_usec": 54292092379
    },
    {
      "frame_id": 433,
      "sensor_timestamp": 54292125626247,
      "time_usec": 54292125626
    },
    {
      "frame_id": 434,
      "sensor_timestamp": 54292158872585,
      "time_usec": 54292158872
    },
    {
      "frame_id": 435,
      "sensor_timestamp": 54292192118923,
      "time_usec": 54292192118
    },
    {
      "frame_id": 436,
      "sensor_timestamp": 54292225365261,
      "time_usec": 54292225365
    },
    {
      "frame_id": 437,
      "sensor_timestamp": 54292258611843,
      "time_usec": 54292258611
    },
    {
      "frame_id": 438,
      "sensor_timestamp": 54292291858181,
      "time_usec": 54292291858
    },
    {
      "frame_id": 439,
      "sensor_timestamp": 54292325104519,
      "time_usec": 54292325104
    },
    {
      "frame_id": 440,
      "sensor_timestamp": 54292358350857,
      "time_usec": 54292358350
    },
    {
      "frame_id": 441,
      "sensor_timestamp": 54292391597439,
      "time_usec": 54292391597
    },
    {
      "frame_id": 442,
      "sensor_timestamp": 54292424843777,
      "time_usec": 54292424843
    },
    {
      "frame_id": 443,
      "sensor_timestamp": 54292458090115,
      "time_usec": 54292458090
    },
    {
      "frame_id": 444,
      "sensor_timestamp": 54292491336452,
      "time_usec": 54292491336
    },
    {
      "frame_id": 445,
      "sensor_timestamp": 54292524583034,
      "time_usec": 54292524583
    },
    {
      "frame_id": 446,
      "sensor_timestamp": 54292557829372,
      "time_usec": 54292557829
    },
    {
      "frame_id": 447,
      "sensor_timestamp": 54292591075710,
      "time_usec": 54292591075
    },
    {
      "frame_id": 448,
      "sensor_timestamp": 54292624322048,
      "time_usec": 54292624322
    },
    {
      "frame_id": 449,
      "sensor_timestamp": 54292657568630,
      "time_usec": 54292657568
    },
    {
      "frame_id": 450,
      "sensor_timestamp": 54292690814968,
      "time_usec": 54292690814
    },
    {
      "frame_id": 451,
      "sensor_timestamp": 54292724061306,
      "time_usec": 54292724061
    },
    {
      "frame_id": 452,
      "sensor_timestamp": 54292757307644,
      "time_usec": 54292757307
    },
    {
      "frame_id": 453,
      "sensor_timestamp": 54292790554226,
      "time_usec": 54292790554
    },
    {
      "frame_id": 454,
      "sensor_timestamp": 54292823800564,
      "time_usec": 54292823800
    },
    {
      "frame_id": 455,
      "sensor_timestamp": 54292857046902,
      "time_usec": 54292857046
    },
    {
      "frame_id": 456,
      "sensor_timestamp": 54292890293240,
      "time_usec": 54292890293
    },
    {
      "frame_id": 457,
      "sensor_timestamp": 54292923539822,
      "time_usec": 54292923539
    },
    {
      "frame_id": 458,
      "sensor_timestamp": 54292956786159,
      "time_usec": 54292956786
    },
    {
      "frame_id": 459,
      "sensor_timestamp": 54292990032497,
      "time_usec": 54292990032
    },
    {
      "frame_id": 460,
      "sensor_timestamp": 54293023278835,
      "time_usec": 54293023278
    },
    {
      "frame_id": 461,
      "sensor_timestamp": 54293056525173,
      "time_usec": 54293056525
    },
    {
      "frame_id": 462,
      "sensor_timestamp": 54293089771755,
      "time_usec": 54293089771
    },
    {
      "frame_id": 463,
      "sensor_timestamp": 54293123018093,
      "time_usec": 54293123018
    },
    {
      "frame_id": 464,
      "sensor_timestamp": 54293156264431,
      "time_usec": 54293156264
    },
    {
      "frame_id": 465,
      "sensor_timestamp": 54293189510769,
      "time_usec": 54293189510
    },
    {
      "frame_id": 466,
      "sensor_timestamp": 54293222757351,
      "time_usec": 54293222757
    },
    {
      "frame_id": 467,
      "sensor_timestamp": 54293256003689,
      "time_usec": 54293256003
    },
    {
      "frame_id": 468,
      "sensor_timestamp": 54293289250027,
      "time_usec": 54293289250
    },
    {
      "frame_id": 469,
      "sensor_timestamp": 54293322496365,
      "time_usec": 54293322496
    },
    {
      "frame_id": 470,
      "sensor_timestamp": 54293355742947,
      "time_usec": 54293355742
    },
    {
      "frame_id": 471,
      "sensor_timestamp": 54293388989284,
      "time_usec": 54293388989
    },
    {
      "frame_id": 472,
      "sensor_timestamp": 54293422235622,
      "time_usec": 54293422235
    },
    {
      "frame_id": 473,
      "sensor_timestamp": 54293455481960,
      "time_usec": 54293455481
    },
    {
      "frame_id": 474,
      "sensor_timestamp": 54293488728542,
      "time_usec": 54293488728
    },
    {
      "frame_id": 475,
      "sensor_timestamp": 54293521974880,
      "time_usec": 54293521974
    },
    {
      "frame_id": 476,
      "sensor_timestamp": 54293555221218,
      "time_usec": 54293555221
    },
    {
      "frame_id": 477,
      "sensor_timestamp": 54293588467556,
      "time_usec": 54293588467
    },
    {
      "frame_id": 478,
      "sensor_timestamp": 54293621714138,
      "time_usec": 54293621714
    },
    {
      "frame_id": 479,
      "sensor_timestamp": 54293654960476,
      "time_usec": 54293654960
    },
    {
      "frame_id": 480,
      "sensor_timestamp": 54293688206814,
      "time_usec": 54293688206
    },
    {
      "frame_id": 481,
      "sensor_timestamp": 54293721453152,
      "time_usec": 54293721453
    },
    {
      "frame_id": 482,
      "sensor_timestamp": 54293754699734,
      "time_usec": 54293754699
    },
    {
      "frame_id": 483,
      "sensor_timestamp": 54293787946072,
      "time_usec": 54293787946
    },
    {
      "frame_id": 484,
      "sensor_timestamp": 54293821192409,
      "time_usec": 54293821192
    },
    {
      "frame_id": 485,
      "sensor_timestamp": 54293854438747,
      "time_usec": 54293854438
    },
    {
      "frame_id": 486,
      "sensor_timestamp": 54293887685329,
      "time_usec": 54293887685
    },
    {
      "frame_id": 487,
      "sensor_timestamp": 54293920931667,
      "time_usec": 54293920931
    },
    {
      "frame_id": 488,
      "sensor_timestamp": 54293954178005,
      "time_usec": 54293954178
    },
    {
      "frame_id": 489,
      "sensor_timestamp": 54293987424343,
      "time_usec": 54293987424
    },
    {
      "frame_id": 490,
      "sensor_timestamp": 54294020670925,
      "time_usec": 54294020670
    },
    {
      "frame_id": 491,
      "sensor_timestamp": 54294053917263,
      "time_usec": 54294053917
    },
    {
      "frame_id": 492,
      "sensor_timestamp": 54294087163601,
      "time_usec": 54294087163
    },
    {
      "frame_id": 493,
      "sensor_timestamp": 54294120409939,
      "time_usec": 54294120409
    },
    {
      "frame_id": 494,
      "sensor_timestamp": 54294153656521,
      "time_usec": 54294153656
    },
    {
      "frame_id": 495,
      "sensor_timestamp": 54294186902859,
      "time_usec": 54294186902
    },
    {
      "frame_id": 496,
      "sensor_timestamp": 54294220149197,
      "time_usec": 54294220149
    },
    {
      "frame_id": 497,
      "sensor_timestamp": 54294253395534,
      "time_usec": 54294253395
    },
    {
      "frame_id": 498,
      "sensor_timestamp": 54294286641872,
      "time_usec": 54294286641
    },
    {
      "frame_id": 499,
      "sensor_timestamp": 54294319888454,
      "time_usec": 54294319888
    },
    {
      "frame_id": 500,
      "sensor_timestamp": 54294353134792,
      "time_usec": 54294353134
    },
    {
      "frame_id": 501,
      "sensor_timestamp": 54294386381130,
      "time_usec": 54294386381
    },
    {
      "frame_id": 502,
      "sensor_timestamp": 54294419627468,
      "time_usec": 54294419627
    },
    {
      "frame_id": 503,
      "sensor_timestamp": 54294452874050,
      "time_usec": 54294452874
    },
    {
      "frame_id": 504,
      "sensor_timestamp": 54294486120388,
      "time_usec": 54294486120
    },
    {
      "frame_id": 505,
      "sensor_timestamp": 54294519366726,
      "time_usec": 54294519366
    },
    {
      "frame_id": 506,
      "sensor_timestamp": 54294552613064,
      "time_usec": 54294552613
    },
    {
      "frame_id": 507,
      "sensor_timestamp": 54294585859646,
      "time_usec": 54294585859
    },
    {
      "frame_id": 508,
      "sensor_timestamp": 54294619105984,
      "time_usec": 54294619105
    },
    {
      "frame_id": 509,
      "sensor_timestamp": 54294652352322,
      "time_usec": 54294652352
    },
    {
      "frame_id": 510,
      "sensor_timestamp": 54294685598659,
      "time_usec": 54294685598
    },
    {
      "frame_id": 511,
      "sensor_timestamp": 54294718845242,
      "time_usec": 54294718845
    },
    {
      "frame_id": 512,
      "sensor_timestamp": 54294752091579,
      "time_usec": 54294752091
    },
    {
      "frame_id": 513,
      "sensor_timestamp": 54294785337917,
      "time_usec": 54294785337
    },
    {
      "frame_id": 514,
      "sensor_timestamp": 54294818584255,
      "time_usec": 54294818584
    },
    {
      "frame_id": 515,
      "sensor_timestamp": 54294851830837,
      "time_usec": 54294851830
    },
    {
      "frame_id": 516,
      "sensor_timestamp": 54294885077175,
      "time_usec": 54294885077
    },
    {
      "frame_id": 517,
      "sensor_timestamp": 54294918323513,
      "time_usec": 54294918323
    },
    {
      "frame_id": 518,
      "sensor_timestamp": 54294951569851,
      "time_usec": 54294951569
    },
    {
      "frame_id": 519,
      "sensor_timestamp": 54294984816433,
      "time_usec": 54294984816
    },
    {
      "frame_id": 520,
      "sensor_timestamp": 54295018062771,
      "time_usec": 54295018062
    },
    {
      "frame_id": 521,
      "sensor_timestamp": 54295051309109,
      "time_usec": 54295051309
    },
    {
      "frame_id": 522,
      "sensor_timestamp": 54295084555447,
      "time_usec": 54295084555
    },
    {
      "frame_id": 523,
      "sensor_timestamp": 54295117802029,
      "time_usec": 54295117802
    },
    {
      "frame_id": 524,
      "sensor_timestamp": 54295151048367,
      "time_usec": 54295151048
    },
    {
      "frame_id": 525,
      "sensor_timestamp": 54295184294704,
      "time_usec": 54295184294
    },
    {
      "frame_id": 526,
      "sensor_timestamp": 54295217541042,
      "time_usec": 54295217541
    },
    {
      "frame_id": 527,
      "sensor_timestamp": 54295250787624,
      "time_usec": 54295250787
    },
    {
      "frame_id": 528,
      "sensor_timestamp": 54295284033962,
      "time_usec": 54295284033
    },
    {
      "frame_id": 529,
      "sensor_timestamp": 54295317280300,
      "time_usec": 54295317280
    },
    {
      "frame_id": 530,
      "sensor_timestamp": 54295347746007,
      "time_usec": 54295347746
    },
    {
      "frame_id": 531,
      "sensor_timestamp": 54295380992589,
      "time_usec": 54295380992
    },
    {
      "frame_id": 532,
      "sensor_timestamp": 54295414238927,
      "time_usec": 54295414238
    },
    {
      "frame_id": 533,
      "sensor_timestamp": 54295447485265,
      "time_usec": 54295447485
    },
    {
      "frame_id": 534,
      "sensor_timestamp": 54295480731603,
      "time_usec": 54295480731
    },
    {
      "frame_id": 535,
      "sensor_timestamp": 54295513977941,
      "time_usec": 54295513977
    },
    {
      "frame_id": 536,
      "sensor_timestamp": 54295547224523,
      "time_usec": 54295547224
    },
    {
      "frame_id": 537,
      "sensor_timestamp": 54295580470861,
      "time_usec": 54295580470
    },
    {
      "frame_id": 538,
      "sensor_timestamp": 54295613717198,
      "time_usec": 54295613717
    },
    {
      "frame_id": 539,
      "sensor_timestamp": 54295646963536,
      "time_usec": 54295646963
    },
    {
      "frame_id": 540,
      "sensor_timestamp": 54295680210118,
      "time_usec": 54295680210
    },
    {
      "frame_id": 541,
      "sensor_timestamp": 54295713456456,
      "time_usec": 54295713456
    },
    {
      "frame_id": 542,
      "sensor_timestamp": 54295746670423,
      "time_usec": 54295746670
    },
    {
      "frame_id": 543,
      "sensor_timestamp": 54295779949132,
      "time_usec": 54295779949
    },
    {
      "frame_id": 544,
      "sensor_timestamp": 54295813195714,
      "time_usec": 54295813195
    },
    {
      "frame_id": 545,
      "sensor_timestamp": 54295846442052,
      "time_usec": 54295846442
    },
    {
      "frame_id": 546,
      "sensor_timestamp": 54295879688390,
      "time_usec": 54295879688
    },
    {
      "frame_id": 547,
      "sensor_timestamp": 54295912934728,
      "time_usec": 54295912934
    },
    {
      "frame_id": 548,
      "sensor_timestamp": 54295946181310,
      "time_usec": 54295946181
    },
    {
      "frame_id": 549,
      "sensor_timestamp": 54295979427648,
      "time_usec": 54295979427
    },
    {
      "frame_id": 550,
      "sensor_timestamp": 54296012673986,
      "time_usec": 54296012673
    },
    {
      "frame_id": 551,
