{
  "frames": [
    {
      "frame_id": 0,
      "sensor_timestamp": 51315044149197,
      "time_usec": 51315044149
    },
    {
      "frame_id": 1,
      "sensor_timestamp": 51315110642117,
      "time_usec": 51315110642
    },
    {
      "frame_id": 2,
      "sensor_timestamp": 51315143888454,
      "time_usec": 51315143888
    },
    {
      "frame_id": 3,
      "sensor_timestamp": 51315177134792,
      "time_usec": 51315177134
    },
    {
      "frame_id": 4,
      "sensor_timestamp": 51315210381374,
      "time_usec": 51315210381
    },
    {
      "frame_id": 5,
      "sensor_timestamp": 51315243627712,
      "time_usec": 51315243627
    },
    {
      "frame_id": 6,
      "sensor_timestamp": 51315276874050,
      "time_usec": 51315276874
    },
    {
      "frame_id": 7,
      "sensor_timestamp": 51315310120388,
      "time_usec": 51315310120
    },
    {
      "frame_id": 8,
      "sensor_timestamp": 51315343366970,
      "time_usec": 51315343366
    },
    {
      "frame_id": 9,
      "sensor_timestamp": 51315376613308,
      "time_usec": 51315376613
    },
    {
      "frame_id": 10,
      "sensor_timestamp": 51315409859646,
      "time_usec": 51315409859
    },
    {
      "frame_id": 11,
      "sensor_timestamp": 51315443105984,
      "time_usec": 51315443105
    },
    {
      "frame_id": 12,
      "sensor_timestamp": 51315476352566,
      "time_usec": 51315476352
    },
    {
      "frame_id": 13,
      "sensor_timestamp": 51315509598904,
      "time_usec": 51315509598
    },
    {
      "frame_id": 14,
      "sensor_timestamp": 51315542845242,
      "time_usec": 51315542845
    },
    {
      "frame_id": 15,
      "sensor_timestamp": 51315576091579,
      "time_usec": 51315576091
    },
    {
      "frame_id": 16,
      "sensor_timestamp": 51315609338161,
      "time_usec": 51315609338
    },
    {
      "frame_id": 17,
      "sensor_timestamp": 51315642584499,
      "time_usec": 51315642584
    },
    {
      "frame_id": 18,
      "sensor_timestamp": 51315675830837,
      "time_usec": 51315675830
    },
    {
      "frame_id": 19,
      "sensor_timestamp": 51315709077175,
      "time_usec": 51315709077
    },
    {
      "frame_id": 20,
      "sensor_timestamp": 51315742323757,
      "time_usec": 51315742323
    },
    {
      "frame_id": 21,
      "sensor_timestamp": 51315775570095,
      "time_usec": 51315775570
    },
    {
      "frame_id": 22,
      "sensor_timestamp": 51315808816433,
      "time_usec": 51315808816
    },
    {
      "frame_id": 23,
      "sensor_timestamp": 51315842062771,
      "time_usec": 51315842062
    },
    {
      "frame_id": 24,
      "sensor_timestamp": 51315875309353,
      "time_usec": 51315875309
    },
    {
      "frame_id": 25,
      "sensor_timestamp": 51315908555691,
      "time_usec": 51315908555
    },
    {
      "frame_id": 26,
      "sensor_timestamp": 51315941802029,
      "time_usec": 51315941802
    },
    {
      "frame_id": 27,
      "sensor_timestamp": 51315975048367,
      "time_usec": 51315975048
    },
    {
      "frame_id": 28,
      "sensor_timestamp": 51316008294949,
      "time_usec": 51316008294
    },
    {
      "frame_id": 29,
      "sensor_timestamp": 51316041541286,
      "time_usec": 51316041541
    },
    {
      "frame_id": 30,
      "sensor_timestamp": 51316074787624,
      "time_usec": 51316074787
    },
    {
      "frame_id": 31,
      "sensor_timestamp": 51316108033962,
      "time_usec": 51316108033
    },
    {
      "frame_id": 32,
      "sensor_timestamp": 51316141280300,
      "time_usec": 51316141280
    },
    {
      "frame_id": 33,
      "sensor_timestamp": 51316174526882,
      "time_usec": 51316174526
    },
    {
      "frame_id": 34,
      "sensor_timestamp": 51316207773220,
      "time_usec": 51316207773
    },
    {
      "frame_id": 35,
      "sensor_timestamp": 51316241019558,
      "time_usec": 51316241019
    },
    {
      "frame_id": 36,
      "sensor_timestamp": 51316274265896,
      "time_usec": 51316274265
    },
    {
      "frame_id": 37,
      "sensor_timestamp": 51316307512478,
      "time_usec": 51316307512
    },
    {
      "frame_id": 38,
      "sensor_timestamp": 51316340758816,
      "time_usec": 51316340758
    },
    {
      "frame_id": 39,
      "sensor_timestamp": 51316374005154,
      "time_usec": 51316374005
    },
    {
      "frame_id": 40,
      "sensor_timestamp": 51316407251492,
      "time_usec": 51316407251
    },
    {
      "frame_id": 41,
      "sensor_timestamp": 51316440498074,
      "time_usec": 51316440498
    },
    {
      "frame_id": 42,
      "sensor_timestamp": 51316473744411,
      "time_usec": 51316473744
    },
    {
      "frame_id": 43,
      "sensor_timestamp": 51316506990749,
      "time_usec": 51316506990
    },
    {
      "frame_id": 44,
      "sensor_timestamp": 51316540237087,
      "time_usec": 51316540237
    },
    {
      "frame_id": 45,
      "sensor_timestamp": 51316573483669,
      "time_usec": 51316573483
    },
    {
      "frame_id": 46,
      "sensor_timestamp": 51316606730007,
      "time_usec": 51316606730
    },
    {
      "frame_id": 47,
      "sensor_timestamp": 51316639976345,
      "time_usec": 51316639976
    },
    {
      "frame_id": 48,
      "sensor_timestamp": 51316673222683,
      "time_usec": 51316673222
    },
    {
      "frame_id": 49,
      "sensor_timestamp": 51316706469265,
      "time_usec": 51316706469
    },
    {
      "frame_id": 50,
      "sensor_timestamp": 51316739715603,
      "time_usec": 51316739715
    },
    {
      "frame_id": 51,
      "sensor_timestamp": 51316772961941,
      "time_usec": 51316772961
    },
    {
      "frame_id": 52,
      "sensor_timestamp": 51316806208279,
      "time_usec": 51316806208
    },
    {
      "frame_id": 53,
      "sensor_timestamp": 51316839454861,
      "time_usec": 51316839454
    },
    {
      "frame_id": 54,
      "sensor_timestamp": 51316872701199,
      "time_usec": 51316872701
    },
    {
      "frame_id": 55,
      "sensor_timestamp": 51316905947536,
      "time_usec": 51316905947
    },
    {
      "frame_id": 56,
      "sensor_timestamp": 51316939193874,
      "time_usec": 51316939193
    },
    {
      "frame_id": 57,
      "sensor_timestamp": 51316972440456,
      "time_usec": 51316972440
    },
    {
      "frame_id": 58,
      "sensor_timestamp": 51317005686794,
      "time_usec": 51317005686
    },
    {
      "frame_id": 59,
      "sensor_timestamp": 51317038933132,
      "time_usec": 51317038933
    },
    {
      "frame_id": 60,
      "sensor_timestamp": 51317072179470,
      "time_usec": 51317072179
    },
    {
      "frame_id": 61,
      "sensor_timestamp": 51317105426052,
      "time_usec": 51317105426
    },
    {
      "frame_id": 62,
      "sensor_timestamp": 51317138672390,
      "time_usec": 51317138672
    },
    {
      "frame_id": 63,
      "sensor_timestamp": 51317171918728,
      "time_usec": 51317171918
    },
    {
      "frame_id": 64,
      "sensor_timestamp": 51317205165066,
      "time_usec": 51317205165
    },
    {
      "frame_id": 65,
      "sensor_timestamp": 51317238411648,
      "time_usec": 51317238411
    },
    {
      "frame_id": 66,
      "sensor_timestamp": 51317271657986,
      "time_usec": 51317271657
    },
    {
      "frame_id": 67,
      "sensor_timestamp": 51317304904324,
      "time_usec": 51317304904
    },
    {
      "frame_id": 68,
      "sensor_timestamp": 51317338150661,
      "time_usec": 51317338150
    },
    {
      "frame_id": 69,
      "sensor_timestamp": 51317371396999,
      "time_usec": 51317371396
    },
    {
      "frame_id": 70,
      "sensor_timestamp": 51317404643581,
      "time_usec": 51317404643
    },
    {
      "frame_id": 71,
      "sensor_timestamp": 51317437889919,
      "time_usec": 51317437889
    },
    {
      "frame_id": 72,
      "sensor_timestamp": 51317471136257,
      "time_usec": 51317471136
    },
    {
      "frame_id": 73,
      "sensor_timestamp": 51317504382595,
      "time_usec": 51317504382
    },
    {
      "frame_id": 74,
      "sensor_timestamp": 51317537629177,
      "time_usec": 51317537629
    },
    {
      "frame_id": 75,
      "sensor_timestamp": 51317570875515,
      "time_usec": 51317570875
    },
    {
      "frame_id": 76,
      "sensor_timestamp": 51317604121853,
      "time_usec": 51317604121
    },
    {
      "frame_id": 77,
      "sensor_timestamp": 51317637368191,
      "time_usec": 51317637368
    },
    {
      "frame_id": 78,
      "sensor_timestamp": 51317670614773,
      "time_usec": 51317670614
    },
    {
      "frame_id": 79,
      "sensor_timestamp": 51317703861111,
      "time_usec": 51317703861
    },
    {
      "frame_id": 80,
      "sensor_timestamp": 51317737107449,
      "time_usec": 51317737107
    },
    {
      "frame_id": 81,
      "sensor_timestamp": 51317770353786,
      "time_usec": 51317770353
    },
    {
      "frame_id": 82,
      "sensor_timestamp": 51317803600368,
      "time_usec": 51317803600
    },
    {
      "frame_id": 83,
      "sensor_timestamp": 51317836846706,
      "time_usec": 51317836846
    },
    {
      "frame_id": 84,
      "sensor_timestamp": 51317870093044,
      "time_usec": 51317870093
    },
    {
      "frame_id": 85,
      "sensor_timestamp": 51317903339382,
      "time_usec": 51317903339
    },
    {
      "frame_id": 86,
      "sensor_timestamp": 51317936585964,
      "time_usec": 51317936585
    },
    {
      "frame_id": 87,
      "sensor_timestamp": 51317969832302,
      "time_usec": 51317969832
    },
    {
      "frame_id": 88,
      "sensor_timestamp": 51318003078640,
      "time_usec": 51318003078
    },
    {
      "frame_id": 89,
      "sensor_timestamp": 51318036324978,
      "time_usec": 51318036324
    },
    {
      "frame_id": 90,
      "sensor_timestamp": 51318069571560,
      "time_usec": 51318069571
    },
    {
      "frame_id": 91,
      "sensor_timestamp": 51318102817898,
      "time_usec": 51318102817
    },
    {
      "frame_id": 92,
      "sensor_timestamp": 51318136064236,
      "time_usec": 51318136064
    },
    {
      "frame_id": 93,
      "sensor_timestamp": 51318169310574,
      "time_usec": 51318169310
    },
    {
      "frame_id": 94,
      "sensor_timestamp": 51318202557156,
      "time_usec": 51318202557
    },
    {
      "frame_id": 95,
      "sensor_timestamp": 51318235803493,
      "time_usec": 51318235803
    },
    {
      "frame_id": 96,
      "sensor_timestamp": 51318269049831,
      "time_usec": 51318269049
    },
    {
      "frame_id": 97,
      "sensor_timestamp": 51318302296169,
      "time_usec": 51318302296
    },
    {
      "frame_id": 98,
      "sensor_timestamp": 51318335542751,
      "time_usec": 51318335542
    },
    {
      "frame_id": 99,
      "sensor_timestamp": 51318368789089,
      "time_usec": 51318368789
    },
    {
      "frame_id": 100,
      "sensor_timestamp": 51318402035427,
      "time_usec": 51318402035
    },
    {
      "frame_id": 101,
      "sensor_timestamp": 51318435281765,
      "time_usec": 51318435281
    },
    {
      "frame_id": 102,
      "sensor_timestamp": 51318468528103,
      "time_usec": 51318468528
    },
    {
      "frame_id": 103,
      "sensor_timestamp": 51318501774685,
      "time_usec": 51318501774
    },
    {
      "frame_id": 104,
      "sensor_timestamp": 51318535021023,
      "time_usec": 51318535021
    },
    {
      "frame_id": 105,
      "sensor_timestamp": 51318568267361,
      "time_usec": 51318568267
    },
    {
      "frame_id": 106,
      "sensor_timestamp": 51318601513699,
      "time_usec": 51318601513
    },
    {
      "frame_id": 107,
      "sensor_timestamp": 51318634760281,
      "time_usec": 51318634760
    },
    {
      "frame_id": 108,
      "sensor_timestamp": 51318668006618,
      "time_usec": 51318668006
    },
    {
      "frame_id": 109,
      "sensor_timestamp": 51318701252956,
      "time_usec": 51318701252
    },
    {
      "frame_id": 110,
      "sensor_timestamp": 51318734499294,
      "time_usec": 51318734499
    },
    {
      "frame_id": 111,
      "sensor_timestamp": 51318767745876,
      "time_usec": 51318767745
    },
    {
      "frame_id": 112,
      "sensor_timestamp": 51318800992214,
      "time_usec": 51318800992
    },
    {
      "frame_id": 113,
      "sensor_timestamp": 51318834238552,
      "time_usec": 51318834238
    },
    {
      "frame_id": 114,
      "sensor_timestamp": 51318867484890,
      "time_usec": 51318867484
    },
    {
      "frame_id": 115,
      "sensor_timestamp": 51318900731472,
      "time_usec": 51318900731
    },
    {
      "frame_id": 116,
      "sensor_timestamp": 51318933977810,
      "time_usec": 51318933977
    },
    {
      "frame_id": 117,
      "sensor_timestamp": 51318967224148,
      "time_usec": 51318967224
    },
    {
      "frame_id": 118,
      "sensor_timestamp": 51319000470486,
      "time_usec": 51319000470
    },
    {
      "frame_id": 119,
      "sensor_timestamp": 51319033717068,
      "time_usec": 51319033717
    },
    {
      "frame_id": 120,
      "sensor_timestamp": 51319066963406,
      "time_usec": 51319066963
    },
    {
      "frame_id": 121,
      "sensor_timestamp": 51319100209743,
      "time_usec": 51319100209
    },
    {
      "frame_id": 122,
      "sensor_timestamp": 51319133456081,
      "time_usec": 51319133456
    },
    {
      "frame_id": 123,
      "sensor_timestamp": 51319166702663,
      "time_usec": 51319166702
    },
    {
      "frame_id": 124,
      "sensor_timestamp": 51319199949001,
      "time_usec": 51319199949
    },
    {
      "frame_id": 125,
      "sensor_timestamp": 51319233195339,
      "time_usec": 51319233195
    },
    {
      "frame_id": 126,
      "sensor_timestamp": 51319266441677,
      "time_usec": 51319266441
    },
    {
      "frame_id": 127,
      "sensor_timestamp": 51319299688259,
      "time_usec": 51319299688
    },
    {
      "frame_id": 128,
      "sensor_timestamp": 51319332934597,
      "time_usec": 51319332934
    },
    {
      "frame_id": 129,
      "sensor_timestamp": 51319366180935,
      "time_usec": 51319366180
    },
    {
      "frame_id": 130,
      "sensor_timestamp": 51319399427273,
      "time_usec": 51319399427
    },
    {
      "frame_id": 131,
      "sensor_timestamp": 51319432673855,
      "time_usec": 51319432673
    },
    {
      "frame_id": 132,
      "sensor_timestamp": 51319465920193,
      "time_usec": 51319465920
    },
    {
      "frame_id": 133,
      "sensor_timestamp": 51319499166531,
      "time_usec": 51319499166
    },
    {
      "frame_id": 134,
      "sensor_timestamp": 51319532412868,
      "time_usec": 51319532412
    },
    {
      "frame_id": 135,
      "sensor_timestamp": 51319565659450,
      "time_usec": 51319565659
    },
    {
      "frame_id": 136,
      "sensor_timestamp": 51319598905788,
      "time_usec": 51319598905
    },
    {
      "frame_id": 137,
      "sensor_timestamp": 51319632152126,
      "time_usec": 51319632152
    },
    {
      "frame_id": 138,
      "sensor_timestamp": 51319665398464,
      "time_usec": 51319665398
    },
    {
      "frame_id": 139,
      "sensor_timestamp": 51319698644802,
      "time_usec": 51319698644
    },
    {
      "frame_id": 140,
      "sensor_timestamp": 51319731891384,
      "time_usec": 51319731891
    },
    {
      "frame_id": 141,
      "sensor_timestamp": 51319765137722,
      "time_usec": 51319765137
    },
    {
      "frame_id": 142,
      "sensor_timestamp": 51319798384060,
      "time_usec": 51319798384
    },
    {
      "frame_id": 143,
      "sensor_timestamp": 51319831630398,
      "time_usec": 51319831630
    },
    {
      "frame_id": 144,
      "sensor_timestamp": 51319864876980,
      "time_usec": 51319864876
    },
    {
      "frame_id": 145,
      "sensor_timestamp": 51319898123318,
      "time_usec": 51319898123
    },
    {
      "frame_id": 146,
      "sensor_timestamp": 51319931369656,
      "time_usec": 51319931369
    },
    {
      "frame_id": 147,
      "sensor_timestamp": 51319964615993,
      "time_usec": 51319964615
    },
    {
      "frame_id": 148,
      "sensor_timestamp": 51319997862575,
      "time_usec": 51319997862
    },
    {
      "frame_id": 149,
      "sensor_timestamp": 51320031108913,
      "time_usec": 51320031108
    },
    {
      "frame_id": 150,
      "sensor_timestamp": 51320064355251,
      "time_usec": 51320064355
    },
    {
      "frame_id": 151,
      "sensor_timestamp": 51320097601589,
      "time_usec": 51320097601
    },
    {
      "frame_id": 152,
      "sensor_timestamp": 51320130848171,
      "time_usec": 51320130848
    },
    {
      "frame_id": 153,
      "sensor_timestamp": 51320164094509,
      "time_usec": 51320164094
    },
    {
      "frame_id": 154,
      "sensor_timestamp": 51320197340847,
      "time_usec": 51320197340
    },
    {
      "frame_id": 155,
      "sensor_timestamp": 51320230587185,
      "time_usec": 51320230587
    },
    {
      "frame_id": 156,
      "sensor_timestamp": 51320263833767,
      "time_usec": 51320263833
    },
    {
      "frame_id": 157,
      "sensor_timestamp": 51320297080105,
      "time_usec": 51320297080
    },
    {
      "frame_id": 158,
      "sensor_timestamp": 51320330326443,
      "time_usec": 51320330326
    },
    {
      "frame_id": 159,
      "sensor_timestamp": 51320363572781,
      "time_usec": 51320363572
    },
    {
      "frame_id": 160,
      "sensor_timestamp": 51320396819363,
      "time_usec": 51320396819
    },
    {
      "frame_id": 161,
      "sensor_timestamp": 51320430065700,
      "time_usec": 51320430065
    },
    {
      "frame_id": 162,
      "sensor_timestamp": 51320463312038,
      "time_usec": 51320463312
    },
    {
      "frame_id": 163,
      "sensor_timestamp": 51320496558376,
      "time_usec": 51320496558
    },
    {
      "frame_id": 164,
      "sensor_timestamp": 51320529804958,
      "time_usec": 51320529804
    },
    {
      "frame_id": 165,
      "sensor_timestamp": 51320563051296,
      "time_usec": 51320563051
    },
    {
      "frame_id": 166,
      "sensor_timestamp": 51320596297634,
      "time_usec": 51320596297
    },
    {
      "frame_id": 167,
      "sensor_timestamp": 51320629543972,
      "time_usec": 51320629543
    },
    {
      "frame_id": 168,
      "sensor_timestamp": 51320662790554,
      "time_usec": 51320662790
    },
    {
      "frame_id": 169,
      "sensor_timestamp": 51320696036892,
      "time_usec": 51320696036
    },
    {
      "frame_id": 170,
      "sensor_timestamp": 51320729283230,
      "time_usec": 51320729283
    },
    {
      "frame_id": 171,
      "sensor_timestamp": 51320762529568,
      "time_usec": 51320762529
    },
    {
      "frame_id": 172,
      "sensor_timestamp": 51320795776150,
      "time_usec": 51320795776
    },
    {
      "frame_id": 173,
      "sensor_timestamp": 51320829022488,
      "time_usec": 51320829022
    },
    {
      "frame_id": 174,
      "sensor_timestamp": 51320862268825,
      "time_usec": 51320862268
    },
    {
      "frame_id": 175,
      "sensor_timestamp": 51320895515163,
      "time_usec": 51320895515
    },
    {
      "frame_id": 176,
      "sensor_timestamp": 51320928761501,
      "time_usec": 51320928761
    },
    {
      "frame_id": 177,
      "sensor_timestamp": 51320962008083,
      "time_usec": 51320962008
    },
    {
      "frame_id": 178,
      "sensor_timestamp": 51320995254421,
      "time_usec": 51320995254
    },
    {
      "frame_id": 179,
      "sensor_timestamp": 51321028500759,
      "time_usec": 51321028500
    },
    {
      "frame_id": 180,
      "sensor_timestamp": 51321061747097,
      "time_usec": 51321061747
    },
    {
      "frame_id": 181,
      "sensor_timestamp": 51321094993679,
      "time_usec": 51321094993
    },
    {
      "frame_id": 182,
      "sensor_timestamp": 51321128240017,
      "time_usec": 51321128240
    },
    {
      "frame_id": 183,
      "sensor_timestamp": 51321161486355,
      "time_usec": 51321161486
    },
    {
      "frame_id": 184,
      "sensor_timestamp": 51321194732693,
      "time_usec": 51321194732
    },
    {
      "frame_id": 185,
      "sensor_timestamp": 51321227962014,
      "time_usec": 51321227962
    },
    {
      "frame_id": 186,
      "sensor_timestamp": 51321261225613,
      "time_usec": 51321261225
    },
    {
      "frame_id": 187,
      "sensor_timestamp": 51321294471950,
      "time_usec": 51321294471
    },
    {
      "frame_id": 188,
      "sensor_timestamp": 51321327718288,
      "time_usec": 51321327718
    },
    {
      "frame_id": 189,
      "sensor_timestamp": 51321360964870,
      "time_usec": 51321360964
    },
    {
      "frame_id": 190,
      "sensor_timestamp": 51321394211208,
      "time_usec": 51321394211
    },
    {
      "frame_id": 191,
      "sensor_timestamp": 51321427457546,
      "time_usec": 51321427457
    },
    {
      "frame_id": 192,
      "sensor_timestamp": 51321460703884,
      "time_usec": 51321460703
    },
    {
      "frame_id": 193,
      "sensor_timestamp": 51321493950466,
      "time_usec": 51321493950
    },
    {
      "frame_id": 194,
      "sensor_timestamp": 51321527196804,
      "time_usec": 51321527196
    },
    {
      "frame_id": 195,
      "sensor_timestamp": 51321560443142,
      "time_usec": 51321560443
    },
    {
      "frame_id": 196,
      "sensor_timestamp": 51321593689480,
      "time_usec": 51321593689
    },
    {
      "frame_id": 197,
      "sensor_timestamp": 51321626936062,
      "time_usec": 51321626936
    },
    {
      "frame_id": 198,
      "sensor_timestamp": 51321660182400,
      "time_usec": 51321660182
    },
    {
      "frame_id": 199,
      "sensor_timestamp": 51321693428738,
      "time_usec": 51321693428
    },
    {
      "frame_id": 200,
      "sensor_timestamp": 51321726675075,
      "time_usec": 51321726675
    },
    {
      "frame_id": 201,
      "sensor_timestamp": 51321759921658,
      "time_usec": 51321759921
    },
    {
      "frame_id": 202,
      "sensor_timestamp": 51321793167995,
      "time_usec": 51321793167
    },
    {
      "frame_id": 203,
      "sensor_timestamp": 51321826414333,
      "time_usec": 51321826414
    },
    {
      "frame_id": 204,
      "sensor_timestamp": 51321859660671,
      "time_usec": 51321859660
    },
    {
      "frame_id": 205,
      "sensor_timestamp": 51321892907253,
      "time_usec": 51321892907
    },
    {
      "frame_id": 206,
      "sensor_timestamp": 51321926153591,
      "time_usec": 51321926153
    },
    {
      "frame_id": 207,
      "sensor_timestamp": 51321959399929,
      "time_usec": 51321959399
    },
    {
      "frame_id": 208,
      "sensor_timestamp": 51321992646267,
      "time_usec": 51321992646
    },
    {
      "frame_id": 209,
      "sensor_timestamp": 51322025892849,
      "time_usec": 51322025892
    },
    {
      "frame_id": 210,
      "sensor_timestamp": 51322059139187,
      "time_usec": 51322059139
    },
    {
      "frame_id": 211,
      "sensor_timestamp": 51322092385525,
      "time_usec": 51322092385
    },
    {
      "frame_id": 212,
      "sensor_timestamp": 51322125631863,
      "time_usec": 51322125631
    },
    {
      "frame_id": 213,
      "sensor_timestamp": 51322158878200,
      "time_usec": 51322158878
    },
    {
      "frame_id": 214,
      "sensor_timestamp": 51322192124783,
      "time_usec": 51322192124
    },
    {
      "frame_id": 215,
      "sensor_timestamp": 51322225371120,
      "time_usec": 51322225371
    },
    {
      "frame_id": 216,
      "sensor_timestamp": 51322258617458,
      "time_usec": 51322258617
    },
    {
      "frame_id": 217,
      "sensor_timestamp": 51322291863796,
      "time_usec": 51322291863
    },
    {
      "frame_id": 218,
      "sensor_timestamp": 51322325110378,
      "time_usec": 51322325110
    },
    {
      "frame_id": 219,
      "sensor_timestamp": 51322358356716,
      "time_usec": 51322358356
    },
    {
      "frame_id": 220,
      "sensor_timestamp": 51322391603054,
      "time_usec": 51322391603
    },
    {
      "frame_id": 221,
      "sensor_timestamp": 51322424849392,
      "time_usec": 51322424849
    },
    {
      "frame_id": 222,
      "sensor_timestamp": 51322458095974,
      "time_usec": 51322458095
    },
    {
      "frame_id": 223,
      "sensor_timestamp": 51322491342312,
      "time_usec": 51322491342
    },
    {
      "frame_id": 224,
      "sensor_timestamp": 51322524588650,
      "time_usec": 51322524588
    },
    {
      "frame_id": 225,
      "sensor_timestamp": 51322557834988,
      "time_usec": 51322557834
    },
    {
      "frame_id": 226,
      "sensor_timestamp": 51322591081570,
      "time_usec": 51322591081
    },
    {
      "frame_id": 227,
      "sensor_timestamp": 51322624327908,
      "time_usec": 51322624327
    },
    {
      "frame_id": 228,
      "sensor_timestamp": 51322657574245,
      "time_usec": 51322657574
    },
    {
      "frame_id": 229,
      "sensor_timestamp": 51322690820583,
      "time_usec": 51322690820
    },
    {
      "frame_id": 230,
      "sensor_timestamp": 51322724067165,
      "time_usec": 51322724067
    },
    {
      "frame_id": 231,
      "sensor_timestamp": 51322757313503,
      "time_usec": 51322757313
    },
    {
      "frame_id": 232,
      "sensor_timestamp": 51322790559841,
      "time_usec": 51322790559
    },
    {
      "frame_id": 233,
      "sensor_timestamp": 51322823806179,
      "time_usec": 51322823806
    },
    {
      "frame_id": 234,
      "sensor_timestamp": 51322857052761,
      "time_usec": 51322857052
    },
    {
      "frame_id": 235,
      "sensor_timestamp": 51322890299099,
      "time_usec": 51322890299
    },
    {
      "frame_id": 236,
      "sensor_timestamp": 51322923545437,
      "time_usec": 51322923545
    },
    {
      "frame_id": 237,
      "sensor_timestamp": 51322956791775,
      "time_usec": 51322956791
    },
    {
      "frame_id": 238,
      "sensor_timestamp": 51322990038357,
      "time_usec": 51322990038
    },
    {
      "frame_id": 239,
      "sensor_timestamp": 51323023284695,
      "time_usec": 51323023284
    },
    {
      "frame_id": 240,
      "sensor_timestamp": 51323056531033,
      "time_usec": 51323056531
    },
    {
      "frame_id": 241,
      "sensor_timestamp": 51323089777370,
      "time_usec": 51323089777
    },
    {
      "frame_id": 242,
      "sensor_timestamp": 51323123023952,
      "time_usec": 51323123023
    },
    {
      "frame_id": 243,
      "sensor_timestamp": 51323156270290,
      "time_usec": 51323156270
    },
    {
      "frame_id": 244,
      "sensor_timestamp": 51323189516628,
      "time_usec": 51323189516
    },
    {
      "frame_id": 245,
      "sensor_timestamp": 51323222762966,
      "time_usec": 51323222762
    },
    {
      "frame_id": 246,
      "sensor_timestamp": 51323256009548,
      "time_usec": 51323256009
    },
    {
      "frame_id": 247,
      "sensor_timestamp": 51323289255886,
      "time_usec": 51323289255
    },
    {
      "frame_id": 248,
      "sensor_timestamp": 51323322502224,
      "time_usec": 51323322502
    },
    {
      "frame_id": 249,
      "sensor_timestamp": 51323355748562,
      "time_usec": 51323355748
    },
    {
      "frame_id": 250,
      "sensor_timestamp": 51323388994900,
      "time_usec": 51323388994
    },
    {
      "frame_id": 251,
      "sensor_timestamp": 51323422241482,
      "time_usec": 51323422241
    },
    {
      "frame_id": 252,
      "sensor_timestamp": 51323455487820,
      "time_usec": 51323455487
    },
    {
      "frame_id": 253,
      "sensor_timestamp": 51323488734158,
      "time_usec": 51323488734
    },
    {
      "frame_id": 254,
      "sensor_timestamp": 51323521980495,
      "time_usec": 51323521980
    },
    {
      "frame_id": 255,
      "sensor_timestamp": 51323555227077,
      "time_usec": 51323555227
    },
    {
      "frame_id": 256,
      "sensor_timestamp": 51323588473415,
      "time_usec": 51323588473
    },
    {
      "frame_id": 257,
      "sensor_timestamp": 51323621719753,
      "time_usec": 51323621719
    },
    {
      "frame_id": 258,
      "sensor_timestamp": 51323654966091,
      "time_usec": 51323654966
    },
    {
      "frame_id": 259,
      "sensor_timestamp": 51323688212673,
      "time_usec": 51323688212
    },
    {
      "frame_id": 260,
      "sensor_timestamp": 51323721459011,
      "time_usec": 51323721459
    },
    {
      "frame_id": 261,
      "sensor_timestamp": 51323754705349,
      "time_usec": 51323754705
    },
    {
      "frame_id": 262,
      "sensor_timestamp": 51323787951687,
      "time_usec": 51323787951
    },
    {
      "frame_id": 263,
      "sensor_timestamp": 51323821198269,
      "time_usec": 51323821198
    },
    {
      "frame_id": 264,
      "sensor_timestamp": 51323854444607,
      "time_usec": 51323854444
    },
    {
      "frame_id": 265,
      "sensor_timestamp": 51323887690945,
      "time_usec": 51323887690
    },
    {
      "frame_id": 266,
      "sensor_timestamp": 51323920937283,
      "time_usec": 51323920937
    },
    {
      "frame_id": 267,
      "sensor_timestamp": 51323954183865,
      "time_usec": 51323954183
    },
    {
      "frame_id": 268,
      "sensor_timestamp": 51323987430202,
      "time_usec": 51323987430
    },
    {
      "frame_id": 269,
      "sensor_timestamp": 51324020676540,
      "time_usec": 51324020676
    },
    {
      "frame_id": 270,
      "sensor_timestamp": 51324053922878,
      "time_usec": 51324053922
    },
    {
      "frame_id": 271,
      "sensor_timestamp": 51324087169460,
      "time_usec": 51324087169
    },
    {
      "frame_id": 272,
      "sensor_timestamp": 51324120415798,
      "time_usec": 51324120415
    },
    {
      "frame_id": 273,
      "sensor_timestamp": 51324153662136,
      "time_usec": 51324153662
    },
    {
      "frame_id": 274,
      "sensor_timestamp": 51324186908474,
      "time_usec": 51324186908
    },
    {
      "frame_id": 275,
      "sensor_timestamp": 51324220155056,
      "time_usec": 51324220155
    },
    {
      "frame_id": 276,
      "sensor_timestamp": 51324253401394,
      "time_usec": 51324253401
    },
    {
      "frame_id": 277,
      "sensor_timestamp": 51324286647732,
      "time_usec": 51324286647
    },
    {
      "frame_id": 278,
      "sensor_timestamp": 51324319894070,
      "time_usec": 51324319894
    },
    {
      "frame_id": 279,
      "sensor_timestamp": 51324353140652,
      "time_usec": 51324353140
    },
    {
      "frame_id": 280,
      "sensor_timestamp": 51324386386990,
      "time_usec": 51324386386
    },
    {
      "frame_id": 281,
      "sensor_timestamp": 51324419633327,
      "time_usec": 51324419633
    },
    {
      "frame_id": 282,
      "sensor_timestamp": 51324452879665,
      "time_usec": 51324452879
    },
    {
      "frame_id": 283,
      "sensor_timestamp": 51324486126247,
      "time_usec": 51324486126
    },
    {
      "frame_id": 284,
      "sensor_timestamp": 51324519372585,
      "time_usec": 51324519372
    },
    {
      "frame_id": 285,
      "sensor_timestamp": 51324552618923,
      "time_usec": 51324552618
    },
    {
      "frame_id": 286,
      "sensor_timestamp": 51324585865261,
      "time_usec": 51324585865
    },
    {
      "frame_id": 287,
      "sensor_timestamp": 51324619111599,
      "time_usec": 51324619111
    },
    {
      "frame_id": 288,
      "sensor_timestamp": 51324652358181,
      "time_usec": 51324652358
    },
    {
      "frame_id": 289,
      "sensor_timestamp": 51324685604519,
      "time_usec": 51324685604
    },
    {
      "frame_id": 290,
      "sensor_timestamp": 51324718850857,
      "time_usec": 51324718850
    },
    {
      "frame_id": 291,
      "sensor_timestamp": 51324752097195,
      "time_usec": 51324752097
    },
    {
      "frame_id": 292,
      "sensor_timestamp": 51324785343777,
      "time_usec": 51324785343
    },
    {
      "frame_id": 293,
      "sensor_timestamp": 51324818590115,
      "time_usec": 51324818590
    },
    {
      "frame_id": 294,
      "sensor_timestamp": 51324851836452,
      "time_usec": 51324851836
    },
    {
      "frame_id": 295,
      "sensor_timestamp": 51324885082790,
      "time_usec": 51324885082
    },
    {
      "frame_id": 296,
      "sensor_timestamp": 51324918329372,
      "time_usec": 51324918329
    },
    {
      "frame_id": 297,
      "sensor_timestamp": 51324951575710,
      "time_usec": 51324951575
    },
    {
      "frame_id": 298,
      "sensor_timestamp": 51324984822048,
      "time_usec": 51324984822
    },
    {
      "frame_id": 299,
      "sensor_timestamp": 51325018068386,
      "time_usec": 51325018068
    },
    {
      "frame_id": 300,
      "sensor_timestamp": 51325051314968,
      "time_usec": 51325051314
    },
    {
      "frame_id": 301,
      "sensor_timestamp": 51325084561306,
      "time_usec": 51325084561
    },
    {
      "frame_id": 302,
      "sensor_timestamp": 51325117807644,
      "time_usec": 51325117807
    },
    {
      "frame_id": 303,
      "sensor_timestamp": 51325151053982,
      "time_usec": 51325151053
    },
    {
      "frame_id": 304,
      "sensor_timestamp": 51325184300564,
      "time_usec": 51325184300
    },
    {
      "frame_id": 305,
      "sensor_timestamp": 51325217546902,
      "time_usec": 51325217546
    },
    {
      "frame_id": 306,
      "sensor_timestamp": 51325250793240,
      "time_usec": 51325250793
    },
    {
      "frame_id": 307,
      "sensor_timestamp": 51325284039577,
      "time_usec": 51325284039
    },
    {
      "frame_id": 308,
      "sensor_timestamp": 51325317286159,
      "time_usec": 51325317286
    },
    {
      "frame_id": 309,
      "sensor_timestamp": 51325350532497,
      "time_usec": 51325350532
    },
    {
      "frame_id": 310,
      "sensor_timestamp": 51325383778835,
      "time_usec": 51325383778
    },
    {
      "frame_id": 311,
      "sensor_timestamp": 51325417025173,
      "time_usec": 51325417025
    },
    {
      "frame_id": 312,
      "sensor_timestamp": 51325450271755,
      "time_usec": 51325450271
    },
    {
      "frame_id": 313,
      "sensor_timestamp": 51325483518093,
      "time_usec": 51325483518
    },
    {
      "frame_id": 314,
      "sensor_timestamp": 51325516764431,
      "time_usec": 51325516764
    },
    {
      "frame_id": 315,
      "sensor_timestamp": 51325550010769,
      "time_usec": 51325550010
    },
    {
      "frame_id": 316,
      "sensor_timestamp": 51325583257351,
      "time_usec": 51325583257
    },
    {
      "frame_id": 317,
      "sensor_timestamp": 51325616503689,
      "time_usec": 51325616503
    },
    {
      "frame_id": 318,
      "sensor_timestamp": 51325649750027,
      "time_usec": 51325649750
    },
    {
      "frame_id": 319,
      "sensor_timestamp": 51325682996365,
      "time_usec": 51325682996
    },
    {
      "frame_id": 320,
      "sensor_timestamp": 51325716242702,
      "time_usec": 51325716242
    },
    {
      "frame_id": 321,
      "sensor_timestamp": 51325749489284,
      "time_usec": 51325749489
    },
    {
      "frame_id": 322,
      "sensor_timestamp": 51325782735622,
      "time_usec": 51325782735
    },
    {
      "frame_id": 323,
      "sensor_timestamp": 51325815981960,
      "time_usec": 51325815981
    },
    {
      "frame_id": 324,
      "sensor_timestamp": 51325849228298,
      "time_usec": 51325849228
    },
    {
      "frame_id": 325,
      "sensor_timestamp": 51325882474880,
      "time_usec": 51325882474
    },
    {
      "frame_id": 326,
      "sensor_timestamp": 51325915721218,
      "time_usec": 51325915721
    },
    {
      "frame_id": 327,
      "sensor_timestamp": 51325948967556,
      "time_usec": 51325948967
    },
    {
      "frame_id": 328,
      "sensor_timestamp": 51325982213894,
      "time_usec": 51325982213
    },
    {
      "frame_id": 329,
      "sensor_timestamp": 51326015460476,
      "time_usec": 51326015460
    },
    {
      "frame_id": 330,
      "sensor_timestamp": 51326048706814,
      "time_usec": 51326048706
    },
    {
      "frame_id": 331,
      "sensor_timestamp": 51326081953152,
      "time_usec": 51326081953
    },
    {
      "frame_id": 332,
      "sensor_timestamp": 51326115169454,
      "time_usec": 51326115169
    },
    {
      "frame_id": 333,
      "sensor_timestamp": 51326148446072,
      "time_usec": 51326148446
    },
    {
      "frame_id": 334,
      "sensor_timestamp": 51326181692409,
      "time_usec": 51326181692
    },
    {
      "frame_id": 335,
      "sensor_timestamp": 51326214938747,
      "time_usec": 51326214938
    },
    {
      "frame_id": 336,
      "sensor_timestamp": 51326248185085,
      "time_usec": 51326248185
    },
    {
      "frame_id": 337,
      "sensor_timestamp": 51326281431667,
      "time_usec": 51326281431
    },
    {
      "frame_id": 338,
      "sensor_timestamp": 51326314678005,
      "time_usec": 51326314678
    },
    {
      "frame_id": 339,
      "sensor_timestamp": 51326347924343,
      "time_usec": 51326347924
    },
    {
      "frame_id": 340,
      "sensor_timestamp": 51326381170681,
      "time_usec": 51326381170
    },
    {
      "frame_id": 341,
      "sensor_timestamp": 51326414417263,
      "time_usec": 51326414417
    },
    {
      "frame_id": 342,
      "sensor_timestamp": 51326447663601,
      "time_usec": 51326447663
    },
    {
      "frame_id": 343,
      "sensor_timestamp": 51326480909939,
      "time_usec": 51326480909
    },
    {
      "frame_id": 344,
      "sensor_timestamp": 51326514156277,
      "time_usec": 51326514156
    },
    {
      "frame_id": 345,
      "sensor_timestamp": 51326547402859,
      "time_usec": 51326547402
    },
    {
      "frame_id": 346,
      "sensor_timestamp": 51326580649197,
      "time_usec": 51326580649
    },
    {
      "frame_id": 347,
      "sensor_timestamp": 51326613895534,
      "time_usec": 51326613895
    },
    {
      "frame_id": 348,
      "sensor_timestamp": 51326647141872,
      "time_usec": 51326647141
    },
    {
      "frame_id": 349,
      "sensor_timestamp": 51326680388454,
      "time_usec": 51326680388
    },
    {
      "frame_id": 350,
      "sensor_timestamp": 51326713634792,
      "time_usec": 51326713634
    },
    {
      "frame_id": 351,
      "sensor_timestamp": 51326746881130,
      "time_usec": 51326746881
    },
    {
      "frame_id": 352,
      "sensor_timestamp": 51326780127468,
      "time_usec": 51326780127
    },
    {
      "frame_id": 353,
      "sensor_timestamp": 51326813374050,
      "time_usec": 51326813374
    },
    {
      "frame_id": 354,
      "sensor_timestamp": 51326846620388,
      "time_usec": 51326846620
    },
    {
      "frame_id": 355,
      "sensor_timestamp": 51326879866726,
      "time_usec": 51326879866
    },
    {
      "frame_id": 356,
      "sensor_timestamp": 51326913113064,
      "time_usec": 51326913113
    },
    {
      "frame_id": 357,
      "sensor_timestamp": 51326946359402,
      "time_usec": 51326946359
    },
    {
      "frame_id": 358,
      "sensor_timestamp": 51326979605984,
      "time_usec": 51326979605
    },
    {
      "frame_id": 359,
      "sensor_timestamp": 51327012852322,
      "time_usec": 51327012852
    },
    {
      "frame_id": 360,
      "sensor_timestamp": 51327046098659,
      "time_usec": 51327046098
    },
    {
      "frame_id": 361,
      "sensor_timestamp": 51327079344997,
      "time_usec": 51327079344
    },
    {
      "frame_id": 362,
      "sensor_timestamp": 51327112591579,
      "time_usec": 51327112591
    },
    {
      "frame_id": 363,
      "sensor_timestamp": 51327145837917,
      "time_usec": 51327145837
    },
    {
      "frame_id": 364,
      "sensor_timestamp": 51327179084255,
      "time_usec": 51327179084
    },
    {
      "frame_id": 365,
      "sensor_timestamp": 51327212330593,
      "time_usec": 51327212330
    },
    {
      "frame_id": 366,
      "sensor_timestamp": 51327245577175,
      "time_usec": 51327245577
    },
    {
      "frame_id": 367,
      "sensor_timestamp": 51327278823513,
      "time_usec": 51327278823
    },
    {
      "frame_id": 368,
      "sensor_timestamp": 51327312069851,
      "time_usec": 51327312069
    },
    {
      "frame_id": 369,
      "sensor_timestamp": 51327345316189,
      "time_usec": 51327345316
    },
    {
      "frame_id": 370,
      "sensor_timestamp": 51327378562771,
      "time_usec": 51327378562
    },
    {
      "frame_id": 371,
      "sensor_timestamp": 51327411809109,
      "time_usec": 51327411809
    },
    {
      "frame_id": 372,
      "sensor_timestamp": 51327445055447,
      "time_usec": 51327445055
    },
    {
      "frame_id": 373,
      "sensor_timestamp": 51327478301784,
      "time_usec": 51327478301
    },
    {
      "frame_id": 374,
      "sensor_timestamp": 51327511548367,
      "time_usec": 51327511548
    },
    {
      "frame_id": 375,
      "sensor_timestamp": 51327544794704,
      "time_usec": 51327544794
    },
    {
      "frame_id": 376,
      "sensor_timestamp": 51327578041042,
      "time_usec": 51327578041
    },
    {
      "frame_id": 377,
      "sensor_timestamp": 51327611287380,
      "time_usec": 51327611287
    },
    {
      "frame_id": 378,
      "sensor_timestamp": 51327644533962,
      "time_usec": 51327644533
    },
    {
      "frame_id": 379,
      "sensor_timestamp": 51327677780300,
      "time_usec": 51327677780
    },
    {
      "frame_id": 380,
      "sensor_timestamp": 51327711026638,
      "time_usec": 51327711026
    },
    {
      "frame_id": 381,
      "sensor_timestamp": 51327744272976,
      "time_usec": 51327744272
    },
    {
      "frame_id": 382,
      "sensor_timestamp": 51327777519558,
      "time_usec": 51327777519
    },
    {
      "frame_id": 383,
      "sensor_timestamp": 51327810765896,
      "time_usec": 51327810765
    },
    {
      "frame_id": 384,
      "sensor_timestamp": 51327844012234,
      "time_usec": 51327844012
    },
    {
      "frame_id": 385,
      "sensor_timestamp": 51327877258572,
      "time_usec": 51327877258
    },
    {
      "frame_id": 386,
      "sensor_timestamp": 51327910505154,
      "time_usec": 51327910505
    },
    {
      "frame_id": 387,
      "sensor_timestamp": 51327943734681,
      "time_usec": 51327943734
    },
    {
      "frame_id": 388,
      "sensor_timestamp": 51327976997829,
      "time_usec": 51327976997
    },
    {
      "frame_id": 389,
      "sensor_timestamp": 51328010244167,
      "time_usec": 51328010244
    },
    {
      "frame_id": 390,
      "sensor_timestamp": 51328043490749,
      "time_usec": 51328043490
    },
    {
      "frame_id": 391,
      "sensor_timestamp": 51328076737087,
      "time_usec": 51328076737
    },
    {
      "frame_id": 392,
      "sensor_timestamp": 51328109983425,
      "time_usec": 51328109983
    },
    {
      "frame_id": 393,
      "sensor_timestamp": 51328143229763,
      "time_usec": 51328143229
    },
    {
      "frame_id": 394,
      "sensor_timestamp": 51328176476101,
      "time_usec": 51328176476
    },
    {
      "frame_id": 395,
      "sensor_timestamp": 51328209722683,
      "time_usec": 51328209722
    },
    {
      "frame_id": 396,
      "sensor_timestamp": 51328242969021,
      "time_usec": 51328242969
    },
    {
      "frame_id": 397,
      "sensor_timestamp": 51328276215359,
      "time_usec": 51328276215
    },
    {
      "frame_id": 398,
      "sensor_timestamp": 51328309461697,
      "time_usec": 51328309461
    },
    {
      "frame_id": 399,
      "sensor_timestamp": 51328342708279,
      "time_usec": 51328342708
    },
    {
      "frame_id": 400,
      "sensor_timestamp": 51328375954617,
      "time_usec": 51328375954
    },
    {
      "frame_id": 401,
      "sensor_timestamp": 51328409200954,
      "time_usec": 51328409200
    },
    {
      "frame_id": 402,
      "sensor_timestamp": 51328442447292,
      "time_usec": 51328442447
    },
    {
      "frame_id": 403,
      "sensor_timestamp": 51328475693874,
      "time_usec": 51328475693
    },
    {
      "frame_id": 404,
      "sensor_timestamp": 51328508940212,
      "time_usec": 51328508940
    },
    {
      "frame_id": 405,
      "sensor_timestamp": 51328542186550,
      "time_usec": 51328542186
    },
    {
      "frame_id": 406,
      "sensor_timestamp": 51328575432888,
      "time_usec": 51328575432
    },
    {
      "frame_id": 407,
      "sensor_timestamp": 51328608679470,
      "time_usec": 51328608679
    },
    {
      "frame_id": 408,
      "sensor_timestamp": 51328641925808,
      "time_usec": 51328641925
    },
    {
      "frame_id": 409,
      "sensor_timestamp": 51328675172146,
      "time_usec": 51328675172
    },
    {
      "frame_id": 410,
      "sensor_timestamp": 51328708418484,
      "time_usec": 51328708418
    },
    {
      "frame_id": 411,
      "sensor_timestamp": 51328741665066,
      "time_usec": 51328741665
    },
    {
      "frame_id": 412,
      "sensor_timestamp": 51328774911404,
      "time_usec": 51328774911
    },
    {
      "frame_id": 413,
      "sensor_timestamp": 51328808157742,
      "time_usec": 51328808157
    },
    {
      "frame_id": 414,
      "sensor_timestamp": 51328841404079,
      "time_usec": 51328841404
    },
    {
      "frame_id": 415,
      "sensor_timestamp": 51328874650661,
      "time_usec": 51328874650
    },
    {
      "frame_id": 416,
      "sensor_timestamp": 51328907896999,
      "time_usec": 51328907896
    },
    {
      "frame_id": 417,
      "sensor_timestamp": 51328941143337,
      "time_usec": 51328941143
    },
    {
      "frame_id": 418,
      "sensor_timestamp": 51328974389675,
      "time_usec": 51328974389
    },
    {
      "frame_id": 419,
      "sensor_timestamp": 51329007636257,
      "time_usec": 51329007636
    },
    {
      "frame_id": 420,
      "sensor_timestamp": 51329040882595,
      "time_usec": 51329040882
    },
    {
      "frame_id": 421,
      "sensor_timestamp": 51329074128933,
      "time_usec": 51329074128
    },
    {
      "frame_id": 422,
      "sensor_timestamp": 51329107375271,
      "time_usec": 51329107375
    },
    {
      "frame_id": 423,
      "sensor_timestamp": 51329140621853,
      "time_usec": 51329140621
    },
    {
      "frame_id": 424,
      "sensor_timestamp": 51329173868191,
      "time_usec": 51329173868
    },
    {
      "frame_id": 425,
      "sensor_timestamp": 51329207114529,
      "time_usec": 51329207114
    },
    {
      "frame_id": 426,
      "sensor_timestamp": 51329240360867,
      "time_usec": 51329240360
    },
    {
      "frame_id": 427,
      "sensor_timestamp": 51329273607449,
      "time_usec": 51329273607
    },
    {
      "frame_id": 428,
      "sensor_timestamp": 51329306853786,
      "time_usec": 51329306853
    },
    {
      "frame_id": 429,
      "sensor_timestamp": 51329340100124,
      "time_usec": 51329340100
    },
    {
      "frame_id": 430,
      "sensor_timestamp": 51329373346462,
      "time_usec": 51329373346
    },
    {
      "frame_id": 431,
      "sensor_timestamp": 51329406592800,
      "time_usec": 51329406592
    },
    {
      "frame_id": 432,
      "sensor_timestamp": 51329439839382,
      "time_usec": 51329439839
    },
    {
      "frame_id": 433,
      "sensor_timestamp": 51329473085720,
      "time_usec": 51329473085
    },
    {
      "frame_id": 434,
      "sensor_timestamp": 51329506332058,
      "time_usec": 51329506332
    },
    {
      "frame_id": 435,
      "sensor_timestamp": 51329539578396,
      "time_usec": 51329539578
    },
    {
      "frame_id": 436,
      "sensor_timestamp": 51329572824978,
      "time_usec": 51329572824
    },
    {
      "frame_id": 437,
      "sensor_timestamp": 51329606071316,
      "time_usec": 51329606071
    },
    {
      "frame_id": 438,
      "sensor_timestamp": 51329639317654,
      "time_usec": 51329639317
    },
    {
      "frame_id": 439,
      "sensor_timestamp": 51329672563992,
      "time_usec": 51329672563
    },
    {
      "frame_id": 440,
      "sensor_timestamp": 51329705810574,
      "time_usec": 51329705810
    },
    {
      "frame_id": 441,
      "sensor_timestamp": 51329739056911,
      "time_usec": 51329739056
    },
    {
      "frame_id": 442,
      "sensor_timestamp": 51329772403953,
      "time_usec": 51329772403
    },
    {
      "frame_id": 443,
      "sensor_timestamp": 51329805549587,
      "time_usec": 51329805549
    },
    {
      "frame_id": 444,
      "sensor_timestamp": 51329838796169,
      "time_usec": 51329838796
    },
    {
      "frame_id": 445,
      "sensor_timestamp": 51329872042507,
      "time_usec": 51329872042
    },
    {
      "frame_id": 446,
      "sensor_timestamp": 51329905288845,
      "time_usec": 51329905288
    },
    {
      "frame_id": 447,
      "sensor_timestamp": 51329938535183,
      "time_usec": 51329938535
    },
    {
      "frame_id": 448,
      "sensor_timestamp": 51329971781765,
      "time_usec": 51329971781
    },
    {
      "frame_id": 449,
      "sensor_timestamp": 51330005028103,
      "time_usec": 51330005028
    },
    {
      "frame_id": 450,
      "sensor_timestamp": 51330038274441,
      "time_usec": 51330038274
    },
    {
      "frame_id": 451,
      "sensor_timestamp": 51330071520779,
      "time_usec": 51330071520
    },
    {
      "frame_id": 452,
      "sensor_timestamp": 51330104767361,
      "time_usec": 51330104767
    },
    {
      "frame_id": 453,
      "sensor_timestamp": 51330138013699,
      "time_usec": 51330138013
    },
    {
      "frame_id": 454,
      "sensor_timestamp": 51330171236147,
      "time_usec": 51330171236
    },
    {
      "frame_id": 455,
      "sensor_timestamp": 51330204506374,
      "time_usec": 51330204506
    },
    {
      "frame_id": 456,
      "sensor_timestamp": 51330237752956,
      "time_usec": 51330237752
    },
    {
      "frame_id": 457,
      "sensor_timestamp": 51330270999294,
      "time_usec": 51330270999
    },
    {
      "frame_id": 458,
      "sensor_timestamp": 51330304249412,
      "time_usec": 51330304249
    },
    {
      "frame_id": 459,
      "sensor_timestamp": 51330337491970,
      "time_usec": 51330337491
    },
    {
      "frame_id": 460,
      "sensor_timestamp": 51330370738552,
      "time_usec": 51330370738
    },
    {
      "frame_id": 461,
      "sensor_timestamp": 51330403984890,
      "time_usec": 51330403984
    },
    {
      "frame_id": 462,
      "sensor_timestamp": 51330437231228,
      "time_usec": 51330437231
    },
    {
      "frame_id": 463,
      "sensor_timestamp": 51330470477566,
      "time_usec": 51330470477
    },
    {
      "frame_id": 464,
      "sensor_timestamp": 51330503724148,
      "time_usec": 51330503724
    },
    {
      "frame_id": 465,
      "sensor_timestamp": 51330536970486,
      "time_usec": 51330536970
    },
    {
      "frame_id": 466,
      "sensor_timestamp": 51330570216824,
      "time_usec": 51330570216
    },
    {
      "frame_id": 467,
      "sensor_timestamp": 51330603463161,
      "time_usec": 51330603463
    },
    {
      "frame_id": 468,
      "sensor_timestamp": 51330636709499,
      "time_usec": 51330636709
    },
    {
      "frame_id": 469,
      "sensor_timestamp": 51330669956081,
      "time_usec": 51330669956
    },
    {
      "frame_id": 470,
      "sensor_timestamp": 51330703202419,
      "time_usec": 51330703202
    },
    {
      "frame_id": 471,
      "sensor_timestamp": 51330736448757,
      "time_usec": 51330736448
    },
    {
      "frame_id": 472,
      "sensor_timestamp": 51330769695095,
      "time_usec": 51330769695
    },
    {
      "frame_id": 473,
      "sensor_timestamp": 51330802941677,
      "time_usec": 51330802941
    },
    {
      "frame_id": 474,
      "sensor_timestamp": 51330836188015,
      "time_usec": 51330836188
    },
    {
      "frame_id": 475,
      "sensor_timestamp": 51330869434353,
      "time_usec": 51330869434
    },
    {
      "frame_id": 476,
      "sensor_timestamp": 51330902680691,
      "time_usec": 51330902680
    },
    {
      "frame_id": 477,
      "sensor_timestamp": 51330935927273,
      "time_usec": 51330935927
    },
    {
      "frame_id": 478,
      "sensor_timestamp": 51330969173611,
      "time_usec": 51330969173
    },
    {
      "frame_id": 479,
      "sensor_timestamp": 51331002419949,
      "time_usec": 51331002419
    },
    {
      "frame_id": 480,
      "sensor_timestamp": 51331035666286,
      "time_usec": 51331035666
    },
    {
      "frame_id": 481,
      "sensor_timestamp": 51331068912868,
      "time_usec": 51331068912
    },
    {
      "frame_id": 482,
      "sensor_timestamp": 51331102159206,
      "time_usec": 51331102159
    },
    {
      "frame_id": 483,
      "sensor_timestamp": 51331135405544,
      "time_usec": 51331135405
    },
    {
      "frame_id": 484,
      "sensor_timestamp": 51331168651882,
      "time_usec": 51331168651
    },
    {
      "frame_id": 485,
      "sensor_timestamp": 51331201898464,
      "time_usec": 51331201898
    },
    {
      "frame_id": 486,
      "sensor_timestamp": 51331235144802,
      "time_usec": 51331235144
    },
    {
      "frame_id": 487,
      "sensor_timestamp": 51331268391140,
      "time_usec": 51331268391
    },
    {
      "frame_id": 488,
      "sensor_timestamp": 51331301637478,
      "time_usec": 51331301637
    },
    {
      "frame_id": 489,
      "sensor_timestamp": 51331334884060,
      "time_usec": 51331334884
    },
    {
      "frame_id": 490,
      "sensor_timestamp": 51331368130398,
      "time_usec": 51331368130
    },
    {
      "frame_id": 491,
      "sensor_timestamp": 51331401376736,
      "time_usec": 51331401376
    },
    {
      "frame_id": 492,
      "sensor_timestamp": 51331434623074,
      "time_usec": 51331434623
    },
    {
      "frame_id": 493,
      "sensor_timestamp": 51331467869656,
      "time_usec": 51331467869
    },
    {
      "frame_id": 494,
      "sensor_timestamp": 51331501115993,
      "time_usec": 51331501115
    },
    {
      "frame_id": 495,
      "sensor_timestamp": 51331534362331,
      "time_usec": 51331534362
    },
    {
      "frame_id": 496,
      "sensor_timestamp": 51331567608669,
      "time_usec": 51331567608
    },
    {
      "frame_id": 497,
      "sensor_timestamp": 51331600841250,
      "time_usec": 51331600841
    },
    {
      "frame_id": 498,
      "sensor_timestamp": 51331634101589,
      "time_usec": 51331634101
    },
    {
      "frame_id": 499,
      "sensor_timestamp": 51331667347927,
      "time_usec": 51331667347
    },
    {
      "frame_id": 500,
      "sensor_timestamp": 51331700594265,
      "time_usec": 51331700594
    },
    {
      "frame_id": 501,
      "sensor_timestamp": 51331733840847,
      "time_usec": 51331733840
    },
    {
      "frame_id": 502,
      "sensor_timestamp": 51331767087185,
      "time_usec": 51331767087
    },
    {
      "frame_id": 503,
      "sensor_timestamp": 51331800333523,
      "time_usec": 51331800333
    },
    {
      "frame_id": 504,
      "sensor_timestamp": 51331833579861,
      "time_usec": 51331833579
    },
    {
      "frame_id": 505,
      "sensor_timestamp": 51331866826199,
      "time_usec": 51331866826
    },
    {
      "frame_id": 506,
      "sensor_timestamp": 51331900072781,
      "time_usec": 51331900072
    },
    {
      "frame_id": 507,
      "sensor_timestamp": 51331933319118,
      "time_usec": 51331933319
    },
    {
      "frame_id": 508,
      "sensor_timestamp": 51331966565456,
      "time_usec": 51331966565
    },
    {
      "frame_id": 509,
      "sensor_timestamp": 51331999811794,
      "time_usec": 51331999811
    },
    {
      "frame_id": 510,
      "sensor_timestamp": 51332033058376,
      "time_usec": 51332033058
    },
    {
      "frame_id": 511,
      "sensor_timestamp": 51332066304714,
      "time_usec": 51332066304
    },
    {
      "frame_id": 512,
      "sensor_timestamp": 51332099551052,
      "time_usec": 51332099551
    },
    {
      "frame_id": 513,
      "sensor_timestamp": 51332132797390,
      "time_usec": 51332132797
    },
    {
      "frame_id": 514,
      "sensor_timestamp": 51332166043972,
      "time_usec": 51332166043
    },
    {
      "frame_id": 515,
      "sensor_timestamp": 51332199290310,
      "time_usec": 51332199290
    },
    {
      "frame_id": 516,
      "sensor_timestamp": 51332232536648,
      "time_usec": 51332232536
    },
    {
      "frame_id": 517,
      "sensor_timestamp": 51332265782986,
      "time_usec": 51332265782
    },
    {
      "frame_id": 518,
      "sensor_timestamp": 51332299029568,
      "time_usec": 51332299029
    },
    {
      "frame_id": 519,
      "sensor_timestamp": 51332332275906,
      "time_usec": 51332332275
    },
    {
      "frame_id": 520,
      "sensor_timestamp": 51332365522243,
      "time_usec": 51332365522
    },
    {
      "frame_id": 521,
      "sensor_timestamp": 51332398768581,
      "time_usec": 51332398768
    },
    {
      "frame_id": 522,
      "sensor_timestamp": 51332432015163,
      "time_usec": 51332432015
    },
    {
      "frame_id": 523,
      "sensor_timestamp": 51332465261501,
      "time_usec": 51332465261
    },
    {
      "frame_id": 524,
      "sensor_timestamp": 51332498507839,
      "time_usec": 51332498507
    },
    {
      "frame_id": 525,
      "sensor_timestamp": 51332531754177,
      "time_usec": 51332531754
    },
    {
      "frame_id": 526,
      "sensor_timestamp": 51332565000759,
      "time_usec": 51332565000
    },
    {
      "frame_id": 527,
      "sensor_timestamp": 51332598247097,
      "time_usec": 51332598247
    },
    {
      "frame_id": 528,
      "sensor_timestamp": 51332631493435,
      "time_usec": 51332631493
    },
    {
      "frame_id": 529,
      "sensor_timestamp": 51332664739773,
      "time_usec": 51332664739
    },
    {
      "frame_id": 530,
      "sensor_timestamp": 51332697986355,
      "time_usec": 51332697986
    },
    {
      "frame_id": 531,
      "sensor_timestamp": 51332731232693,
      "time_usec": 51332731232
    },
    {
      "frame_id": 532,
      "sensor_timestamp": 51332764479031,
      "time_usec": 51332764479
    },
    {
      "frame_id": 533,
      "sensor_timestamp": 51332797725368,
      "time_usec": 51332797725
    },
    {
      "frame_id": 534,
      "sensor_timestamp": 51332830971950,
      "time_usec": 51332830971
    },
    {
      "frame_id": 535,
      "sensor_timestamp": 51332864218288,
      "time_usec": 51332864218
    },
    {
      "frame_id": 536,
      "sensor_timestamp": 51332897464626,
      "time_usec": 51332897464
    },
    {
      "frame_id": 537,
      "sensor_timestamp": 51332930710964,
      "time_usec": 51332930710
    },
    {
      "frame_id": 538,
      "sensor_timestamp": 51332963957302,
      "time_usec": 51332963957
    },
    {
      "frame_id": 539,
      "sensor_timestamp": 51332997203884,
      "time_usec": 51332997203
    },
    {
      "frame_id": 540,
      "sensor_timestamp": 51333030450222,
      "time_usec": 51333030450
    },
    {
      "frame_id": 541,
      "sensor_timestamp": 51333063696560,
      "time_usec": 51333063696
    },
    {
      "frame_id": 542,
      "sensor_timestamp": 51333096942898,
      "time_usec": 51333096942
    },
    {
      "frame_id": 543,
      "sensor_timestamp": 51333130189480,
      "time_usec": 51333130189
    },
    {
      "frame_id": 544,
      "sensor_timestamp": 51333163435818,
      "time_usec": 51333163435
    },
    {
      "frame_id": 545,
      "sensor_timestamp": 51333196682156,
      "time_usec": 51333196682
    },
    {
      "frame_id": 546,
      "sensor_timestamp": 51333229928493,
      "time_usec": 51333229928
    },
    {
      "frame_id": 547,
      "sensor_timestamp": 51333263175075,
      "time_usec": 51333263175
    },
    {
      "frame_id": 548,
      "sensor_timestamp": 51333296421413,
      "time_usec": 51333296421
    },
    {
      "frame_id": 549,
      "sensor_timestamp": 51333329667751,
      "time_usec": 51333329667
    },
    {
      "frame_id": 550,
      "sensor_timestamp": 51333362914089,
      "time_usec": 51333362914
    }
  ]
}