{
  "frames": [
    {
      "frame_id": 0,
      "sensor_timestamp": 83337213959226,
      "time_usec": 83337213959
    },
    {
      "frame_id": 1,
      "sensor_timestamp": 83337280451902,
      "time_usec": 83337280451
    },
    {
      "frame_id": 2,
      "sensor_timestamp": 83337313698240,
      "time_usec": 83337313698
    },
    {
      "frame_id": 3,
      "sensor_timestamp": 83337346944822,
      "time_usec": 83337346944
    },
    {
      "frame_id": 4,
      "sensor_timestamp": 83337380191159,
      "time_usec": 83337380191
    },
    {
      "frame_id": 5,
      "sensor_timestamp": 83337413437497,
      "time_usec": 83337413437
    },
    {
      "frame_id": 6,
      "sensor_timestamp": 83337446683835,
      "time_usec": 83337446683
    },
    {
      "frame_id": 7,
      "sensor_timestamp": 83337479930173,
      "time_usec": 83337479930
    },
    {
      "frame_id": 8,
      "sensor_timestamp": 83337513176755,
      "time_usec": 83337513176
    },
    {
      "frame_id": 9,
      "sensor_timestamp": 83337546423093,
      "time_usec": 83337546423
    },
    {
      "frame_id": 10,
      "sensor_timestamp": 83337579669431,
      "time_usec": 83337579669
    },
    {
      "frame_id": 11,
      "sensor_timestamp": 83337612915769,
      "time_usec": 83337612915
    },
    {
      "frame_id": 12,
      "sensor_timestamp": 83337646162351,
      "time_usec": 83337646162
    },
    {
      "frame_id": 13,
      "sensor_timestamp": 83337679408689,
      "time_usec": 83337679408
    },
    {
      "frame_id": 14,
      "sensor_timestamp": 83337712655027,
      "time_usec": 83337712655
    },
    {
      "frame_id": 15,
      "sensor_timestamp": 83337745901365,
      "time_usec": 83337745901
    },
    {
      "frame_id": 16,
      "sensor_timestamp": 83337779147947,
      "time_usec": 83337779147
    },
    {
      "frame_id": 17,
      "sensor_timestamp": 83337812394284,
      "time_usec": 83337812394
    },
    {
      "frame_id": 18,
      "sensor_timestamp": 83337845640622,
      "time_usec": 83337845640
    },
    {
      "frame_id": 19,
      "sensor_timestamp": 83337878886960,
      "time_usec": 83337878886
    },
    {
      "frame_id": 20,
      "sensor_timestamp": 83337912133542,
      "time_usec": 83337912133
    },
    {
      "frame_id": 21,
      "sensor_timestamp": 83337945379880,
      "time_usec": 83337945379
    },
    {
      "frame_id": 22,
      "sensor_timestamp": 83337978626218,
      "time_usec": 83337978626
    },
    {
      "frame_id": 23,
      "sensor_timestamp": 83338011872556,
      "time_usec": 83338011872
    },
    {
      "frame_id": 24,
      "sensor_timestamp": 83338045119138,
      "time_usec": 83338045119
    },
    {
      "frame_id": 25,
      "sensor_timestamp": 83338078365476,
      "time_usec": 83338078365
    },
    {
      "frame_id": 26,
      "sensor_timestamp": 83338111611814,
      "time_usec": 83338111611
    },
    {
      "frame_id": 27,
      "sensor_timestamp": 83338144858152,
      "time_usec": 83338144858
    },
    {
      "frame_id": 28,
      "sensor_timestamp": 83338178104734,
      "time_usec": 83338178104
    },
    {
      "frame_id": 29,
      "sensor_timestamp": 83338211351072,
      "time_usec": 83338211351
    },
    {
      "frame_id": 30,
      "sensor_timestamp": 83338244597409,
      "time_usec": 83338244597
    },
    {
      "frame_id": 31,
      "sensor_timestamp": 83338277843747,
      "time_usec": 83338277843
    },
    {
      "frame_id": 32,
      "sensor_timestamp": 83338311090329,
      "time_usec": 83338311090
    },
    {
      "frame_id": 33,
      "sensor_timestamp": 83338344336667,
      "time_usec": 83338344336
    },
    {
      "frame_id": 34,
      "sensor_timestamp": 83338377583005,
      "time_usec": 83338377583
    },
    {
      "frame_id": 35,
      "sensor_timestamp": 83338410829343,
      "time_usec": 83338410829
    },
    {
      "frame_id": 36,
      "sensor_timestamp": 83338444075925,
      "time_usec": 83338444075
    },
    {
      "frame_id": 37,
      "sensor_timestamp": 83338477322263,
      "time_usec": 83338477322
    },
    {
      "frame_id": 38,
      "sensor_timestamp": 83338510568601,
      "time_usec": 83338510568
    },
    {
      "frame_id": 39,
      "sensor_timestamp": 83338543814939,
      "time_usec": 83338543814
    },
    {
      "frame_id": 40,
      "sensor_timestamp": 83338577061521,
      "time_usec": 83338577061
    },
    {
      "frame_id": 41,
      "sensor_timestamp": 83338610307859,
      "time_usec": 83338610307
    },
    {
      "frame_id": 42,
      "sensor_timestamp": 83338643554197,
      "time_usec": 83338643554
    },
    {
      "frame_id": 43,
      "sensor_timestamp": 83338676800534,
      "time_usec": 83338676800
    },
    {
      "frame_id": 44,
      "sensor_timestamp": 83338710046872,
      "time_usec": 83338710046
    },
    {
      "frame_id": 45,
      "sensor_timestamp": 83338743293454,
      "time_usec": 83338743293
    },
    {
      "frame_id": 46,
      "sensor_timestamp": 83338776539792,
      "time_usec": 83338776539
    },
    {
      "frame_id": 47,
      "sensor_timestamp": 83338809786130,
      "time_usec": 83338809786
    },
    {
      "frame_id": 48,
      "sensor_timestamp": 83338843032468,
      "time_usec": 83338843032
    },
    {
      "frame_id": 49,
      "sensor_timestamp": 83338876279050,
      "time_usec": 83338876279
    },
    {
      "frame_id": 50,
      "sensor_timestamp": 83338909525388,
      "time_usec": 83338909525
    },
    {
      "frame_id": 51,
      "sensor_timestamp": 83338942771726,
      "time_usec": 83338942771
    },
    {
      "frame_id": 52,
      "sensor_timestamp": 83338976018064,
      "time_usec": 83338976018
    },
    {
      "frame_id": 53,
      "sensor_timestamp": 83339009264646,
      "time_usec": 83339009264
    },
    {
      "frame_id": 54,
      "sensor_timestamp": 83339042510984,
      "time_usec": 83339042510
    },
    {
      "frame_id": 55,
      "sensor_timestamp": 83339075757322,
      "time_usec": 83339075757
    },
    {
      "frame_id": 56,
      "sensor_timestamp": 83339109003659,
      "time_usec": 83339109003
    },
    {
      "frame_id": 57,
      "sensor_timestamp": 83339142250242,
      "time_usec": 83339142250
    },
    {
      "frame_id": 58,
      "sensor_timestamp": 83339172715948,
      "time_usec": 83339172715
    },
    {
      "frame_id": 59,
      "sensor_timestamp": 83339205962286,
      "time_usec": 83339205962
    },
    {
      "frame_id": 60,
      "sensor_timestamp": 83339239208624,
      "time_usec": 83339239208
    },
    {
      "frame_id": 61,
      "sensor_timestamp": 83339272455206,
      "time_usec": 83339272455
    },
    {
      "frame_id": 62,
      "sensor_timestamp": 83339305701544,
      "time_usec": 83339305701
    },
    {
      "frame_id": 63,
      "sensor_timestamp": 83339338947882,
      "time_usec": 83339338947
    },
    {
      "frame_id": 64,
      "sensor_timestamp": 83339372194220,
      "time_usec": 83339372194
    },
    {
      "frame_id": 65,
      "sensor_timestamp": 83339405440802,
      "time_usec": 83339405440
    },
    {
      "frame_id": 66,
      "sensor_timestamp": 83339438687140,
      "time_usec": 83339438687
    },
    {
      "frame_id": 67,
      "sensor_timestamp": 83339471933478,
      "time_usec": 83339471933
    },
    {
      "frame_id": 68,
      "sensor_timestamp": 83339505179816,
      "time_usec": 83339505179
    },
    {
      "frame_id": 69,
      "sensor_timestamp": 83339538426398,
      "time_usec": 83339538426
    },
    {
      "frame_id": 70,
      "sensor_timestamp": 83339571672736,
      "time_usec": 83339571672
    },
    {
      "frame_id": 71,
      "sensor_timestamp": 83339604919073,
      "time_usec": 83339604919
    },
    {
      "frame_id": 72,
      "sensor_timestamp": 83339638165411,
      "time_usec": 83339638165
    },
    {
      "frame_id": 73,
      "sensor_timestamp": 83339671411993,
      "time_usec": 83339671411
    },
    {
      "frame_id": 74,
      "sensor_timestamp": 83339704658331,
      "time_usec": 83339704658
    },
    {
      "frame_id": 75,
      "sensor_timestamp": 83339737904669,
      "time_usec": 83339737904
    },
    {
      "frame_id": 76,
      "sensor_timestamp": 83339771151007,
      "time_usec": 83339771151
    },
    {
      "frame_id": 77,
      "sensor_timestamp": 83339804397589,
      "time_usec": 83339804397
    },
    {
      "frame_id": 78,
      "sensor_timestamp": 83339837643927,
      "time_usec": 83339837643
    },
    {
      "frame_id": 79,
      "sensor_timestamp": 83339870890265,
      "time_usec": 83339870890
    },
    {
      "frame_id": 80,
      "sensor_timestamp": 83339904136603,
      "time_usec": 83339904136
    },
    {
      "frame_id": 81,
      "sensor_timestamp": 83339937382941,
      "time_usec": 83339937382
    },
    {
      "frame_id": 82,
      "sensor_timestamp": 83339970629523,
      "time_usec": 83339970629
    },
    {
      "frame_id": 83,
      "sensor_timestamp": 83340003875861,
      "time_usec": 83340003875
    },
    {
      "frame_id": 84,
      "sensor_timestamp": 83340037122198,
      "time_usec": 83340037122
    },
    {
      "frame_id": 85,
      "sensor_timestamp": 83340070368536,
      "time_usec": 83340070368
    },
    {
      "frame_id": 86,
      "sensor_timestamp": 83340103615118,
      "time_usec": 83340103615
    },
    {
      "frame_id": 87,
      "sensor_timestamp": 83340136861456,
      "time_usec": 83340136861
    },
    {
      "frame_id": 88,
      "sensor_timestamp": 83340170107794,
      "time_usec": 83340170107
    },
    {
      "frame_id": 89,
      "sensor_timestamp": 83340203354132,
      "time_usec": 83340203354
    },
    {
      "frame_id": 90,
      "sensor_timestamp": 83340236600714,
      "time_usec": 83340236600
    },
    {
      "frame_id": 91,
      "sensor_timestamp": 83340269847052,
      "time_usec": 83340269847
    },
    {
      "frame_id": 92,
      "sensor_timestamp": 83340303093390,
      "time_usec": 83340303093
    },
    {
      "frame_id": 93,
      "sensor_timestamp": 83340336339728,
      "time_usec": 83340336339
    },
    {
      "frame_id": 94,
      "sensor_timestamp": 83340369586310,
      "time_usec": 83340369586
    },
    {
      "frame_id": 95,
      "sensor_timestamp": 83340402832648,
      "time_usec": 83340402832
    },
    {
      "frame_id": 96,
      "sensor_timestamp": 83340436078986,
      "time_usec": 83340436078
    },
    {
      "frame_id": 97,
      "sensor_timestamp": 83340469325323,
      "time_usec": 83340469325
    },
    {
      "frame_id": 98,
      "sensor_timestamp": 83340502571905,
      "time_usec": 83340502571
    },
    {
      "frame_id": 99,
      "sensor_timestamp": 83340535818243,
      "time_usec": 83340535818
    },
    {
      "frame_id": 100,
      "sensor_timestamp": 83340569064581,
      "time_usec": 83340569064
    },
    {
      "frame_id": 101,
      "sensor_timestamp": 83340602310919,
      "time_usec": 83340602310
    },
    {
      "frame_id": 102,
      "sensor_timestamp": 83340635557501,
      "time_usec": 83340635557
    },
    {
      "frame_id": 103,
      "sensor_timestamp": 83340668803839,
      "time_usec": 83340668803
    },
    {
      "frame_id": 104,
      "sensor_timestamp": 83340702050177,
      "time_usec": 83340702050
    },
    {
      "frame_id": 105,
      "sensor_timestamp": 83340735296515,
      "time_usec": 83340735296
    },
    {
      "frame_id": 106,
      "sensor_timestamp": 83340768543097,
      "time_usec": 83340768543
    },
    {
      "frame_id": 107,
      "sensor_timestamp": 83340801789435,
      "time_usec": 83340801789
    },
    {
      "frame_id": 108,
      "sensor_timestamp": 83340835035773,
      "time_usec": 83340835035
    },
    {
      "frame_id": 109,
      "sensor_timestamp": 83340868282111,
      "time_usec": 83340868282
    },
    {
      "frame_id": 110,
      "sensor_timestamp": 83340901528693,
      "time_usec": 83340901528
    },
    {
      "frame_id": 111,
      "sensor_timestamp": 83340934775030,
      "time_usec": 83340934775
    },
    {
      "frame_id": 112,
      "sensor_timestamp": 83340968021368,
      "time_usec": 83340968021
    },
    {
      "frame_id": 113,
      "sensor_timestamp": 83341001267706,
      "time_usec": 83341001267
    },
    {
      "frame_id": 114,
      "sensor_timestamp": 83341034514288,
      "time_usec": 83341034514
    },
    {
      "frame_id": 115,
      "sensor_timestamp": 83341067760626,
      "time_usec": 83341067760
    },
    {
      "frame_id": 116,
      "sensor_timestamp": 83341101006964,
      "time_usec": 83341101006
    },
    {
      "frame_id": 117,
      "sensor_timestamp": 83341134253302,
      "time_usec": 83341134253
    },
    {
      "frame_id": 118,
      "sensor_timestamp": 83341167499640,
      "time_usec": 83341167499
    },
    {
      "frame_id": 119,
      "sensor_timestamp": 83341200746222,
      "time_usec": 83341200746
    },
    {
      "frame_id": 120,
      "sensor_timestamp": 83341233992560,
      "time_usec": 83341233992
    },
    {
      "frame_id": 121,
      "sensor_timestamp": 83341267238898,
      "time_usec": 83341267238
    },
    {
      "frame_id": 122,
      "sensor_timestamp": 83341300485236,
      "time_usec": 83341300485
    },
    {
      "frame_id": 123,
      "sensor_timestamp": 83341333731818,
      "time_usec": 83341333731
    },
    {
      "frame_id": 124,
      "sensor_timestamp": 83341366978155,
      "time_usec": 83341366978
    },
    {
      "frame_id": 125,
      "sensor_timestamp": 83341400224493,
      "time_usec": 83341400224
    },
    {
      "frame_id": 126,
      "sensor_timestamp": 83341433470831,
      "time_usec": 83341433470
    },
    {
      "frame_id": 127,
      "sensor_timestamp": 83341466717413,
      "time_usec": 83341466717
    },
    {
      "frame_id": 128,
      "sensor_timestamp": 83341499963751,
      "time_usec": 83341499963
    },
    {
      "frame_id": 129,
      "sensor_timestamp": 83341533210089,
      "time_usec": 83341533210
    },
    {
      "frame_id": 130,
      "sensor_timestamp": 83341566456427,
      "time_usec": 83341566456
    },
    {
      "frame_id": 131,
      "sensor_timestamp": 83341599703009,
      "time_usec": 83341599703
    },
    {
      "frame_id": 132,
      "sensor_timestamp": 83341632949347,
      "time_usec": 83341632949
    },
    {
      "frame_id": 133,
      "sensor_timestamp": 83341666195685,
      "time_usec": 83341666195
    },
    {
      "frame_id": 134,
      "sensor_timestamp": 83341699442023,
      "time_usec": 83341699442
    },
    {
      "frame_id": 135,
      "sensor_timestamp": 83341732688605,
      "time_usec": 83341732688
    },
    {
      "frame_id": 136,
      "sensor_timestamp": 83341765934943,
      "time_usec": 83341765934
    },
    {
      "frame_id": 137,
      "sensor_timestamp": 83341799181280,
      "time_usec": 83341799181
    },
    {
      "frame_id": 138,
      "sensor_timestamp": 83341832427618,
      "time_usec": 83341832427
    },
    {
      "frame_id": 139,
      "sensor_timestamp": 83341865674200,
      "time_usec": 83341865674
    },
    {
      "frame_id": 140,
      "sensor_timestamp": 83341898920538,
      "time_usec": 83341898920
    },
    {
      "frame_id": 141,
      "sensor_timestamp": 83341932166876,
      "time_usec": 83341932166
    },
    {
      "frame_id": 142,
      "sensor_timestamp": 83341965413214,
      "time_usec": 83341965413
    },
    {
      "frame_id": 143,
      "sensor_timestamp": 83341998659796,
      "time_usec": 83341998659
    },
    {
      "frame_id": 144,
      "sensor_timestamp": 83342031906134,
      "time_usec": 83342031906
    },
    {
      "frame_id": 145,
      "sensor_timestamp": 83342065152472,
      "time_usec": 83342065152
    },
    {
      "frame_id": 146,
      "sensor_timestamp": 83342098398810,
      "time_usec": 83342098398
    },
    {
      "frame_id": 147,
      "sensor_timestamp": 83342131645392,
      "time_usec": 83342131645
    },
    {
      "frame_id": 148,
      "sensor_timestamp": 83342164891730,
      "time_usec": 83342164891
    },
    {
      "frame_id": 149,
      "sensor_timestamp": 83342198138068,
      "time_usec": 83342198138
    },
    {
      "frame_id": 150,
      "sensor_timestamp": 83342231384405,
      "time_usec": 83342231384
    },
    {
      "frame_id": 151,
      "sensor_timestamp": 83342264630743,
      "time_usec": 83342264630
    },
    {
      "frame_id": 152,
      "sensor_timestamp": 83342297877325,
      "time_usec": 83342297877
    },
    {
      "frame_id": 153,
      "sensor_timestamp": 83342331123663,
      "time_usec": 83342331123
    },
    {
      "frame_id": 154,
      "sensor_timestamp": 83342364370001,
      "time_usec": 83342364370
    },
    {
      "frame_id": 155,
      "sensor_timestamp": 83342397616339,
      "time_usec": 83342397616
    },
    {
      "frame_id": 156,
      "sensor_timestamp": 83342430862921,
      "time_usec": 83342430862
    },
    {
      "frame_id": 157,
      "sensor_timestamp": 83342464109259,
      "time_usec": 83342464109
    },
    {
      "frame_id": 158,
      "sensor_timestamp": 83342497355597,
      "time_usec": 83342497355
    },
    {
      "frame_id": 159,
      "sensor_timestamp": 83342530601935,
      "time_usec": 83342530601
    },
    {
      "frame_id": 160,
      "sensor_timestamp": 83342563848517,
      "time_usec": 83342563848
    },
    {
      "frame_id": 161,
      "sensor_timestamp": 83342597094855,
      "time_usec": 83342597094
    },
    {
      "frame_id": 162,
      "sensor_timestamp": 83342630341193,
      "time_usec": 83342630341
    },
    {
      "frame_id": 163,
      "sensor_timestamp": 83342663587530,
      "time_usec": 83342663587
    },
    {
      "frame_id": 164,
      "sensor_timestamp": 83342696834112,
      "time_usec": 83342696834
    },
    {
      "frame_id": 165,
      "sensor_timestamp": 83342730080450,
      "time_usec": 83342730080
    },
    {
      "frame_id": 166,
      "sensor_timestamp": 83342763326788,
      "time_usec": 83342763326
    },
    {
      "frame_id": 167,
      "sensor_timestamp": 83342796573126,
      "time_usec": 83342796573
    },
    {
      "frame_id": 168,
      "sensor_timestamp": 83342829819708,
      "time_usec": 83342829819
    },
    {
      "frame_id": 169,
      "sensor_timestamp": 83342863066046,
      "time_usec": 83342863066
    },
    {
      "frame_id": 170,
      "sensor_timestamp": 83342896312384,
      "time_usec": 83342896312
    },
    {
      "frame_id": 171,
      "sensor_timestamp": 83342929558722,
      "time_usec": 83342929558
    },
    {
      "frame_id": 172,
      "sensor_timestamp": 83342962805304,
      "time_usec": 83342962805
    },
    {
      "frame_id": 173,
      "sensor_timestamp": 83342996051642,
      "time_usec": 83342996051
    },
    {
      "frame_id": 174,
      "sensor_timestamp": 83343029297980,
      "time_usec": 83343029297
    },
    {
      "frame_id": 175,
      "sensor_timestamp": 83343062544318,
      "time_usec": 83343062544
    },
    {
      "frame_id": 176,
      "sensor_timestamp": 83343095790900,
      "time_usec": 83343095790
    },
    {
      "frame_id": 177,
      "sensor_timestamp": 83343129037237,
      "time_usec": 83343129037
    },
    {
      "frame_id": 178,
      "sensor_timestamp": 83343162283575,
      "time_usec": 83343162283
    },
    {
      "frame_id": 179,
      "sensor_timestamp": 83343195529913,
      "time_usec": 83343195529
    },
    {
      "frame_id": 180,
      "sensor_timestamp": 83343228776495,
      "time_usec": 83343228776
    },
    {
      "frame_id": 181,
      "sensor_timestamp": 83343262022833,
      "time_usec": 83343262022
    },
    {
      "frame_id": 182,
      "sensor_timestamp": 83343295269171,
      "time_usec": 83343295269
    },
    {
      "frame_id": 183,
      "sensor_timestamp": 83343328515509,
      "time_usec": 83343328515
    },
    {
      "frame_id": 184,
      "sensor_timestamp": 83343361762091,
      "time_usec": 83343361762
    },
    {
      "frame_id": 185,
      "sensor_timestamp": 83343395008429,
      "time_usec": 83343395008
    },
    {
      "frame_id": 186,
      "sensor_timestamp": 83343428254767,
      "time_usec": 83343428254
    },
    {
      "frame_id": 187,
      "sensor_timestamp": 83343461501105,
      "time_usec": 83343461501
    },
    {
      "frame_id": 188,
      "sensor_timestamp": 83343494747443,
      "time_usec": 83343494747
    },
    {
      "frame_id": 189,
      "sensor_timestamp": 83343527994025,
      "time_usec": 83343527994
    },
    {
      "frame_id": 190,
      "sensor_timestamp": 83343561240362,
      "time_usec": 83343561240
    },
    {
      "frame_id": 191,
      "sensor_timestamp": 83343594486700,
      "time_usec": 83343594486
    },
    {
      "frame_id": 192,
      "sensor_timestamp": 83343627733038,
      "time_usec": 83343627733
    },
    {
      "frame_id": 193,
      "sensor_timestamp": 83343660979620,
      "time_usec": 83343660979
    },
    {
      "frame_id": 194,
      "sensor_timestamp": 83343694225958,
      "time_usec": 83343694225
    },
    {
      "frame_id": 195,
      "sensor_timestamp": 83343727472296,
      "time_usec": 83343727472
    },
    {
      "frame_id": 196,
      "sensor_timestamp": 83343760718634,
      "time_usec": 83343760718
    },
    {
      "frame_id": 197,
      "sensor_timestamp": 83343793965216,
      "time_usec": 83343793965
    },
    {
      "frame_id": 198,
      "sensor_timestamp": 83343827211554,
      "time_usec": 83343827211
    },
    {
      "frame_id": 199,
      "sensor_timestamp": 83343860457892,
      "time_usec": 83343860457
    },
    {
      "frame_id": 200,
      "sensor_timestamp": 83343893704230,
      "time_usec": 83343893704
    },
    {
      "frame_id": 201,
      "sensor_timestamp": 83343926950812,
      "time_usec": 83343926950
    },
    {
      "frame_id": 202,
      "sensor_timestamp": 83343960197150,
      "time_usec": 83343960197
    },
    {
      "frame_id": 203,
      "sensor_timestamp": 83343993443487,
      "time_usec": 83343993443
    },
    {
      "frame_id": 204,
      "sensor_timestamp": 83344026689825,
      "time_usec": 83344026689
    },
    {
      "frame_id": 205,
      "sensor_timestamp": 83344059936407,
      "time_usec": 83344059936
    },
    {
      "frame_id": 206,
      "sensor_timestamp": 83344093182745,
      "time_usec": 83344093182
    },
    {
      "frame_id": 207,
      "sensor_timestamp": 83344126429083,
      "time_usec": 83344126429
    },
    {
      "frame_id": 208,
      "sensor_timestamp": 83344159675421,
      "time_usec": 83344159675
    },
    {
      "frame_id": 209,
      "sensor_timestamp": 83344192922003,
      "time_usec": 83344192922
    },
    {
      "frame_id": 210,
      "sensor_timestamp": 83344226168341,
      "time_usec": 83344226168
    },
    {
      "frame_id": 211,
      "sensor_timestamp": 83344259414679,
      "time_usec": 83344259414
    },
    {
      "frame_id": 212,
      "sensor_timestamp": 83344292661017,
      "time_usec": 83344292661
    },
    {
      "frame_id": 213,
      "sensor_timestamp": 83344325907599,
      "time_usec": 83344325907
    },
    {
      "frame_id": 214,
      "sensor_timestamp": 83344359153937,
      "time_usec": 83344359153
    },
    {
      "frame_id": 215,
      "sensor_timestamp": 83344392400275,
      "time_usec": 83344392400
    },
    {
      "frame_id": 216,
      "sensor_timestamp": 83344425646612,
      "time_usec": 83344425646
    },
    {
      "frame_id": 217,
      "sensor_timestamp": 83344458893194,
      "time_usec": 83344458893
    },
    {
      "frame_id": 218,
      "sensor_timestamp": 83344492139532,
      "time_usec": 83344492139
    },
    {
      "frame_id": 219,
      "sensor_timestamp": 83344525385870,
      "time_usec": 83344525385
    },
    {
      "frame_id": 220,
      "sensor_timestamp": 83344558632208,
      "time_usec": 83344558632
    },
    {
      "frame_id": 221,
      "sensor_timestamp": 83344591878790,
      "time_usec": 83344591878
    },
    {
      "frame_id": 222,
      "sensor_timestamp": 83344625125128,
      "time_usec": 83344625125
    },
    {
      "frame_id": 223,
      "sensor_timestamp": 83344658371466,
      "time_usec": 83344658371
    },
    {
      "frame_id": 224,
      "sensor_timestamp": 83344691617804,
      "time_usec": 83344691617
    },
    {
      "frame_id": 225,
      "sensor_timestamp": 83344724864142,
      "time_usec": 83344724864
    },
    {
      "frame_id": 226,
      "sensor_timestamp": 83344758110724,
      "time_usec": 83344758110
    },
    {
      "frame_id": 227,
      "sensor_timestamp": 83344791357062,
      "time_usec": 83344791357
    },
    {
      "frame_id": 228,
      "sensor_timestamp": 83344824603400,
      "time_usec": 83344824603
    },
    {
      "frame_id": 229,
      "sensor_timestamp": 83344857849737,
      "time_usec": 83344857849
    },
    {
      "frame_id": 230,
      "sensor_timestamp": 83344891096319,
      "time_usec": 83344891096
    },
    {
      "frame_id": 231,
      "sensor_timestamp": 83344924342657,
      "time_usec": 83344924342
    },
    {
      "frame_id": 232,
      "sensor_timestamp": 83344957588995,
      "time_usec": 83344957588
    },
    {
      "frame_id": 233,
      "sensor_timestamp": 83344990835333,
      "time_usec": 83344990835
    },
    {
      "frame_id": 234,
      "sensor_timestamp": 83345024081915,
      "time_usec": 83345024081
    },
    {
      "frame_id": 235,
      "sensor_timestamp": 83345057328253,
      "time_usec": 83345057328
    },
    {
      "frame_id": 236,
      "sensor_timestamp": 83345090574591,
      "time_usec": 83345090574
    },
    {
      "frame_id": 237,
      "sensor_timestamp": 83345123820929,
      "time_usec": 83345123820
    },
    {
      "frame_id": 238,
      "sensor_timestamp": 83345157067511,
      "time_usec": 83345157067
    },
    {
      "frame_id": 239,
      "sensor_timestamp": 83345190313849,
      "time_usec": 83345190313
    },
    {
      "frame_id": 240,
      "sensor_timestamp": 83345223560187,
      "time_usec": 83345223560
    },
    {
      "frame_id": 241,
      "sensor_timestamp": 83345256806525,
      "time_usec": 83345256806
    },
    {
      "frame_id": 242,
      "sensor_timestamp": 83345290053107,
      "time_usec": 83345290053
    },
    {
      "frame_id": 243,
      "sensor_timestamp": 83345323299444,
      "time_usec": 83345323299
    },
    {
      "frame_id": 244,
      "sensor_timestamp": 83345356545782,
      "time_usec": 83345356545
    },
    {
      "frame_id": 245,
      "sensor_timestamp": 83345389792120,
      "time_usec": 83345389792
    },
    {
      "frame_id": 246,
      "sensor_timestamp": 83345423038702,
      "time_usec": 83345423038
    },
    {
      "frame_id": 247,
      "sensor_timestamp": 83345456285040,
      "time_usec": 83345456285
    },
    {
      "frame_id": 248,
      "sensor_timestamp": 83345489531378,
      "time_usec": 83345489531
    },
    {
      "frame_id": 249,
      "sensor_timestamp": 83345522777716,
      "time_usec": 83345522777
    },
    {
      "frame_id": 250,
      "sensor_timestamp": 83345556024298,
      "time_usec": 83345556024
    },
    {
      "frame_id": 251,
      "sensor_timestamp": 83345589270636,
      "time_usec": 83345589270
    },
    {
      "frame_id": 252,
      "sensor_timestamp": 83345622516974,
      "time_usec": 83345622516
    },
    {
      "frame_id": 253,
      "sensor_timestamp": 83345655763312,
      "time_usec": 83345655763
    },
    {
      "frame_id": 254,
      "sensor_timestamp": 83345689009894,
      "time_usec": 83345689009
    },
    {
      "frame_id": 255,
      "sensor_timestamp": 83345722256232,
      "time_usec": 83345722256
    },
    {
      "frame_id": 256,
      "sensor_timestamp": 83345755502569,
      "time_usec": 83345755502
    },
    {
      "frame_id": 257,
      "sensor_timestamp": 83345788748907,
      "time_usec": 83345788748
    },
    {
      "frame_id": 258,
      "sensor_timestamp": 83345821995489,
      "time_usec": 83345821995
    },
    {
      "frame_id": 259,
      "sensor_timestamp": 83345855241827,
      "time_usec": 83345855241
    },
    {
      "frame_id": 260,
      "sensor_timestamp": 83345888488165,
      "time_usec": 83345888488
    },
    {
      "frame_id": 261,
      "sensor_timestamp": 83345921734503,
      "time_usec": 83345921734
    },
    {
      "frame_id": 262,
      "sensor_timestamp": 83345954980841,
      "time_usec": 83345954980
    },
    {
      "frame_id": 263,
      "sensor_timestamp": 83345988227423,
      "time_usec": 83345988227
    },
    {
      "frame_id": 264,
      "sensor_timestamp": 83346021473761,
      "time_usec": 83346021473
    },
    {
      "frame_id": 265,
      "sensor_timestamp": 83346054720099,
      "time_usec": 83346054720
    },
    {
      "frame_id": 266,
      "sensor_timestamp": 83346087966437,
      "time_usec": 83346087966
    },
    {
      "frame_id": 267,
      "sensor_timestamp": 83346121213019,
      "time_usec": 83346121213
    },
    {
      "frame_id": 268,
      "sensor_timestamp": 83346154459357,
      "time_usec": 83346154459
    },
    {
      "frame_id": 269,
      "sensor_timestamp": 83346187705694,
      "time_usec": 83346187705
    },
    {
      "frame_id": 270,
      "sensor_timestamp": 83346220952032,
      "time_usec": 83346220952
    },
    {
      "frame_id": 271,
      "sensor_timestamp": 83346254198614,
      "time_usec": 83346254198
    },
    {
      "frame_id": 272,
      "sensor_timestamp": 83346287444952,
      "time_usec": 83346287444
    },
    {
      "frame_id": 273,
      "sensor_timestamp": 83346320691290,
      "time_usec": 83346320691
    },
    {
      "frame_id": 274,
      "sensor_timestamp": 83346353937628,
      "time_usec": 83346353937
    },
    {
      "frame_id": 275,
      "sensor_timestamp": 83346387184210,
      "time_usec": 83346387184
    },
    {
      "frame_id": 276,
      "sensor_timestamp": 83346420430548,
      "time_usec": 83346420430
    },
    {
      "frame_id": 277,
      "sensor_timestamp": 83346453676886,
      "time_usec": 83346453676
    },
    {
      "frame_id": 278,
      "sensor_timestamp": 83346486923224,
      "time_usec": 83346486923
    },
    {
      "frame_id": 279,
      "sensor_timestamp": 83346520169806,
      "time_usec": 83346520169
    },
    {
      "frame_id": 280,
      "sensor_timestamp": 83346553416144,
      "time_usec": 83346553416
    },
    {
      "frame_id": 281,
      "sensor_timestamp": 83346586662482,
      "time_usec": 83346586662
    },
    {
      "frame_id": 282,
      "sensor_timestamp": 83346619908819,
      "time_usec": 83346619908
    },
    {
      "frame_id": 283,
      "sensor_timestamp": 83346653155402,
      "time_usec": 83346653155
    },
    {
      "frame_id": 284,
      "sensor_timestamp": 83346686401739,
      "time_usec": 83346686401
    },
    {
      "frame_id": 285,
      "sensor_timestamp": 83346719648077,
      "time_usec": 83346719648
    },
    {
      "frame_id": 286,
      "sensor_timestamp": 83346752894415,
      "time_usec": 83346752894
    },
    {
      "frame_id": 287,
      "sensor_timestamp": 83346786140997,
      "time_usec": 83346786140
    },
    {
      "frame_id": 288,
      "sensor_timestamp": 83346819387335,
      "time_usec": 83346819387
    },
    {
      "frame_id": 289,
      "sensor_timestamp": 83346852633673,
      "time_usec": 83346852633
    },
    {
      "frame_id": 290,
      "sensor_timestamp": 83346885880011,
      "time_usec": 83346885880
    },
    {
      "frame_id": 291,
      "sensor_timestamp": 83346919126593,
      "time_usec": 83346919126
    },
    {
      "frame_id": 292,
      "sensor_timestamp": 83346952372931,
      "time_usec": 83346952372
    },
    {
      "frame_id": 293,
      "sensor_timestamp": 83346985619269,
      "time_usec": 83346985619
    },
    {
      "frame_id": 294,
      "sensor_timestamp": 83347018865607,
      "time_usec": 83347018865
    },
    {
      "frame_id": 295,
      "sensor_timestamp": 83347052112189,
      "time_usec": 83347052112
    },
    {
      "frame_id": 296,
      "sensor_timestamp": 83347085358527,
      "time_usec": 83347085358
    },
    {
      "frame_id": 297,
      "sensor_timestamp": 83347118604864,
      "time_usec": 83347118604
    },
    {
      "frame_id": 298,
      "sensor_timestamp": 83347151851202,
      "time_usec": 83347151851
    },
    {
      "frame_id": 299,
      "sensor_timestamp": 83347185097540,
      "time_usec": 83347185097
    },
    {
      "frame_id": 300,
      "sensor_timestamp": 83347218344122,
      "time_usec": 83347218344
    },
    {
      "frame_id": 301,
      "sensor_timestamp": 83347251590460,
      "time_usec": 83347251590
    },
    {
      "frame_id": 302,
      "sensor_timestamp": 83347284836798,
      "time_usec": 83347284836
    },
    {
      "frame_id": 303,
      "sensor_timestamp": 83347318083136,
      "time_usec": 83347318083
    },
    {
      "frame_id": 304,
      "sensor_timestamp": 83347351329718,
      "time_usec": 83347351329
    },
    {
      "frame_id": 305,
      "sensor_timestamp": 83347384576056,
      "time_usec": 83347384576
    },
    {
      "frame_id": 306,
      "sensor_timestamp": 83347417822394,
      "time_usec": 83347417822
    },
    {
      "frame_id": 307,
      "sensor_timestamp": 83347451068732,
      "time_usec": 83347451068
    },
    {
      "frame_id": 308,
      "sensor_timestamp": 83347484315314,
      "time_usec": 83347484315
    },
    {
      "frame_id": 309,
      "sensor_timestamp": 83347517561652,
      "time_usec": 83347517561
    },
    {
      "frame_id": 310,
      "sensor_timestamp": 83347550756626,
      "time_usec": 83347550756
    },
    {
      "frame_id": 311,
      "sensor_timestamp": 83347584054327,
      "time_usec": 83347584054
    },
    {
      "frame_id": 312,
      "sensor_timestamp": 83347617300909,
      "time_usec": 83347617300
    },
    {
      "frame_id": 313,
      "sensor_timestamp": 83347650547247,
      "time_usec": 83347650547
    },
    {
      "frame_id": 314,
      "sensor_timestamp": 83347683793585,
      "time_usec": 83347683793
    },
    {
      "frame_id": 315,
      "sensor_timestamp": 83347717039923,
      "time_usec": 83347717039
    },
    {
      "frame_id": 316,
      "sensor_timestamp": 83347750286505,
      "time_usec": 83347750286
    },
    {
      "frame_id": 317,
      "sensor_timestamp": 83347783532843,
      "time_usec": 83347783532
    },
    {
      "frame_id": 318,
      "sensor_timestamp": 83347816779181,
      "time_usec": 83347816779
    },
    {
      "frame_id": 319,
      "sensor_timestamp": 83347850025519,
      "time_usec": 83347850025
    },
    {
      "frame_id": 320,
      "sensor_timestamp": 83347883272101,
      "time_usec": 83347883272
    },
    {
      "frame_id": 321,
      "sensor_timestamp": 83347916518439,
      "time_usec": 83347916518
    },
    {
      "frame_id": 322,
      "sensor_timestamp": 83347949764777,
      "time_usec": 83347949764
    },
    {
      "frame_id": 323,
      "sensor_timestamp": 83347983011114,
      "time_usec": 83347983011
    },
    {
      "frame_id": 324,
      "sensor_timestamp": 83348016257696,
      "time_usec": 83348016257
    },
    {
      "frame_id": 325,
      "sensor_timestamp": 83348049504034,
      "time_usec": 83348049504
    },
    {
      "frame_id": 326,
      "sensor_timestamp": 83348082750372,
      "time_usec": 83348082750
    },
    {
      "frame_id": 327,
      "sensor_timestamp": 83348115996710,
      "time_usec": 83348115996
    },
    {
      "frame_id": 328,
      "sensor_timestamp": 83348149243292,
      "time_usec": 83348149243
    },
    {
      "frame_id": 329,
      "sensor_timestamp": 83348182489630,
      "time_usec": 83348182489
    },
    {
      "frame_id": 330,
      "sensor_timestamp": 83348215735968,
      "time_usec": 83348215735
    },
    {
      "frame_id": 331,
      "sensor_timestamp": 83348248982306,
      "time_usec": 83348248982
    },
    {
      "frame_id": 332,
      "sensor_timestamp": 83348282228888,
      "time_usec": 83348282228
    },
    {
      "frame_id": 333,
      "sensor_timestamp": 83348315475226,
      "time_usec": 83348315475
    },
    {
      "frame_id": 334,
      "sensor_timestamp": 83348348721564,
      "time_usec": 83348348721
    },
    {
      "frame_id": 335,
      "sensor_timestamp": 83348381967902,
      "time_usec": 83348381967
    },
    {
      "frame_id": 336,
      "sensor_timestamp": 83348415214239,
      "time_usec": 83348415214
    },
    {
      "frame_id": 337,
      "sensor_timestamp": 83348448460821,
      "time_usec": 83348448460
    },
    {
      "frame_id": 338,
      "sensor_timestamp": 83348481707159,
      "time_usec": 83348481707
    },
    {
      "frame_id": 339,
      "sensor_timestamp": 83348514953497,
      "time_usec": 83348514953
    },
    {
      "frame_id": 340,
      "sensor_timestamp": 83348548199835,
      "time_usec": 83348548199
    },
    {
      "frame_id": 341,
      "sensor_timestamp": 83348581446417,
      "time_usec": 83348581446
    },
    {
      "frame_id": 342,
      "sensor_timestamp": 83348614692755,
      "time_usec": 83348614692
    },
    {
      "frame_id": 343,
      "sensor_timestamp": 83348647939093,
      "time_usec": 83348647939
    },
    {
      "frame_id": 344,
      "sensor_timestamp": 83348681185431,
      "time_usec": 83348681185
    },
    {
      "frame_id": 345,
      "sensor_timestamp": 83348714432013,
      "time_usec": 83348714432
    },
    {
      "frame_id": 346,
      "sensor_timestamp": 83348747678351,
      "time_usec": 83348747678
    },
    {
      "frame_id": 347,
      "sensor_timestamp": 83348780924689,
      "time_usec": 83348780924
    },
    {
      "frame_id": 348,
      "sensor_timestamp": 83348814171027,
      "time_usec": 83348814171
    },
    {
      "frame_id": 349,
      "sensor_timestamp": 83348847417609,
      "time_usec": 83348847417
    },
    {
      "frame_id": 350,
      "sensor_timestamp": 83348880663946,
      "time_usec": 83348880663
    },
    {
      "frame_id": 351,
      "sensor_timestamp": 83348913910284,
      "time_usec": 83348913910
    },
    {
      "frame_id": 352,
      "sensor_timestamp": 83348947156622,
      "time_usec": 83348947156
    },
    {
      "frame_id": 353,
      "sensor_timestamp": 83348980403204,
      "time_usec": 83348980403
    },
    {
      "frame_id": 354,
      "sensor_timestamp": 83349013649542,
      "time_usec": 83349013649
    },
    {
      "frame_id": 355,
      "sensor_timestamp": 83349046895880,
      "time_usec": 83349046895
    },
    {
      "frame_id": 356,
      "sensor_timestamp": 83349080142218,
      "time_usec": 83349080142
    },
    {
      "frame_id": 357,
      "sensor_timestamp": 83349113388800,
      "time_usec": 83349113388
    },
    {
      "frame_id": 358,
      "sensor_timestamp": 83349146635138,
      "time_usec": 83349146635
    },
    {
      "frame_id": 359,
      "sensor_timestamp": 83349179881476,
      "time_usec": 83349179881
    },
    {
      "frame_id": 360,
      "sensor_timestamp": 83349213127814,
      "time_usec": 83349213127
    },
    {
      "frame_id": 361,
      "sensor_timestamp": 83349246374396,
      "time_usec": 83349246374
    },
    {
      "frame_id": 362,
      "sensor_timestamp": 83349279620734,
      "time_usec": 83349279620
    },
    {
      "frame_id": 363,
      "sensor_timestamp": 83349312867071,
      "time_usec": 83349312867
    },
    {
      "frame_id": 364,
      "sensor_timestamp": 83349346113409,
      "time_usec": 83349346113
    },
    {
      "frame_id": 365,
      "sensor_timestamp": 83349379359991,
      "time_usec": 83349379359
    },
    {
      "frame_id": 366,
      "sensor_timestamp": 83349412606329,
      "time_usec": 83349412606
    },
    {
      "frame_id": 367,
      "sensor_timestamp": 83349445852667,
      "time_usec": 83349445852
    },
    {
      "frame_id": 368,
      "sensor_timestamp": 83349479099005,
      "time_usec": 83349479099
    },
    {
      "frame_id": 369,
      "sensor_timestamp": 83349512345343,
      "time_usec": 83349512345
    },
    {
      "frame_id": 370,
      "sensor_timestamp": 83349545591925,
      "time_usec": 83349545591
    },
    {
      "frame_id": 371,
      "sensor_timestamp": 83349578838263,
      "time_usec": 83349578838
    },
    {
      "frame_id": 372,
      "sensor_timestamp": 83349612084601,
      "time_usec": 83349612084
    },
    {
      "frame_id": 373,
      "sensor_timestamp": 83349645330939,
      "time_usec": 83349645330
    },
    {
      "frame_id": 374,
      "sensor_timestamp": 83349678577521,
      "time_usec": 83349678577
    },
    {
      "frame_id": 375,
      "sensor_timestamp": 83349711823859,
      "time_usec": 83349711823
    },
    {
      "frame_id": 376,
      "sensor_timestamp": 83349745070196,
      "time_usec": 83349745070
    },
    {
      "frame_id": 377,
      "sensor_timestamp": 83349778316534,
      "time_usec": 83349778316
    },
    {
      "frame_id": 378,
      "sensor_timestamp": 83349811563116,
      "time_usec": 83349811563
    },
    {
      "frame_id": 379,
      "sensor_timestamp": 83349844809454,
      "time_usec": 83349844809
    },
    {
      "frame_id": 380,
      "sensor_timestamp": 83349878055792,
      "time_usec": 83349878055
    },
    {
      "frame_id": 381,
      "sensor_timestamp": 83349911302130,
      "time_usec": 83349911302
    },
    {
      "frame_id": 382,
      "sensor_timestamp": 83349944548712,
      "time_usec": 83349944548
    },
    {
      "frame_id": 383,
      "sensor_timestamp": 83349977795050,
      "time_usec": 83349977795
    },
    {
      "frame_id": 384,
      "sensor_timestamp": 83350011041388,
      "time_usec": 83350011041
    },
    {
      "frame_id": 385,
      "sensor_timestamp": 83350044287726,
      "time_usec": 83350044287
    },
    {
      "frame_id": 386,
      "sensor_timestamp": 83350077534308,
      "time_usec": 83350077534
    },
    {
      "frame_id": 387,
      "sensor_timestamp": 83350110780646,
      "time_usec": 83350110780
    },
    {
      "frame_id": 388,
      "sensor_timestamp": 83350144026984,
      "time_usec": 83350144026
    },
    {
      "frame_id": 389,
      "sensor_timestamp": 83350177273321,
      "time_usec": 83350177273
    },
    {
      "frame_id": 390,
      "sensor_timestamp": 83350210519903,
      "time_usec": 83350210519
    },
    {
      "frame_id": 391,
      "sensor_timestamp": 83350243766241,
      "time_usec": 83350243766
    },
    {
      "frame_id": 392,
      "sensor_timestamp": 83350277012579,
      "time_usec": 83350277012
    },
    {
      "frame_id": 393,
      "sensor_timestamp": 83350310258917,
      "time_usec": 83350310258
    },
    {
      "frame_id": 394,
      "sensor_timestamp": 83350343505499,
      "time_usec": 83350343505
    },
    {
      "frame_id": 395,
      "sensor_timestamp": 83350376751837,
      "time_usec": 83350376751
    },
    {
      "frame_id": 396,
      "sensor_timestamp": 83350409998175,
      "time_usec": 83350409998
    },
    {
      "frame_id": 397,
      "sensor_timestamp": 83350443244513,
      "time_usec": 83350443244
    },
    {
      "frame_id": 398,
      "sensor_timestamp": 83350476491095,
      "time_usec": 83350476491
    },
    {
      "frame_id": 399,
      "sensor_timestamp": 83350509737433,
      "time_usec": 83350509737
    },
    {
      "frame_id": 400,
      "sensor_timestamp": 83350542983771,
      "time_usec": 83350542983
    },
    {
      "frame_id": 401,
      "sensor_timestamp": 83350576230109,
      "time_usec": 83350576230
    },
    {
      "frame_id": 402,
      "sensor_timestamp": 83350609476691,
      "time_usec": 83350609476
    },
    {
      "frame_id": 403,
      "sensor_timestamp": 83350642723028,
      "time_usec": 83350642723
    },
    {
      "frame_id": 404,
      "sensor_timestamp": 83350675969366,
      "time_usec": 83350675969
    },
    {
      "frame_id": 405,
      "sensor_timestamp": 83350709215704,
      "time_usec": 83350709215
    },
    {
      "frame_id": 406,
      "sensor_timestamp": 83350742462042,
      "time_usec": 83350742462
    },
    {
      "frame_id": 407,
      "sensor_timestamp": 83350775708624,
      "time_usec": 83350775708
    },
    {
      "frame_id": 408,
      "sensor_timestamp": 83350808954962,
      "time_usec": 83350808954
    },
    {
      "frame_id": 409,
      "sensor_timestamp": 83350842201300,
      "time_usec": 83350842201
    },
    {
      "frame_id": 410,
      "sensor_timestamp": 83350875447638,
      "time_usec": 83350875447
    },
    {
      "frame_id": 411,
      "sensor_timestamp": 83350908694220,
      "time_usec": 83350908694
    },
    {
      "frame_id": 412,
      "sensor_timestamp": 83350941940558,
      "time_usec": 83350941940
    },
    {
      "frame_id": 413,
      "sensor_timestamp": 83350975186896,
      "time_usec": 83350975186
    },
    {
      "frame_id": 414,
      "sensor_timestamp": 83351008433234,
      "time_usec": 83351008433
    },
    {
      "frame_id": 415,
      "sensor_timestamp": 83351041679816,
      "time_usec": 83351041679
    },
    {
      "frame_id": 416,
      "sensor_timestamp": 83351074926153,
      "time_usec": 83351074926
    },
    {
      "frame_id": 417,
      "sensor_timestamp": 83351108172491,
      "time_usec": 83351108172
    },
    {
      "frame_id": 418,
      "sensor_timestamp": 83351141418829,
      "time_usec": 83351141418
    },
    {
      "frame_id": 419,
      "sensor_timestamp": 83351174665411,
      "time_usec": 83351174665
    },
    {
      "frame_id": 420,
      "sensor_timestamp": 83351207911749,
      "time_usec": 83351207911
    },
    {
      "frame_id": 421,
      "sensor_timestamp": 83351241158087,
      "time_usec": 83351241158
    },
    {
      "frame_id": 422,
      "sensor_timestamp": 83351274404425,
      "time_usec": 83351274404
    },
    {
      "frame_id": 423,
      "sensor_timestamp": 83351307651007,
      "time_usec": 83351307651
    },
    {
      "frame_id": 424,
      "sensor_timestamp": 83351340897345,
      "time_usec": 83351340897
    },
    {
      "frame_id": 425,
      "sensor_timestamp": 83351374143683,
      "time_usec": 83351374143
    },
    {
      "frame_id": 426,
      "sensor_timestamp": 83351407390021,
      "time_usec": 83351407390
    },
    {
      "frame_id": 427,
      "sensor_timestamp": 83351440636603,
      "time_usec": 83351440636
    },
    {
      "frame_id": 428,
      "sensor_timestamp": 83351473882941,
      "time_usec": 83351473882
    },
    {
      "frame_id": 429,
      "sensor_timestamp": 83351507129278,
      "time_usec": 83351507129
    },
    {
      "frame_id": 430,
      "sensor_timestamp": 83351540375616,
      "time_usec": 83351540375
    },
    {
      "frame_id": 431,
      "sensor_timestamp": 83351573622198,
      "time_usec": 83351573622
    },
    {
      "frame_id": 432,
      "sensor_timestamp": 83351606868536,
      "time_usec": 83351606868
    },
    {
      "frame_id": 433,
      "sensor_timestamp": 83351640114874,
      "time_usec": 83351640114
    },
    {
      "frame_id": 434,
      "sensor_timestamp": 83351673361212,
      "time_usec": 83351673361
    },
    {
      "frame_id": 435,
      "sensor_timestamp": 83351706607794,
      "time_usec": 83351706607
    },
    {
      "frame_id": 436,
      "sensor_timestamp": 83351739854132,
      "time_usec": 83351739854
    },
    {
      "frame_id": 437,
      "sensor_timestamp": 83351773100470,
      "time_usec": 83351773100
    },
    {
      "frame_id": 438,
      "sensor_timestamp": 83351806346808,
      "time_usec": 83351806346
    },
    {
      "frame_id": 439,
      "sensor_timestamp": 83351839593390,
      "time_usec": 83351839593
    },
    {
      "frame_id": 440,
      "sensor_timestamp": 83351872839728,
      "time_usec": 83351872839
    },
    {
      "frame_id": 441,
      "sensor_timestamp": 83351906086066,
      "time_usec": 83351906086
    },
    {
      "frame_id": 442,
      "sensor_timestamp": 83351939332403,
      "time_usec": 83351939332
    },
    {
      "frame_id": 443,
      "sensor_timestamp": 83351972578741,
      "time_usec": 83351972578
    },
    {
      "frame_id": 444,
      "sensor_timestamp": 83352005825323,
      "time_usec": 83352005825
    },
    {
      "frame_id": 445,
      "sensor_timestamp": 83352039071661,
      "time_usec": 83352039071
    },
    {
      "frame_id": 446,
      "sensor_timestamp": 83352072317999,
      "time_usec": 83352072317
    },
    {
      "frame_id": 447,
      "sensor_timestamp": 83352105564337,
      "time_usec": 83352105564
    },
    {
      "frame_id": 448,
      "sensor_timestamp": 83352138810919,
      "time_usec": 83352138810
    },
    {
      "frame_id": 449,
      "sensor_timestamp": 83352172057257,
      "time_usec": 83352172057
    },
    {
      "frame_id": 450,
      "sensor_timestamp": 83352205303595,
      "time_usec": 83352205303
    },
    {
      "frame_id": 451,
      "sensor_timestamp": 83352238549933,
      "time_usec": 83352238549
    },
    {
      "frame_id": 452,
      "sensor_timestamp": 83352274577146,
      "time_usec": 83352274577
    },
    {
      "frame_id": 453,
      "sensor_timestamp": 83352307823484,
      "time_usec": 83352307823
    },
    {
      "frame_id": 454,
      "sensor_timestamp": 83352341069822,
      "time_usec": 83352341069
    },
    {
      "frame_id": 455,
      "sensor_timestamp": 83352374316159,
      "time_usec": 83352374316
    },
    {
      "frame_id": 456,
      "sensor_timestamp": 83352407562742,
      "time_usec": 83352407562
    },
    {
      "frame_id": 457,
      "sensor_timestamp": 83352440809079,
      "time_usec": 83352440809
    },
    {
      "frame_id": 458,
      "sensor_timestamp": 83352474055417,
      "time_usec": 83352474055
    },
    {
      "frame_id": 459,
      "sensor_timestamp": 83352507301755,
      "time_usec": 83352507301
    },
    {
      "frame_id": 460,
      "sensor_timestamp": 83352540548337,
      "time_usec": 83352540548
    }
  ]
}