{
  "rotations": [
    {
      "x": -0.10018189996480942,
      "y": 0.05314527451992035,
      "z": -0.0708603709936142,
      "time_usec": 54277281862
    },
    {
      "x": -0.08659014850854874,
      "y": 0.048105638474226,
      "z": -0.0682641938328743,
      "time_usec": 54277284115
    },
    {
      "x": -0.0705549344420433,
      "y": 0.046731192618608475,
      "z": -0.06322455406188965,
      "time_usec": 54277286363
    },
    {
      "x": -0.06185010448098183,
      "y": 0.05146539583802223,
      "z": -0.05955936014652252,
      "time_usec": 54277288631
    },
    {
      "x": -0.05192354694008827,
      "y": 0.05619960278272629,
      "z": -0.05207626149058342,
      "time_usec": 54277290878
    },
    {
      "x": -0.04703662544488907,
      "y": 0.06459899991750717,
      "z": -0.050854530185461044,
      "time_usec": 54277293149
    },
    {
      "x": -0.04566217586398125,
      "y": 0.07788532227277756,
      "z": -0.04841107130050659,
      "time_usec": 54277295406
    },
    {
      "x": -0.040622539818286896,
      "y": 0.08857546001672745,
      "z": -0.04459316283464432,
      "time_usec": 54277297663
    },
    {
      "x": -0.041691552847623825,
      "y": 0.10064005106687546,
      "z": -0.04703662544488907,
      "time_usec": 54277299922
    },
    {
      "x": -0.04657847434282303,
      "y": 0.11392636597156525,
      "z": -0.039706241339445114,
      "time_usec": 54277302178
    },
    {
      "x": -0.047800205647945404,
      "y": 0.1235474944114685,
      "z": -0.039706241339445114,
      "time_usec": 54277304437
    },
    {
      "x": -0.05390885844826698,
      "y": 0.13087788224220276,
      "z": -0.03848451003432274,
      "time_usec": 54277306690
    },
    {
      "x": -0.058795779943466187,
      "y": 0.13454307615756989,
      "z": -0.036041051149368286,
      "time_usec": 54277308938
    },
    {
      "x": -0.06872233748435974,
      "y": 0.1408044397830963,
      "z": -0.036041051149368286,
      "time_usec": 54277311208
    },
    {
      "x": -0.07727445662021637,
      "y": 0.13973543047904968,
      "z": -0.03497203439474106,
      "time_usec": 54277313466
    },
    {
      "x": -0.08720101416110992,
      "y": 0.13255776464939117,
      "z": -0.03741549700498581,
      "time_usec": 54277315726
    },
    {
      "x": -0.09712757170200348,
      "y": 0.1290452778339386,
      "z": -0.03634648025035858,
      "time_usec": 54277317980
    },
    {
      "x": -0.10720685124397278,
      "y": 0.11591167747974396,
      "z": -0.03878994286060333,
      "time_usec": 54277320237
    },
    {
      "x": -0.1134682223200798,
      "y": 0.10522153973579407,
      "z": -0.04138612002134323,
      "time_usec": 54277322495
    },
    {
      "x": -0.11972958594560623,
      "y": 0.08720101416110992,
      "z": -0.04260785132646561,
      "time_usec": 54277324749
    },
    {
      "x": -0.12492194026708603,
      "y": 0.06811147183179855,
      "z": -0.045204028487205505,
      "time_usec": 54277326996
    },
    {
      "x": -0.12751811742782593,
      "y": 0.05009094998240471,
      "z": -0.04642575979232788,
      "time_usec": 54277329267
    },
    {
      "x": -0.12629638612270355,
      "y": 0.03191770985722542,
      "z": -0.051312681287527084,
      "time_usec": 54277331523
    },
    {
      "x": -0.12889257073402405,
      "y": 0.015118914656341076,
      "z": -0.05390885844826698,
      "time_usec": 54277333771
    },
    {
      "x": -0.12919799983501434,
      "y": -0.007788531947880983,
      "z": -0.058795779943466187,
      "time_usec": 54277336026
    },
    {
      "x": -0.1281289905309677,
      "y": -0.029474247246980667,
      "z": -0.058948494493961334,
      "time_usec": 54277338296
    },
    {
      "x": -0.1281289905309677,
      "y": -0.04505131021142006,
      "z": -0.06017022579908371,
      "time_usec": 54277340556
    },
    {
      "x": -0.12950342893600464,
      "y": -0.06062837690114975,
      "z": -0.061391957104206085,
      "time_usec": 54277342812
    },
    {
      "x": -0.128434419631958,
      "y": -0.07269296050071716,
      "z": -0.058948494493961334,
      "time_usec": 54277345054
    },
    {
      "x": -0.1310305893421173,
      "y": -0.08704829961061478,
      "z": -0.058948494493961334,
      "time_usec": 54277347311
    },
    {
      "x": -0.13225232064723969,
      "y": -0.09544769674539566,
      "z": -0.05650503560900688,
      "time_usec": 54277349577
    },
    {
      "x": -0.13118331134319305,
      "y": -0.10155634582042694,
      "z": -0.057879481464624405,
      "time_usec": 54277351841
    },
    {
      "x": -0.1336267739534378,
      "y": -0.10262536257505417,
      "z": -0.05421429127454758,
      "time_usec": 54277354090
    },
    {
      "x": -0.13744467496871948,
      "y": -0.1062905490398407,
      "z": -0.05054909735918045,
      "time_usec": 54277356357
    },
    {
      "x": -0.13988813757896423,
      "y": -0.1085812970995903,
      "z": -0.04444044828414917,
      "time_usec": 54277358613
    },
    {
      "x": -0.13988813757896423,
      "y": -0.10247264802455902,
      "z": -0.043218716979026794,
      "time_usec": 54277360873
    },
    {
      "x": -0.1411098688840866,
      "y": -0.10002918541431427,
      "z": -0.03940080851316452,
      "time_usec": 54277363128
    },
    {
      "x": -0.13988813757896423,
      "y": -0.10247264802455902,
      "z": -0.043218716979026794,
      "time_usec": 54277365385
    },
    {
      "x": -0.14477506279945374,
      "y": -0.0988074541091919,
      "z": -0.03573561832308769,
      "time_usec": 54277367640
    },
    {
      "x": -0.14233160018920898,
      "y": -0.09407325088977814,
      "z": -0.03695734590291977,
      "time_usec": 54277369899
    },
    {
      "x": -0.14217889308929443,
      "y": -0.08796459436416626,
      "z": -0.03573561832308769,
      "time_usec": 54277372156
    },
    {
      "x": -0.14340060949325562,
      "y": -0.08567385375499725,
      "z": -0.038179077208042145,
      "time_usec": 54277374410
    },
    {
      "x": -0.13973543047904968,
      "y": -0.07971791177988052,
      "z": -0.038179077208042145,
      "time_usec": 54277376659
    },
    {
      "x": -0.13973543047904968,
      "y": -0.07849618047475815,
      "z": -0.03695734590291977,
      "time_usec": 54277378929
    },
    {
      "x": -0.13347405195236206,
      "y": -0.07483099400997162,
      "z": -0.03329215571284294,
      "time_usec": 54277381187
    },
    {
      "x": -0.12858712673187256,
      "y": -0.07254024595022202,
      "z": -0.033139441162347794,
      "time_usec": 54277383444
    },
    {
      "x": -0.12232576310634613,
      "y": -0.06536258012056351,
      "z": -0.029474247246980667,
      "time_usec": 54277385689
    },
    {
      "x": -0.11484266817569733,
      "y": -0.059406645596027374,
      "z": -0.03191770985722542,
      "time_usec": 54277387952
    },
    {
      "x": -0.10735956579446793,
      "y": -0.05711590126156807,
      "z": -0.02932153269648552,
      "time_usec": 54277390207
    },
    {
      "x": -0.09743300825357437,
      "y": -0.04886921867728233,
      "z": -0.025656340643763542,
      "time_usec": 54277392476
    },
    {
      "x": -0.08994990587234497,
      "y": -0.044135015457868576,
      "z": -0.023060163483023643,
      "time_usec": 54277394731
    },
    {
      "x": -0.08124507963657379,
      "y": -0.03344487398862839,
      "z": -0.021838432177901268,
      "time_usec": 54277396985
    },
    {
      "x": -0.07131851464509964,
      "y": -0.02626720629632473,
      "z": -0.018020525574684143,
      "time_usec": 54277399245
    },
    {
      "x": -0.06261368840932846,
      "y": -0.019089538604021072,
      "z": -0.015577063895761967,
      "time_usec": 54277401504
    },
    {
      "x": -0.05146539583802223,
      "y": -0.007177666760981083,
      "z": -0.012980886735022068,
      "time_usec": 54277403766
    },
    {
      "x": -0.0377209298312664,
      "y": 0.005803219974040985,
      "z": -0.012828170321881771,
      "time_usec": 54277406010
    },
    {
      "x": -0.032681290060281754,
      "y": 0.012980886735022068,
      "z": -0.009162978269159794,
      "time_usec": 54277408266
    },
    {
      "x": -0.02275473065674305,
      "y": 0.018936822190880775,
      "z": -0.004123340360820293,
      "time_usec": 54277410530
    },
    {
      "x": -0.01542434748262167,
      "y": 0.02367102913558483,
      "z": 0.0019853119738399982,
      "time_usec": 54277412786
    },
    {
      "x": -0.009162978269159794,
      "y": 0.029626963660120964,
      "z": 0.0019853119738399982,
      "time_usec": 54277415041
    },
    {
      "x": -4.5814894838258624E-4,
      "y": 0.033139441162347794,
      "z": 0.007024950347840786,
      "time_usec": 54277417296
    },
    {
      "x": -0.001679879380390048,
      "y": 0.03787364438176155,
      "z": 0.007024950347840786,
      "time_usec": 54277419550
    },
    {
      "x": 0.0019853119738399982,
      "y": 0.04153883829712868,
      "z": 0.009468411095440388,
      "time_usec": 54277421822
    },
    {
      "x": 0.0019853119738399982,
      "y": 0.04153883829712868,
      "z": 0.014355333521962166,
      "time_usec": 54277424077
    },
    {
      "x": 0.0032070425804704428,
      "y": 0.03787364438176155,
      "z": 0.014355333521962166,
      "time_usec": 54277426332
    },
    {
      "x": 0.0032070425804704428,
      "y": 0.03680463135242462,
      "z": 0.014355333521962166,
      "time_usec": 54277428591
    },
    {
      "x": 7.635815418325365E-4,
      "y": 0.035582900047302246,
      "z": 0.016798794269561768,
      "time_usec": 54277430850
    },
    {
      "x": -0.001679879380390048,
      "y": 0.03680463135242462,
      "z": 0.015577063895761967,
      "time_usec": 54277433111
    },
    {
      "x": -0.006719517521560192,
      "y": 0.035582900047302246,
      "z": 0.014355333521962166,
      "time_usec": 54277435363
    },
    {
      "x": -0.012828170321881771,
      "y": 0.03329215571284294,
      "z": 0.013133603148162365,
      "time_usec": 54277437618
    },
    {
      "x": -0.01664607785642147,
      "y": 0.03222314268350601,
      "z": 0.016798794269561768,
      "time_usec": 54277439879
    },
    {
      "x": -0.017867809161543846,
      "y": 0.025045474991202354,
      "z": 0.01542434748262167,
      "time_usec": 54277442136
    },
    {
      "x": -0.020463986322283745,
      "y": 0.014202617108821869,
      "z": 0.017867809161543846,
      "time_usec": 54277444393
    },
    {
      "x": -0.021838432177901268,
      "y": 0.003359758760780096,
      "z": 0.01664607785642147,
      "time_usec": 54277446645
    },
    {
      "x": -0.025656340643763542,
      "y": -0.00855211354792118,
      "z": 0.019089538604021072,
      "time_usec": 54277448908
    },
    {
      "x": -0.021991148591041565,
      "y": -0.02428189292550087,
      "z": 0.017867809161543846,
      "time_usec": 54277451165
    },
    {
      "x": -0.020922135561704636,
      "y": -0.03741549700498581,
      "z": 0.020311269909143448,
      "time_usec": 54277453420
    },
    {
      "x": -0.01863138936460018,
      "y": -0.05314527451992035,
      "z": 0.018936822190880775,
      "time_usec": 54277455666
    },
    {
      "x": -0.01863138936460018,
      "y": -0.06154467165470123,
      "z": 0.01771509274840355,
      "time_usec": 54277457934
    },
    {
      "x": -0.01618792861700058,
      "y": -0.07131851464509964,
      "z": 0.014049900695681572,
      "time_usec": 54277460195
    },
    {
      "x": -0.013744467869400978,
      "y": -0.07727445662021637,
      "z": 0.012828170321881771,
      "time_usec": 54277462456
    },
    {
      "x": -0.011301007121801376,
      "y": -0.07971791177988052,
      "z": 0.009162978269159794,
      "time_usec": 54277464710
    },
    {
      "x": -0.012522737495601177,
      "y": -0.0809396430850029,
      "z": 0.005497787147760391,
      "time_usec": 54277466962
    },
    {
      "x": -0.014966198243200779,
      "y": -0.08216137439012527,
      "z": 0.001832595793530345,
      "time_usec": 54277469224
    },
    {
      "x": -0.013744467869400978,
      "y": -0.08460483700037003,
      "z": -6.108652451075613E-4,
      "time_usec": 54277471482
    },
    {
      "x": -0.01618792861700058,
      "y": -0.08216137439012527,
      "z": -0.001832595793530345,
      "time_usec": 54277473740
    },
    {
      "x": -0.017409659922122955,
      "y": -0.08338310569524765,
      "z": -0.005650503560900688,
      "time_usec": 54277475991
    },
    {
      "x": -0.020005837082862854,
      "y": -0.0858265683054924,
      "z": -0.00809396430850029,
      "time_usec": 54277478249
    },
    {
      "x": -0.024892758578062057,
      "y": -0.08689557760953903,
      "z": -0.011759156361222267,
      "time_usec": 54277480511
    },
    {
      "x": -0.02733621932566166,
      "y": -0.0858265683054924,
      "z": -0.01542434748262167,
      "time_usec": 54277482766
    },
    {
      "x": -0.031001411378383636,
      "y": -0.08216137439012527,
      "z": -0.01664607785642147,
      "time_usec": 54277485024
    },
    {
      "x": -0.034666601568460464,
      "y": -0.0832303911447525,
      "z": -0.02168571576476097,
      "time_usec": 54277487268
    },
    {
      "x": -0.03833179548382759,
      "y": -0.07971791177988052,
      "z": -0.02168571576476097,
      "time_usec": 54277489527
    },
    {
      "x": -0.04199698567390442,
      "y": -0.07483099400997162,
      "z": -0.02535090781748295,
      "time_usec": 54277491789
    },
    {
      "x": -0.04703662544488907,
      "y": -0.07238753139972687,
      "z": -0.026572637259960175,
      "time_usec": 54277494059
    },
    {
      "x": -0.05054909735918045,
      "y": -0.06627888232469559,
      "z": -0.02779436856508255,
      "time_usec": 54277496309
    },
    {
      "x": -0.05665775015950203,
      "y": -0.057879481464624405,
      "z": -0.030237829312682152,
      "time_usec": 54277498562
    },
    {
      "x": -0.060322944074869156,
      "y": -0.05421429127454758,
      "z": -0.031612277030944824,
      "time_usec": 54277500826
    },
    {
      "x": -0.06154467165470123,
      "y": -0.04932736977934837,
      "z": -0.03145955875515938,
      "time_usec": 54277503083
    },
    {
      "x": -0.06765332818031311,
      "y": -0.04199698567390442,
      "z": -0.031612277030944824,
      "time_usec": 54277505344
    },
    {
      "x": -0.07131851464509964,
      "y": -0.03588833287358284,
      "z": -0.027947084978222847,
      "time_usec": 54277507596
    },
    {
      "x": -0.07254024595022202,
      "y": -0.021532999351620674,
      "z": -0.026572637259960175,
      "time_usec": 54277509863
    },
    {
      "x": -0.07483099400997162,
      "y": -0.008246680721640587,
      "z": -0.02168571576476097,
      "time_usec": 54277512116
    },
    {
      "x": -0.07483099400997162,
      "y": 0.008704829961061478,
      "z": -0.015577063895761967,
      "time_usec": 54277514372
    },
    {
      "x": -0.0809396430850029,
      "y": 0.019547687843441963,
      "z": -0.013133603148162365,
      "time_usec": 54277516624
    },
    {
      "x": -0.0832303911447525,
      "y": 0.0328340083360672,
      "z": -0.008246680721640587,
      "time_usec": 54277518886
    },
    {
      "x": -0.08200865983963013,
      "y": 0.043676864355802536,
      "z": -0.006872233934700489,
      "time_usec": 54277521140
    },
    {
      "x": -0.08429940044879913,
      "y": 0.06062837690114975,
      "z": -0.006872233934700489,
      "time_usec": 54277523402
    },
    {
      "x": -0.08292495459318161,
      "y": 0.07269296050071716,
      "z": -0.0019853119738399982,
      "time_usec": 54277525649
    },
    {
      "x": -0.08536841720342636,
      "y": 0.0858265683054924,
      "z": -7.635815418325365E-4,
      "time_usec": 54277527905
    },
    {
      "x": -0.08399397134780884,
      "y": 0.09437867999076843,
      "z": 0.001679879380390048,
      "time_usec": 54277530175
    },
    {
      "x": -0.08017606288194656,
      "y": 0.1062905490398407,
      "z": 0.001832595793530345,
      "time_usec": 54277532433
    },
    {
      "x": -0.07773260027170181,
      "y": 0.11102475970983505,
      "z": -6.108652451075613E-4,
      "time_usec": 54277534691
    },
    {
      "x": -0.07895433157682419,
      "y": 0.11102475970983505,
      "z": 6.108652451075613E-4,
      "time_usec": 54277536941
    },
    {
      "x": -0.08017606288194656,
      "y": 0.10995574295520782,
      "z": 6.108652451075613E-4,
      "time_usec": 54277539204
    },
    {
      "x": -0.08017606288194656,
      "y": 0.10506882518529892,
      "z": -6.108652451075613E-4,
      "time_usec": 54277541461
    },
    {
      "x": -0.08155050873756409,
      "y": 0.09789115190505981,
      "z": -7.635815418325365E-4,
      "time_usec": 54277543717
    },
    {
      "x": -0.08277224004268646,
      "y": 0.0907134860754013,
      "z": 4.5814894838258624E-4,
      "time_usec": 54277545963
    },
    {
      "x": -0.07925976812839508,
      "y": 0.08338310569524765,
      "z": 0.0029016099870204926,
      "time_usec": 54277548226
    },
    {
      "x": -0.08048149943351746,
      "y": 0.07147123664617538,
      "z": 0.001679879380390048,
      "time_usec": 54277550478
    },
    {
      "x": -0.08185594528913498,
      "y": 0.059406645596027374,
      "z": 0.0029016099870204926,
      "time_usec": 54277552748
    },
    {
      "x": -0.08567385375499725,
      "y": 0.05100724846124649,
      "z": 0.0065668015740811825,
      "time_usec": 54277554992
    },
    {
      "x": -0.08949175477027893,
      "y": 0.0403171069920063,
      "z": 0.007788531947880983,
      "time_usec": 54277557261
    },
    {
      "x": -0.0933096632361412,
      "y": 0.025961773470044136,
      "z": 0.008857546374201775,
      "time_usec": 54277559519
    },
    {
      "x": -0.09957103431224823,
      "y": 0.01160643994808197,
      "z": 0.011301007121801376,
      "time_usec": 54277561777
    },
    {
      "x": -0.10461067408323288,
      "y": 0.0032070425804704428,
      "z": 0.014966198243200779,
      "time_usec": 54277564038
    },
    {
      "x": -0.1108720451593399,
      "y": -0.008704829961061478,
      "z": 0.016035212203860283,
      "time_usec": 54277566286
    },
    {
      "x": -0.11850785464048386,
      "y": -0.021838432177901268,
      "z": 0.018478672951459885,
      "time_usec": 54277568541
    },
    {
      "x": -0.1235474944114685,
      "y": -0.03497203439474106,
      "z": 0.020922135561704636,
      "time_usec": 54277570809
    },
    {
      "x": -0.12980885803699493,
      "y": -0.04566217586398125,
      "z": 0.019547687843441963,
      "time_usec": 54277573067
    },
    {
      "x": -0.13729196786880493,
      "y": -0.058795779943466187,
      "z": 0.01710422709584236,
      "time_usec": 54277575323
    },
    {
      "x": -0.13866640627384186,
      "y": -0.07208210229873657,
      "z": 0.01572977937757969,
      "time_usec": 54277577570
    },
    {
      "x": -0.13866640627384186,
      "y": -0.08170322328805923,
      "z": 0.01817324012517929,
      "time_usec": 54277579821
    },
    {
      "x": -0.14492778480052948,
      "y": -0.09117163717746735,
      "z": 0.020616702735424042,
      "time_usec": 54277582083
    },
    {
      "x": -0.14126259088516235,
      "y": -0.10216721147298813,
      "z": 0.014508049935102463,
      "time_usec": 54277584353
    },
    {
      "x": -0.14019356667995453,
      "y": -0.11056660860776901,
      "z": 0.013286318629980087,
      "time_usec": 54277586607
    },
    {
      "x": -0.13775011897087097,
      "y": -0.11652254313230515,
      "z": 0.014508049935102463,
      "time_usec": 54277588869
    },
    {
      "x": -0.13408492505550385,
      "y": -0.12140946835279465,
      "z": 0.01572977937757969,
      "time_usec": 54277591120
    },
    {
      "x": -0.1316414624452591,
      "y": -0.1287398487329483,
      "z": 0.013286318629980087,
      "time_usec": 54277593371
    },
    {
      "x": -0.12919799983501434,
      "y": -0.13225232064723969,
      "z": 0.01572977937757969,
      "time_usec": 54277595637
    },
    {
      "x": -0.12797626852989197,
      "y": -0.1359175145626068,
      "z": 0.014508049935102463,
      "time_usec": 54277597891
    },
    {
      "x": -0.12431107461452484,
      "y": -0.13240504264831543,
      "z": 0.016951510682702065,
      "time_usec": 54277600156
    },
    {
      "x": -0.12431107461452484,
      "y": -0.12996158003807068,
      "z": 0.01572977937757969,
      "time_usec": 54277602412
    },
    {
      "x": -0.12293662875890732,
      "y": -0.1215621829032898,
      "z": 0.014508049935102463,
      "time_usec": 54277604668
    },
    {
      "x": -0.1241583600640297,
      "y": -0.11438451707363129,
      "z": 0.013286318629980087,
      "time_usec": 54277606921
    },
    {
      "x": -0.12400564551353455,
      "y": -0.10231992602348328,
      "z": 0.013439035043120384,
      "time_usec": 54277609169
    },
    {
      "x": -0.12507465481758118,
      "y": -0.08796459436416626,
      "z": 0.013439035043120384,
      "time_usec": 54277611430
    },
    {
      "x": -0.12492194026708603,
      "y": -0.0734565481543541,
      "z": 0.00733038317412138,
      "time_usec": 54277613698
    },
    {
      "x": -0.12858712673187256,
      "y": -0.06017022579908371,
      "z": 0.00733038317412138,
      "time_usec": 54277615953
    },
    {
      "x": -0.13209961354732513,
      "y": -0.04581489413976669,
      "z": 0.00366519158706069,
      "time_usec": 54277618211
    },
    {
      "x": -0.13209961354732513,
      "y": -0.03497203439474106,
      "z": 0.00366519158706069,
      "time_usec": 54277620471
    },
    {
      "x": -0.13439035415649414,
      "y": -0.026572637259960175,
      "z": -0.00366519158706069,
      "time_usec": 54277622728
    },
    {
      "x": -0.1368338167667389,
      "y": -0.016951510682702065,
      "z": -0.006108652334660292,
      "time_usec": 54277624984
    },
    {
      "x": -0.14049901068210602,
      "y": -0.00733038317412138,
      "z": -0.00855211354792118,
      "time_usec": 54277627236
    },
    {
      "x": -0.14294247329235077,
      "y": -0.00733038317412138,
      "z": -0.01237002108246088,
      "time_usec": 54277629496
    },
    {
      "x": -0.14034628868103027,
      "y": -0.006108652334660292,
      "z": -0.01725694350898266,
      "time_usec": 54277631744
    },
    {
      "x": -0.14049901068210602,
      "y": -0.009773843921720982,
      "z": -0.018478672951459885,
      "time_usec": 54277634014
    },
    {
      "x": -0.13790282607078552,
      "y": -0.012217304669320583,
      "z": -0.020922135561704636,
      "time_usec": 54277636267
    },
    {
      "x": -0.1368338167667389,
      "y": -0.01710422709584236,
      "z": -0.023365596309304237,
      "time_usec": 54277638532
    },
    {
      "x": -0.1319468915462494,
      "y": -0.02428189292550087,
      "z": -0.02580905705690384,
      "time_usec": 54277640781
    },
    {
      "x": -0.13072516024112701,
      "y": -0.03756821155548096,
      "z": -0.02825251780450344,
      "time_usec": 54277643042
    },
    {
      "x": -0.12828169763088226,
      "y": -0.043676864355802536,
      "z": -0.030695978552103043,
      "time_usec": 54277645287
    },
    {
      "x": -0.1258382350206375,
      "y": -0.04856378585100174,
      "z": -0.035582900047302246,
      "time_usec": 54277647555
    },
    {
      "x": -0.12217304855585098,
      "y": -0.05207626149058342,
      "z": -0.029474247246980667,
      "time_usec": 54277649818
    },
    {
      "x": -0.11972958594560623,
      "y": -0.05467243865132332,
      "z": -0.033139441162347794,
      "time_usec": 54277652086
    },
    {
      "x": -0.11850785464048386,
      "y": -0.058184914290905,
      "z": -0.03191770985722542,
      "time_usec": 54277654337
    },
    {
      "x": -0.1160643994808197,
      "y": -0.055894169956445694,
      "z": -0.03436116874217987,
      "time_usec": 54277656581
    },
    {
      "x": -0.11468994617462158,
      "y": -0.04993823543190956,
      "z": -0.038026362657547,
      "time_usec": 54277658829
    },
    {
      "x": -0.11224649101495743,
      "y": -0.04398229718208313,
      "z": -0.038026362657547,
      "time_usec": 54277661095
    },
    {
      "x": -0.10965031385421753,
      "y": -0.039095375686883926,
      "z": -0.039095375686883926,
      "time_usec": 54277663361
    },
    {
      "x": -0.10965031385421753,
      "y": -0.029474247246980667,
      "z": -0.0403171069920063,
      "time_usec": 54277665620
    },
    {
      "x": -0.10461067408323288,
      "y": -0.02122756652534008,
      "z": -0.03787364438176155,
      "time_usec": 54277667871
    },
    {
      "x": -0.10323622822761536,
      "y": -0.012828170321881771,
      "z": -0.0403171069920063,
      "time_usec": 54277670129
    },
    {
      "x": -0.09575312584638596,
      "y": -0.006872233934700489,
      "z": -0.040164388716220856,
      "time_usec": 54277672377
    },
    {
      "x": -0.0933096632361412,
      "y": 3.054326225537807E-4,
      "z": -0.040164388716220856,
      "time_usec": 54277674648
    },
    {
      "x": -0.08704829961061478,
      "y": 0.008704829961061478,
      "z": -0.0377209298312664,
      "time_usec": 54277676899
    },
    {
      "x": -0.0832303911447525,
      "y": 0.01466076634824276,
      "z": -0.03649919852614403,
      "time_usec": 54277679165
    },
    {
      "x": -0.0757472887635231,
      "y": 0.022907447069883347,
      "z": -0.03634648025035858,
      "time_usec": 54277681419
    },
    {
      "x": -0.06841690838336945,
      "y": 0.02168571576476097,
      "z": -0.04001167416572571,
      "time_usec": 54277683678
    },
    {
      "x": -0.060933809727430344,
      "y": 0.021532999351620674,
      "z": -0.04001167416572571,
      "time_usec": 54277685932
    },
    {
      "x": -0.05360342562198639,
      "y": 0.022602014243602753,
      "z": -0.04108068719506264,
      "time_usec": 54277688186
    },
    {
      "x": -0.04734205827116966,
      "y": 0.026114489883184433,
      "z": -0.04230241850018501,
      "time_usec": 54277690449
    },
    {
      "x": -0.04108068719506264,
      "y": 0.02733621932566166,
      "z": -0.04352414980530739,
      "time_usec": 54277692708
    },
    {
      "x": -0.036193765699863434,
      "y": 0.029626963660120964,
      "z": -0.047189339995384216,
      "time_usec": 54277694964
    },
    {
      "x": -0.02871066704392433,
      "y": 0.03191770985722542,
      "z": -0.047189339995384216,
      "time_usec": 54277697216
    },
    {
      "x": -0.020005837082862854,
      "y": 0.02932153269648552,
      "z": -0.048258353024721146,
      "time_usec": 54277699478
    },
    {
      "x": -0.017562376335263252,
      "y": 0.03298672288656235,
      "z": -0.0507018156349659,
      "time_usec": 54277701735
    },
    {
      "x": -0.012675453908741474,
      "y": 0.03176499158143997,
      "z": -0.04703662544488907,
      "time_usec": 54277703991
    },
    {
      "x": -0.007635815534740686,
      "y": 0.0328340083360672,
      "z": -0.04337143152952194,
      "time_usec": 54277706245
    },
    {
      "x": -0.005192354787141085,
      "y": 0.03527746722102165,
      "z": -0.04199698567390442,
      "time_usec": 54277708508
    },
    {
      "x": -0.007635815534740686,
      "y": 0.03527746722102165,
      "z": -0.039706241339445114,
      "time_usec": 54277710767
    },
    {
      "x": -0.008857546374201775,
      "y": 0.04138612002134323,
      "z": -0.037110064178705215,
      "time_usec": 54277713025
    },
    {
      "x": -0.0064140851609408855,
      "y": 0.04489859566092491,
      "z": -0.02977968007326126,
      "time_usec": 54277715279
    },
    {
      "x": -0.008857546374201775,
      "y": 0.04749477282166481,
      "z": -0.02733621932566166,
      "time_usec": 54277717531
    },
    {
      "x": -0.010079276748001575,
      "y": 0.05115996301174164,
      "z": -0.02122756652534008,
      "time_usec": 54277719789
    },
    {
      "x": -0.01618792861700058,
      "y": 0.05604688450694084,
      "z": -0.022449297830462456,
      "time_usec": 54277722044
    },
    {
      "x": -0.020005837082862854,
      "y": 0.05971207842230797,
      "z": -0.02122756652534008,
      "time_usec": 54277724308
    },
    {
      "x": -0.02122756652534008,
      "y": 0.060933809727430344,
      "z": -0.017562376335263252,
      "time_usec": 54277726554
    },
    {
      "x": -0.026114489883184433,
      "y": 0.06215553730726242,
      "z": -0.012675453908741474,
      "time_usec": 54277728813
    },
    {
      "x": -0.031001411378383636,
      "y": 0.06704246252775192,
      "z": -0.009010262787342072,
      "time_usec": 54277731068
    },
    {
      "x": -0.03481931984424591,
      "y": 0.0659734457731247,
      "z": -0.004123340360820293,
      "time_usec": 54277733327
    },
    {
      "x": -0.039706241339445114,
      "y": 0.06841690838336945,
      "z": -0.0029016099870204926,
      "time_usec": 54277735584
    },
    {
      "x": -0.04596760869026184,
      "y": 0.0685696229338646,
      "z": 0.0019853119738399982,
      "time_usec": 54277737841
    },
    {
      "x": -0.04963280260562897,
      "y": 0.06627888232469559,
      "z": 0.003054326167330146,
      "time_usec": 54277740099
    },
    {
      "x": -0.050854530185461044,
      "y": 0.06750060617923737,
      "z": 0.011759156361222267,
      "time_usec": 54277742356
    },
    {
      "x": -0.049785517156124115,
      "y": 0.06261368840932846,
      "z": 0.012980886735022068,
      "time_usec": 54277744616
    },
    {
      "x": -0.04841107130050659,
      "y": 0.06383541971445084,
      "z": 0.012980886735022068,
      "time_usec": 54277746883
    },
    {
      "x": -0.04596760869026184,
      "y": 0.06383541971445084,
      "z": 0.014202617108821869,
      "time_usec": 54277749141
    },
    {
      "x": -0.04352414980530739,
      "y": 0.06261368840932846,
      "z": 0.01542434748262167,
      "time_usec": 54277751389
    },
    {
      "x": -0.038637228310108185,
      "y": 0.06261368840932846,
      "z": 0.01542434748262167,
      "time_usec": 54277753657
    },
    {
      "x": -0.036193765699863434,
      "y": 0.058948494493961334,
      "z": 0.011759156361222267,
      "time_usec": 54277755910
    },
    {
      "x": -0.032528575509786606,
      "y": 0.056352317333221436,
      "z": 0.00931569468230009,
      "time_usec": 54277758162
    },
    {
      "x": -0.02871066704392433,
      "y": 0.05513058975338936,
      "z": 0.010537425056099892,
      "time_usec": 54277760428
    },
    {
      "x": -0.027488935738801956,
      "y": 0.050243668258190155,
      "z": 0.006872233934700489,
      "time_usec": 54277762686
    },
    {
      "x": -0.030085112899541855,
      "y": 0.04795292019844055,
      "z": 0.006872233934700489,
      "time_usec": 54277764946
    },
    {
      "x": -0.027641652151942253,
      "y": 0.04184427112340927,
      "z": 0.00931569468230009,
      "time_usec": 54277767195
    },
    {
      "x": -0.030085112899541855,
      "y": 0.03833179548382759,
      "z": 0.00809396430850029,
      "time_usec": 54277769458
    },
    {
      "x": -0.03390302136540413,
      "y": 0.037110064178705215,
      "z": 0.00931569468230009,
      "time_usec": 54277771715
    },
    {
      "x": -0.03390302136540413,
      "y": 0.029932396486401558,
      "z": 0.010537425056099892,
      "time_usec": 54277773972
    },
    {
      "x": -0.03634648025035858,
      "y": 0.026419922709465027,
      "z": 0.011759156361222267,
      "time_usec": 54277776225
    },
    {
      "x": -0.03894266113638878,
      "y": 0.023976460099220276,
      "z": 0.01038470957428217,
      "time_usec": 54277778487
    },
    {
      "x": -0.04505131021142006,
      "y": 0.020463986322283745,
      "z": 0.012828170321881771,
      "time_usec": 54277780741
    },
    {
      "x": -0.04764748737215996,
      "y": 0.019394971430301666,
      "z": 0.01160643994808197,
      "time_usec": 54277782989
    },
    {
      "x": -0.051312681287527084,
      "y": 0.01572977937757969,
      "z": 0.007941247895359993,
      "time_usec": 54277785246
    },
    {
      "x": -0.05497787147760391,
      "y": 0.016951510682702065,
      "z": 0.01160643994808197,
      "time_usec": 54277787510
    },
    {
      "x": -0.05375614017248154,
      "y": 0.013439035043120384,
      "z": 0.009162978269159794,
      "time_usec": 54277789765
    },
    {
      "x": -0.05253441259264946,
      "y": 0.012217304669320583,
      "z": 0.01038470957428217,
      "time_usec": 54277792035
    },
    {
      "x": -0.05268712714314461,
      "y": 0.00733038317412138,
      "z": 0.006719517521560192,
      "time_usec": 54277794289
    },
    {
      "x": -0.05268712714314461,
      "y": 0.0013744467869400978,
      "z": 0.009162978269159794,
      "time_usec": 54277796546
    },
    {
      "x": -0.05268712714314461,
      "y": -0.007024950347840786,
      "z": 0.0065668015740811825,
      "time_usec": 54277798811
    },
    {
      "x": -0.05161811411380768,
      "y": -0.01191187184303999,
      "z": 0.005345070734620094,
      "time_usec": 54277801064
    },
    {
      "x": -0.050243668258190155,
      "y": -0.013133603148162365,
      "z": 0.005345070734620094,
      "time_usec": 54277803320
    },
    {
      "x": -0.052839845418930054,
      "y": -0.021532999351620674,
      "z": 0.001679879380390048,
      "time_usec": 54277805573
    },
    {
      "x": -0.055283304303884506,
      "y": -0.02275473065674305,
      "z": 0.001679879380390048,
      "time_usec": 54277807825
    },
    {
      "x": -0.05650503560900688,
      "y": -0.02519819140434265,
      "z": 0.001679879380390048,
      "time_usec": 54277810082
    },
    {
      "x": -0.05665775015950203,
      "y": -0.02871066704392433,
      "z": -0.0019853119738399982,
      "time_usec": 54277812345
    },
    {
      "x": -0.05665775015950203,
      "y": -0.031154127791523933,
      "z": -0.0032070425804704428,
      "time_usec": 54277814593
    },
    {
      "x": -0.06398813426494598,
      "y": -0.03222314268350601,
      "z": -0.002138028386980295,
      "time_usec": 54277816863
    },
    {
      "x": -0.06780604273080826,
      "y": -0.031001411378383636,
      "z": -0.002138028386980295,
      "time_usec": 54277819121
    },
    {
      "x": -0.07009678333997726,
      "y": -0.026114489883184433,
      "z": -0.002138028386980295,
      "time_usec": 54277821381
    },
    {
      "x": -0.07254024595022202,
      "y": -0.022602014243602753,
      "z": -0.003359758760780096,
      "time_usec": 54277823636
    },
    {
      "x": -0.07254024595022202,
      "y": -0.018936822190880775,
      "z": -9.162978967651725E-4,
      "time_usec": 54277825891
    },
    {
      "x": -0.06887505948543549,
      "y": -0.01664607785642147,
      "z": -0.003359758760780096,
      "time_usec": 54277828145
    },
    {
      "x": -0.06872233748435974,
      "y": -0.00931569468230009,
      "z": -0.004581489134579897,
      "time_usec": 54277830407
    },
    {
      "x": -0.06261368840932846,
      "y": -0.007024950347840786,
      "z": -0.00809396430850029,
      "time_usec": 54277832661
    },
    {
      "x": -0.056352317333221436,
      "y": -0.003512475173920393,
      "z": -0.00809396430850029,
      "time_usec": 54277834910
    },
    {
      "x": -0.05268712714314461,
      "y": -0.0,
      "z": -0.00809396430850029,
      "time_usec": 54277837176
    },
    {
      "x": -0.05009094998240471,
      "y": 0.008399397134780884,
      "z": -0.010537425056099892,
      "time_usec": 54277839437
    },
    {
      "x": -0.04505131021142006,
      "y": 0.010690141469240189,
      "z": -0.011759156361222267,
      "time_usec": 54277841697
    },
    {
      "x": -0.03878994286060333,
      "y": 0.017867809161543846,
      "z": -0.01160643994808197,
      "time_usec": 54277843951
    },
    {
      "x": -0.03878994286060333,
      "y": 0.031154127791523933,
      "z": -0.007941247895359993,
      "time_usec": 54277846204
    },
    {
      "x": -0.036193765699863434,
      "y": 0.03955352306365967,
      "z": -0.005497787147760391,
      "time_usec": 54277848466
    },
    {
      "x": -0.033597588539123535,
      "y": 0.05757404863834381,
      "z": -0.0029016099870204926,
      "time_usec": 54277850724
    },
    {
      "x": -0.028557950630784035,
      "y": 0.0754418596625328,
      "z": -0.005345070734620094,
      "time_usec": 54277852980
    },
    {
      "x": -0.02474004216492176,
      "y": 0.09468411654233932,
      "z": -0.001527163083665073,
      "time_usec": 54277855225
    },
    {
      "x": -0.019547687843441963,
      "y": 0.11026117950677872,
      "z": -3.054326225537807E-4,
      "time_usec": 54277857480
    },
    {
      "x": -0.012064588256180286,
      "y": 0.12339477986097336,
      "z": 0.0022907445672899485,
      "time_usec": 54277859741
    },
    {
      "x": -0.007024950347840786,
      "y": 0.13301590085029602,
      "z": 0.0022907445672899485,
      "time_usec": 54277862013
    },
    {
      "x": -0.0032070425804704428,
      "y": 0.14614951610565186,
      "z": 0.005955935921519995,
      "time_usec": 54277864270
    },
    {
      "x": -0.0019853119738399982,
      "y": 0.1498146951198578,
      "z": 0.009773843921720982,
      "time_usec": 54277866522
    },
    {
      "x": 4.5814894838258624E-4,
      "y": 0.14614951610565186,
      "z": 0.013439035043120384,
      "time_usec": 54277868778
    },
    {
      "x": 4.5814894838258624E-4,
      "y": 0.1485929638147354,
      "z": 0.018325956538319588,
      "time_usec": 54277871042
    },
    {
      "x": 0.005345070734620094,
      "y": 0.14385876059532166,
      "z": 0.02321287989616394,
      "time_usec": 54277873300
    },
    {
      "x": 0.013744467869400978,
      "y": 0.1281289905309677,
      "z": 0.025656340643763542,
      "time_usec": 54277875555
    },
    {
      "x": 0.01618792861700058,
      "y": 0.11239920556545258,
      "z": 0.02321287989616394,
      "time_usec": 54277877809
    },
    {
      "x": 0.018478672951459885,
      "y": 0.0884227454662323,
      "z": 0.028099801391363144,
      "time_usec": 54277880076
    },
    {
      "x": 0.02687807008624077,
      "y": 0.06414084881544113,
      "z": 0.024434609338641167,
      "time_usec": 54277882327
    },
    {
      "x": 0.03039054572582245,
      "y": 0.0377209298312664,
      "z": 0.024434609338641167,
      "time_usec": 54277884583
    },
    {
      "x": 0.032681290060281754,
      "y": 0.009926560334861279,
      "z": 0.02428189292550087,
      "time_usec": 54277886827
    },
    {
      "x": 0.03497203439474106,
      "y": -0.017867809161543846,
      "z": 0.01572977937757969,
      "time_usec": 54277889097
    },
    {
      "x": 0.03344487398862839,
      "y": -0.03833179548382759,
      "z": 0.010690141469240189,
      "time_usec": 54277891358
    },
    {
      "x": 0.03084869496524334,
      "y": -0.05757404863834381,
      "z": 0.003359758760780096,
      "time_usec": 54277893618
    },
    {
      "x": 0.02825251780450344,
      "y": -0.0780380368232727,
      "z": -0.004123340360820293,
      "time_usec": 54277895871
    },
    {
      "x": 0.027030786499381065,
      "y": -0.0913243517279625,
      "z": -0.012675453908741474,
      "time_usec": 54277898124
    },
    {
      "x": 0.019547687843441963,
      "y": -0.09712757170200348,
      "z": -0.016493361443281174,
      "time_usec": 54277900386
    },
    {
      "x": 0.013286318629980087,
      "y": -0.10308351367712021,
      "z": -0.01771509274840355,
      "time_usec": 54277902644
    },
    {
      "x": 0.004734205547720194,
      "y": -0.10308351367712021,
      "z": -0.021380282938480377,
      "time_usec": 54277904901
    },
    {
      "x": -0.0039706239476799965,
      "y": -0.10293079167604446,
      "z": -0.026419922709465027,
      "time_usec": 54277907154
    },
    {
      "x": -0.010079276748001575,
      "y": -0.10170906037092209,
      "z": -0.023976460099220276,
      "time_usec": 54277909417
    },
    {
      "x": -0.020005837082862854,
      "y": -0.09560041129589081,
      "z": -0.02275473065674305,
      "time_usec": 54277911673
    },
    {
      "x": -0.02733621932566166,
      "y": -0.09056077152490616,
      "z": -0.020311269909143448,
      "time_usec": 54277913931
    },
    {
      "x": -0.031001411378383636,
      "y": -0.08338310569524765,
      "z": -0.022907447069883347,
      "time_usec": 54277916183
    },
    {
      "x": -0.037110064178705215,
      "y": -0.07971791177988052,
      "z": -0.02168571576476097,
      "time_usec": 54277918446
    },
    {
      "x": -0.03955352306365967,
      "y": -0.07849618047475815,
      "z": -0.02168571576476097,
      "time_usec": 54277920700
    },
    {
      "x": -0.04199698567390442,
      "y": -0.07483099400997162,
      "z": -0.022907447069883347,
      "time_usec": 54277922949
    },
    {
      "x": -0.04703662544488907,
      "y": -0.07467827945947647,
      "z": -0.022907447069883347,
      "time_usec": 54277925217
    },
    {
      "x": -0.04581489413976669,
      "y": -0.07483099400997162,
      "z": -0.02535090781748295,
      "time_usec": 54277927471
    },
    {
      "x": -0.048258353024721146,
      "y": -0.07590000331401825,
      "z": -0.022907447069883347,
      "time_usec": 54277929736
    },
    {
      "x": -0.0507018156349659,
      "y": -0.07590000331401825,
      "z": -0.02535090781748295,
      "time_usec": 54277931990
    },
    {
      "x": -0.048258353024721146,
      "y": -0.078343465924263,
      "z": -0.02779436856508255,
      "time_usec": 54277934247
    },
    {
      "x": -0.048258353024721146,
      "y": -0.078343465924263,
      "z": -0.029016099870204926,
      "time_usec": 54277936501
    },
    {
      "x": -0.04077525436878204,
      "y": -0.076052725315094,
      "z": -0.032681290060281754,
      "time_usec": 54277938767
    },
    {
      "x": -0.04077525436878204,
      "y": -0.07483099400997162,
      "z": -0.035124752670526505,
      "time_usec": 54277941020
    },
    {
      "x": -0.038179077208042145,
      "y": -0.06765332818031311,
      "z": -0.03634648025035858,
      "time_usec": 54277943280
    },
    {
      "x": -0.03329215571284294,
      "y": -0.06414084881544113,
      "z": -0.03878994286060333,
      "time_usec": 54277945533
    },
    {
      "x": -0.03436116874217987,
      "y": -0.05696318298578262,
      "z": -0.03634648025035858,
      "time_usec": 54277947784
    },
    {
      "x": -0.02825251780450344,
      "y": -0.055894169956445694,
      "z": -0.03741549700498581,
      "time_usec": 54277950036
    },
    {
      "x": -0.025656340643763542,
      "y": -0.05345070734620094,
      "z": -0.04489859566092491,
      "time_usec": 54277952306
    },
    {
      "x": -0.025656340643763542,
      "y": -0.05467243865132332,
      "z": -0.043676864355802536,
      "time_usec": 54277954564
    },
    {
      "x": -0.02076941914856434,
      "y": -0.05604688450694084,
      "z": -0.044745877385139465,
      "time_usec": 54277956819
    },
    {
      "x": -0.01710422709584236,
      "y": -0.054825156927108765,
      "z": -0.044745877385139465,
      "time_usec": 54277959079
    },
    {
      "x": -0.01466076634824276,
      "y": -0.054825156927108765,
      "z": -0.04596760869026184,
      "time_usec": 54277961336
    },
    {
      "x": -0.013286318629980087,
      "y": -0.05360342562198639,
      "z": -0.044745877385139465,
      "time_usec": 54277963596
    },
    {
      "x": -0.003512475173920393,
      "y": -0.051312681287527084,
      "z": -0.04108068719506264,
      "time_usec": 54277965848
    },
    {
      "x": 0.001527163083665073,
      "y": -0.047800205647945404,
      "z": -0.039706241339445114,
      "time_usec": 54277968096
    },
    {
      "x": 0.007635815534740686,
      "y": -0.0455094613134861,
      "z": -0.03726277872920036,
      "time_usec": 54277970366
    },
    {
      "x": 0.0065668015740811825,
      "y": -0.038179077208042145,
      "z": -0.03481931984424591,
      "time_usec": 54277972623
    },
    {
      "x": 0.012675453908741474,
      "y": -0.03222314268350601,
      "z": -0.03222314268350601,
      "time_usec": 54277974882
    },
    {
      "x": 0.01038470957428217,
      "y": -0.02382374368607998,
      "z": -0.028557950630784035,
      "time_usec": 54277977133
    },
    {
      "x": 0.01038470957428217,
      "y": -0.014202617108821869,
      "z": -0.02367102913558483,
      "time_usec": 54277979396
    },
    {
      "x": 0.007941247895359993,
      "y": -0.006872233934700489,
      "z": -0.020005837082862854,
      "time_usec": 54277981654
    },
    {
      "x": 0.00427605677396059,
      "y": 0.001679879380390048,
      "z": -0.016340645030140877,
      "time_usec": 54277983911
    },
    {
      "x": -0.003054326167330146,
      "y": 0.005345070734620094,
      "z": -0.015118914656341076,
      "time_usec": 54277986164
    },
    {
      "x": -0.011759156361222267,
      "y": 0.013897184282541275,
      "z": -0.012675453908741474,
      "time_usec": 54277988424
    },
    {
      "x": -0.023976460099220276,
      "y": 0.02015855349600315,
      "z": -0.005345070734620094,
      "time_usec": 54277990682
    },
    {
      "x": -0.03390302136540413,
      "y": 0.021532999351620674,
      "z": -0.003054326167330146,
      "time_usec": 54277992940
    },
    {
      "x": -0.046273041516542435,
      "y": 0.022907447069883347,
      "z": 0.001832595793530345,
      "time_usec": 54277995196
    },
    {
      "x": -0.059864792972803116,
      "y": 0.025503624230623245,
      "z": 0.006719517521560192,
      "time_usec": 54277997449
    },
    {
      "x": -0.07101308554410934,
      "y": 0.02076941914856434,
      "z": 0.009010262787342072,
      "time_usec": 54277999713
    },
    {
      "x": -0.08338310569524765,
      "y": 0.022143865004181862,
      "z": 0.011453723534941673,
      "time_usec": 54278001969
    },
    {
      "x": -0.09575312584638596,
      "y": 0.023518312722444534,
      "z": 0.013744467869400978,
      "time_usec": 54278004226
    },
    {
      "x": -0.10567969083786011,
      "y": 0.028557950630784035,
      "z": 0.017409659922122955,
      "time_usec": 54278006478
    },
    {
      "x": -0.11301007121801376,
      "y": 0.031001411378383636,
      "z": 0.014966198243200779,
      "time_usec": 54278008741
    },
    {
      "x": -0.12538009881973267,
      "y": 0.03726277872920036,
      "z": 0.01237002108246088,
      "time_usec": 54278010999
    },
    {
      "x": -0.1339322030544281,
      "y": 0.04444044828414917,
      "z": 0.01114829070866108,
      "time_usec": 54278013258
    },
    {
      "x": -0.14492778480052948,
      "y": 0.04948008432984352,
      "z": 0.0074830991216003895,
      "time_usec": 54278015514
    },
    {
      "x": -0.15363261103630066,
      "y": 0.05925392732024193,
      "z": 0.00855211354792118,
      "time_usec": 54278017768
    },
    {
      "x": -0.16340644657611847,
      "y": 0.06414084881544113,
      "z": 0.00733038317412138,
      "time_usec": 54278020030
    },
    {
      "x": -0.1745547503232956,
      "y": 0.06551529467105865,
      "z": 0.004886921960860491,
      "time_usec": 54278022291
    },
    {
      "x": -0.18188512325286865,
      "y": 0.0679587572813034,
      "z": 0.004734205547720194,
      "time_usec": 54278024541
    },
    {
      "x": -0.18936823308467865,
      "y": 0.0656680166721344,
      "z": 0.005955935921519995,
      "time_usec": 54278026788
    },
    {
      "x": -0.19807305932044983,
      "y": 0.0633772686123848,
      "z": 0.003512475173920393,
      "time_usec": 54278029056
    },
    {
      "x": -0.20662516355514526,
      "y": 0.06230825558304787,
      "z": 0.004581489134579897,
      "time_usec": 54278031312
    },
    {
      "x": -0.2165517359972,
      "y": 0.05757404863834381,
      "z": 0.002138028386980295,
      "time_usec": 54278033563
    },
    {
      "x": -0.2252565622329712,
      "y": 0.052839845418930054,
      "z": 7.635815418325365E-4,
      "time_usec": 54278035828
    },
    {
      "x": -0.23273965716362,
      "y": 0.048105638474226,
      "z": 0.0019853119738399982,
      "time_usec": 54278038075
    },
    {
      "x": -0.24266621470451355,
      "y": 0.04108068719506264,
      "z": -0.001832595793530345,
      "time_usec": 54278040346
    },
    {
      "x": -0.25014930963516235,
      "y": 0.032681290060281754,
      "z": -0.003054326167330146,
      "time_usec": 54278042602
    },
    {
      "x": -0.26374107599258423,
      "y": 0.028099801391363144,
      "z": -0.004428773187100887,
      "time_usec": 54278044861
    },
    {
      "x": -0.27382034063339233,
      "y": 0.012522737495601177,
      "z": -0.00809396430850029,
      "time_usec": 54278047112
    },
    {
      "x": -0.28130343556404114,
      "y": 0.004123340360820293,
      "z": -0.008246680721640587,
      "time_usec": 54278049374
    },
    {
      "x": -0.28756481409072876,
      "y": -0.009010262787342072,
      "z": -0.013133603148162365,
      "time_usec": 54278051629
    },
    {
      "x": -0.29886582493782043,
      "y": -0.02076941914856434,
      "z": -0.009621127508580685,
      "time_usec": 54278053879
    },
    {
      "x": -0.3075706362724304,
      "y": -0.03405573591589928,
      "z": -0.014508049935102463,
      "time_usec": 54278056139
    },
    {
      "x": -0.31261029839515686,
      "y": -0.044745877385139465,
      "z": -0.01710422709584236,
      "time_usec": 54278058397
    },
    {
      "x": -0.3188716471195221,
      "y": -0.05543602257966995,
      "z": -0.015882495790719986,
      "time_usec": 54278060664
    },
    {
      "x": -0.3251330256462097,
      "y": -0.061391957104206085,
      "z": -0.012217304669320583,
      "time_usec": 54278062920
    },
    {
      "x": -0.3300199508666992,
      "y": -0.06612616032361984,
      "z": -0.009926560334861279,
      "time_usec": 54278065176
    },
    {
      "x": -0.3376557528972626,
      "y": -0.07559457421302795,
      "z": -0.0074830991216003895,
      "time_usec": 54278067430
    },
    {
      "x": -0.34865134954452515,
      "y": -0.07422012835741043,
      "z": -0.006261368747800589,
      "time_usec": 54278069695
    },
    {
      "x": -0.35735616087913513,
      "y": -0.07528914511203766,
      "z": -1.5271631127689034E-4,
      "time_usec": 54278071950
    },
    {
      "x": -0.3599523603916168,
      "y": -0.07651086896657944,
      "z": 0.007177666760981083,
      "time_usec": 54278074204
    },
    {
      "x": -0.3660610020160675,
      "y": -0.07635815441608429,
      "z": 0.009468411095440388,
      "time_usec": 54278076447
    },
    {
      "x": -0.3723223805427551,
      "y": -0.07391469180583954,
      "z": 0.013133603148162365,
      "time_usec": 54278078705
    },
    {
      "x": -0.37598755955696106,
      "y": -0.07376197725534439,
      "z": 0.01191187184303999,
      "time_usec": 54278080962
    },
    {
      "x": -0.37339138984680176,
      "y": -0.06902777403593063,
      "z": 0.01191187184303999,
      "time_usec": 54278083225
    },
    {
      "x": -0.3770565688610077,
      "y": -0.06780604273080826,
      "z": 0.005803219974040985,
      "time_usec": 54278085489
    },
    {
      "x": -0.3758348524570465,
      "y": -0.06551529467105865,
      "z": 9.162978967651725E-4,
      "time_usec": 54278087739
    },
    {
      "x": -0.3770565688610077,
      "y": -0.06185010448098183,
      "z": -0.0039706239476799965,
      "time_usec": 54278089996
    },
    {
      "x": -0.3793473243713379,
      "y": -0.05100724846124649,
      "z": -0.007635815534740686,
      "time_usec": 54278092253
    },
    {
      "x": -0.3854559659957886,
      "y": -0.03894266113638878,
      "z": -0.010079276748001575,
      "time_usec": 54278094520
    },
    {
      "x": -0.3891211748123169,
      "y": -0.028099801391363144,
      "z": -0.01618792861700058,
      "time_usec": 54278096770
    },
    {
      "x": -0.38896843791007996,
      "y": -0.012522737495601177,
      "z": -0.013744467869400978,
      "time_usec": 54278099037
    },
    {
      "x": -0.3926336467266083,
      "y": 7.635815418325365E-4,
      "z": -0.013744467869400978,
      "time_usec": 54278101279
    },
    {
      "x": -0.3937026560306549,
      "y": 0.017562376335263252,
      "z": -0.01618792861700058,
      "time_usec": 54278103539
    },
    {
      "x": -0.3972151279449463,
      "y": 0.03222314268350601,
      "z": -0.011301007121801376,
      "time_usec": 54278105796
    },
    {
      "x": -0.3972151279449463,
      "y": 0.040622539818286896,
      "z": -0.012522737495601177,
      "time_usec": 54278108064
    },
    {
      "x": -0.3995058834552765,
      "y": 0.05742133408784866,
      "z": -0.010079276748001575,
      "time_usec": 54278110319
    },
    {
      "x": -0.4005748927593231,
      "y": 0.0731511116027832,
      "z": -0.008704829961061478,
      "time_usec": 54278112585
    },
    {
      "x": -0.4017966091632843,
      "y": 0.08628471940755844,
      "z": -0.0074830991216003895,
      "time_usec": 54278114837
    },
    {
      "x": -0.4053090810775757,
      "y": 0.1007927656173706,
      "z": -0.005039638374000788,
      "time_usec": 54278117082
    },
    {
      "x": -0.40286561846733093,
      "y": 0.10812314599752426,
      "z": -0.0013744467869400978,
      "time_usec": 54278119342
    },
    {
      "x": -0.4053090810775757,
      "y": 0.11652254313230515,
      "z": -0.0013744467869400978,
      "time_usec": 54278121615
    },
    {
      "x": -0.40653082728385925,
      "y": 0.12140946835279465,
      "z": 0.0010690141934901476,
      "time_usec": 54278123871
    },
    {
      "x": -0.40393465757369995,
      "y": 0.12247848510742188,
      "z": 0.0010690141934901476,
      "time_usec": 54278126122
    },
    {
      "x": -0.4053090810775757,
      "y": 0.12018773704767227,
      "z": 0.005955935921519995,
      "time_usec": 54278128370
    },
    {
      "x": -0.408974289894104,
      "y": 0.11545353382825851,
      "z": 0.005955935921519995,
      "time_usec": 54278130641
    },
    {
      "x": -0.4127921760082245,
      "y": 0.11423180252313614,
      "z": 0.003512475173920393,
      "time_usec": 54278132899
    },
    {
      "x": -0.40912699699401855,
      "y": 0.10934487730264664,
      "z": 0.005955935921519995,
      "time_usec": 54278135157
    },
    {
      "x": -0.4115704596042633,
      "y": 0.11178833991289139,
      "z": 0.005955935921519995,
      "time_usec": 54278137407
    },
    {
      "x": -0.4115704596042633,
      "y": 0.11301007121801376,
      "z": 0.007177666760981083,
      "time_usec": 54278139670
    },
    {
      "x": -0.41401392221450806,
      "y": 0.11194105446338654,
      "z": 0.005955935921519995,
      "time_usec": 54278141928
    },
    {
      "x": -0.4127921760082245,
      "y": 0.11178833991289139,
      "z": 0.0022907445672899485,
      "time_usec": 54278144186
    },
    {
      "x": -0.4127921760082245,
      "y": 0.1033889427781105,
      "z": 0.0022907445672899485,
      "time_usec": 54278146437
    },
    {
      "x": -0.41401392221450806,
      "y": 0.10461067408323288,
      "z": 0.003512475173920393,
      "time_usec": 54278148700
    },
    {
      "x": -0.4164573848247528,
      "y": 0.1010981947183609,
      "z": 0.0010690141934901476,
      "time_usec": 54278150957
    },
    {
      "x": -0.41401392221450806,
      "y": 0.09743300825357437,
      "z": 0.0010690141934901476,
      "time_usec": 54278153216
    },
    {
      "x": -0.4129449129104614,
      "y": 0.09010262042284012,
      "z": -1.5271631127689034E-4,
      "time_usec": 54278155471
    },
    {
      "x": -0.4092797040939331,
      "y": 0.08292495459318161,
      "z": -0.0025961773935705423,
      "time_usec": 54278157727
    },
    {
      "x": -0.4031710624694824,
      "y": 0.07681630551815033,
      "z": -1.5271631127689034E-4,
      "time_usec": 54278159988
    },
    {
      "x": -0.3995058834552765,
      "y": 0.0659734457731247,
      "z": -0.005039638374000788,
      "time_usec": 54278162245
    },
    {
      "x": -0.39584067463874817,
      "y": 0.060933809727430344,
      "z": -0.009926560334861279,
      "time_usec": 54278164501
    },
    {
      "x": -0.39584067463874817,
      "y": 0.05375614017248154,
      "z": -0.013744467869400978,
      "time_usec": 54278166755
    },
    {
      "x": -0.39095374941825867,
      "y": 0.04642575979232788,
      "z": -0.01863138936460018,
      "time_usec": 54278169016
    },
    {
      "x": -0.3885102868080139,
      "y": 0.03191770985722542,
      "z": -0.019853120669722557,
      "time_usec": 54278171274
    },
    {
      "x": -0.3862195611000061,
      "y": 0.019853120669722557,
      "z": -0.021074850112199783,
      "time_usec": 54278173531
    },
    {
      "x": -0.3813326358795166,
      "y": 0.003054326167330146,
      "z": -0.02229658141732216,
      "time_usec": 54278175783
    },
    {
      "x": -0.38026362657546997,
      "y": -0.013897184282541275,
      "z": -0.02474004216492176,
      "time_usec": 54278178042
    },
    {
      "x": -0.3804163336753845,
      "y": -0.033139441162347794,
      "z": -0.02474004216492176,
      "time_usec": 54278180304
    },
    {
      "x": -0.3793473243713379,
      "y": -0.04749477282166481,
      "z": -0.024892758578062057,
      "time_usec": 54278182562
    },
    {
      "x": -0.37827831506729126,
      "y": -0.06918048858642578,
      "z": -0.026114489883184433,
      "time_usec": 54278184819
    },
    {
      "x": -0.379652738571167,
      "y": -0.08720101416110992,
      "z": -0.024892758578062057,
      "time_usec": 54278187075
    },
    {
      "x": -0.3761402666568756,
      "y": -0.10766500234603882,
      "z": -0.02367102913558483,
      "time_usec": 54278189333
    },
    {
      "x": -0.3724750876426697,
      "y": -0.12339477986097336,
      "z": -0.022449297830462456,
      "time_usec": 54278191590
    },
    {
      "x": -0.37140607833862305,
      "y": -0.1342376321554184,
      "z": -0.024892758578062057,
      "time_usec": 54278193847
    },
    {
      "x": -0.3701843321323395,
      "y": -0.14752395451068878,
      "z": -0.02382374368607998,
      "time_usec": 54278196106
    },
    {
      "x": -0.3727805018424988,
      "y": -0.15347988903522491,
      "z": -0.022602014243602753,
      "time_usec": 54278198384
    },
    {
      "x": -0.3703370690345764,
      "y": -0.1595885455608368,
      "z": -0.022602014243602753,
      "time_usec": 54278200620
    },
    {
      "x": -0.36789360642433167,
      "y": -0.16081027686595917,
      "z": -0.02015855349600315,
      "time_usec": 54278202878
    },
    {
      "x": -0.36911532282829285,
      "y": -0.16065755486488342,
      "z": -0.021380282938480377,
      "time_usec": 54278205128
    },
    {
      "x": -0.36789360642433167,
      "y": -0.16065755486488342,
      "z": -0.017562376335263252,
      "time_usec": 54278207387
    },
    {
      "x": -0.36911532282829285,
      "y": -0.15943582355976105,
      "z": -0.015118914656341076,
      "time_usec": 54278209649
    },
    {
      "x": -0.3666718602180481,
      "y": -0.1547016203403473,
      "z": -0.012675453908741474,
      "time_usec": 54278211907
    },
    {
      "x": -0.3654501438140869,
      "y": -0.1498146951198578,
      "z": -0.004123340360820293,
      "time_usec": 54278214164
    },
    {
      "x": -0.3666718602180481,
      "y": -0.14614951610565186,
      "z": -4.5814894838258624E-4,
      "time_usec": 54278216418
    },
    {
      "x": -0.3640756905078888,
      "y": -0.1414152979850769,
      "z": 0.005803219974040985,
      "time_usec": 54278218676
    },
    {
      "x": -0.36163222789764404,
      "y": -0.13057245314121246,
      "z": 0.009468411095440388,
      "time_usec": 54278220925
    },
    {
      "x": -0.3640756905078888,
      "y": -0.11957687139511108,
      "z": 0.015577063895761967,
      "time_usec": 54278223193
    },
    {
      "x": -0.35903605818748474,
      "y": -0.10766500234603882,
      "z": 0.019394971430301666,
      "time_usec": 54278225450
    },
    {
      "x": -0.3576616048812866,
      "y": -0.09315694868564606,
