{
  "rotations": [
    {
      "x": -0.09911288321018219,
      "y": -0.04764748737215996,
      "z": -0.01924225501716137,
      "time_usec": 53368706323
    },
    {
      "x": -0.09896016865968704,
      "y": -0.04764748737215996,
      "z": -0.02168571576476097,
      "time_usec": 53368708578
    },
    {
      "x": -0.10155634582042694,
      "y": -0.04993823543190956,
      "z": -0.024129176512360573,
      "time_usec": 53368710836
    },
    {
      "x": -0.10262536257505417,
      "y": -0.04398229718208313,
      "z": -0.024129176512360573,
      "time_usec": 53368713095
    },
    {
      "x": -0.10262536257505417,
      "y": -0.042760565876960754,
      "z": -0.026572637259960175,
      "time_usec": 53368715350
    },
    {
      "x": -0.10262536257505417,
      "y": -0.03787364438176155,
      "z": -0.01924225501716137,
      "time_usec": 53368717607
    },
    {
      "x": -0.10384709388017654,
      "y": -0.0403171069920063,
      "z": -0.022907447069883347,
      "time_usec": 53368719864
    },
    {
      "x": -0.11133018881082535,
      "y": -0.03420845419168472,
      "z": -0.01924225501716137,
      "time_usec": 53368722122
    },
    {
      "x": -0.11255192011594772,
      "y": -0.030543262138962746,
      "z": -0.015577063895761967,
      "time_usec": 53368724378
    },
    {
      "x": -0.11499538272619247,
      "y": -0.02932153269648552,
      "z": -0.008246680721640587,
      "time_usec": 53368726633
    },
    {
      "x": -0.12232576310634613,
      "y": -0.021991148591041565,
      "z": -0.004581489134579897,
      "time_usec": 53368728894
    },
    {
      "x": -0.12599095702171326,
      "y": -0.010995574295520782,
      "z": 3.054326225537807E-4,
      "time_usec": 53368731152
    },
    {
      "x": -0.128434419631958,
      "y": -0.006108652334660292,
      "z": 0.004123340360820293,
      "time_usec": 53368733410
    },
    {
      "x": -0.12965615093708038,
      "y": -0.004886921960860491,
      "z": 0.0039706239476799965,
      "time_usec": 53368735666
    },
    {
      "x": -0.1333213448524475,
      "y": 0.004734205547720194,
      "z": 0.007788531947880983,
      "time_usec": 53368737923
    },
    {
      "x": -0.13209961354732513,
      "y": 0.009621127508580685,
      "z": 0.011453723534941673,
      "time_usec": 53368740181
    },
    {
      "x": -0.13576480746269226,
      "y": 0.012064588256180286,
      "z": 0.015118914656341076,
      "time_usec": 53368742438
    },
    {
      "x": -0.13454307615756989,
      "y": 0.013286318629980087,
      "z": 0.012675453908741474,
      "time_usec": 53368744695
    },
    {
      "x": -0.13698652386665344,
      "y": 0.013286318629980087,
      "z": 0.012675453908741474,
      "time_usec": 53368746953
    },
    {
      "x": -0.13820825517177582,
      "y": 0.014508049935102463,
      "z": 0.011453723534941673,
      "time_usec": 53368749211
    },
    {
      "x": -0.14065171778202057,
      "y": 0.012064588256180286,
      "z": 0.010079276748001575,
      "time_usec": 53368751468
    },
    {
      "x": -0.1394299864768982,
      "y": 0.009621127508580685,
      "z": 0.008857546374201775,
      "time_usec": 53368753725
    },
    {
      "x": -0.1420261710882187,
      "y": 0.008399397134780884,
      "z": 0.0064140851609408855,
      "time_usec": 53368755982
    },
    {
      "x": -0.13958270847797394,
      "y": 0.00366519158706069,
      "z": 0.005192354787141085,
      "time_usec": 53368758239
    },
    {
      "x": -0.1420261710882187,
      "y": 0.004886921960860491,
      "z": 0.005192354787141085,
      "time_usec": 53368760498
    },
    {
      "x": -0.13958270847797394,
      "y": 0.0,
      "z": 0.0039706239476799965,
      "time_usec": 53368762758
    },
    {
      "x": -0.1371392458677292,
      "y": 0.0012217304902151227,
      "z": 0.005192354787141085,
      "time_usec": 53368765008
    },
    {
      "x": -0.13469578325748444,
      "y": -0.0012217304902151227,
      "z": 0.007635815534740686,
      "time_usec": 53368767257
    },
    {
      "x": -0.12965615093708038,
      "y": -1.5271631127689034E-4,
      "z": 0.009010262787342072,
      "time_usec": 53368769525
    },
    {
      "x": -0.1235474944114685,
      "y": -0.003817907767370343,
      "z": 0.010231993161141872,
      "time_usec": 53368771784
    },
    {
      "x": -0.1160643994808197,
      "y": -3.054326225537807E-4,
      "z": 0.010231993161141872,
      "time_usec": 53368774044
    },
    {
      "x": -0.1085812970995903,
      "y": 7.635815418325365E-4,
      "z": 0.009010262787342072,
      "time_usec": 53368776300
    },
    {
      "x": -0.10247264802455902,
      "y": -4.5814894838258624E-4,
      "z": 0.01160643994808197,
      "time_usec": 53368778557
    },
    {
      "x": -0.08765916526317596,
      "y": -0.003054326167330146,
      "z": 0.009162978269159794,
      "time_usec": 53368780800
    },
    {
      "x": -0.07528914511203766,
      "y": 4.5814894838258624E-4,
      "z": 0.00931569468230009,
      "time_usec": 53368783057
    },
    {
      "x": -0.06414084881544113,
      "y": -9.162978967651725E-4,
      "z": 0.00931569468230009,
      "time_usec": 53368785327
    },
    {
      "x": -0.051770828664302826,
      "y": -0.004734205547720194,
      "z": 0.007024950347840786,
      "time_usec": 53368787581
    },
    {
      "x": -0.03955352306365967,
      "y": -0.00733038317412138,
      "z": 0.007024950347840786,
      "time_usec": 53368789845
    },
    {
      "x": -0.029626963660120964,
      "y": -0.012217304669320583,
      "z": 0.002138028386980295,
      "time_usec": 53368792099
    },
    {
      "x": -0.02474004216492176,
      "y": -0.018325956538319588,
      "z": 0.003359758760780096,
      "time_usec": 53368794358
    },
    {
      "x": -0.013591751456260681,
      "y": -0.020922135561704636,
      "z": -1.5271631127689034E-4,
      "time_usec": 53368796611
    },
    {
      "x": -0.0025961773935705423,
      "y": -0.030695978552103043,
      "z": -0.006261368747800589,
      "time_usec": 53368798855
    },
    {
      "x": 0.00855211354792118,
      "y": -0.03573561832308769,
      "z": -0.008704829961061478,
      "time_usec": 53368801116
    },
    {
      "x": 0.015882495790719986,
      "y": -0.044287730008363724,
      "z": -0.01237002108246088,
      "time_usec": 53368803386
    },
    {
      "x": 0.022143865004181862,
      "y": -0.04917465150356293,
      "z": -0.013591751456260681,
      "time_usec": 53368805640
    },
    {
      "x": 0.030695978552103043,
      "y": -0.052839845418930054,
      "z": -0.01725694350898266,
      "time_usec": 53368807900
    },
    {
      "x": 0.03436116874217987,
      "y": -0.05650503560900688,
      "z": -0.019547687843441963,
      "time_usec": 53368810157
    },
    {
      "x": 0.040622539818286896,
      "y": -0.060322944074869156,
      "z": -0.025656340643763542,
      "time_usec": 53368812417
    },
    {
      "x": 0.046731192618608475,
      "y": -0.06520986557006836,
      "z": -0.02687807008624077,
      "time_usec": 53368814672
    },
    {
      "x": 0.04795292019844055,
      "y": -0.06520986557006836,
      "z": -0.028099801391363144,
      "time_usec": 53368816922
    },
    {
      "x": 0.0529925599694252,
      "y": -0.06536258012056351,
      "z": -0.03176499158143997,
      "time_usec": 53368819175
    },
    {
      "x": 0.057879481464624405,
      "y": -0.06536258012056351,
      "z": -0.030543262138962746,
      "time_usec": 53368821446
    },
    {
      "x": 0.06276640295982361,
      "y": -0.06551529467105865,
      "z": -0.0354301854968071,
      "time_usec": 53368823702
    },
    {
      "x": 0.06414084881544113,
      "y": -0.06551529467105865,
      "z": -0.0354301854968071,
      "time_usec": 53368825957
    },
    {
      "x": 0.06902777403593063,
      "y": -0.0679587572813034,
      "z": -0.03787364438176155,
      "time_usec": 53368828216
    },
    {
      "x": 0.07147123664617538,
      "y": -0.0679587572813034,
      "z": -0.039095375686883926,
      "time_usec": 53368830474
    },
    {
      "x": 0.07269296050071716,
      "y": -0.06688974797725677,
      "z": -0.0403171069920063,
      "time_usec": 53368832733
    },
    {
      "x": 0.07635815441608429,
      "y": -0.06811147183179855,
      "z": -0.04153883829712868,
      "time_usec": 53368834988
    },
    {
      "x": 0.07880161702632904,
      "y": -0.07177666574716568,
      "z": -0.04153883829712868,
      "time_usec": 53368837242
    },
    {
      "x": 0.08261952549219131,
      "y": -0.07177666574716568,
      "z": -0.040164388716220856,
      "time_usec": 53368839505
    },
    {
      "x": 0.08384125679731369,
      "y": -0.0682641938328743,
      "z": -0.04382958263158798,
      "time_usec": 53368841761
    },
    {
      "x": 0.08750644326210022,
      "y": -0.0682641938328743,
      "z": -0.046273041516542435,
      "time_usec": 53368844018
    },
    {
      "x": 0.08628471940755844,
      "y": -0.06582073122262955,
      "z": -0.04505131021142006,
      "time_usec": 53368846271
    },
    {
      "x": 0.08888089656829834,
      "y": -0.06582073122262955,
      "z": -0.04505131021142006,
      "time_usec": 53368848533
    },
    {
      "x": 0.0887281745672226,
      "y": -0.0682641938328743,
      "z": -0.04382958263158798,
      "time_usec": 53368850790
    },
    {
      "x": 0.0913243517279625,
      "y": -0.06704246252775192,
      "z": -0.04505131021142006,
      "time_usec": 53368853048
    },
    {
      "x": 0.09010262042284012,
      "y": -0.06582073122262955,
      "z": -0.04260785132646561,
      "time_usec": 53368855300
    },
    {
      "x": 0.09254608303308487,
      "y": -0.06230825558304787,
      "z": -0.0377209298312664,
      "time_usec": 53368857562
    },
    {
      "x": 0.0913243517279625,
      "y": -0.0633772686123848,
      "z": -0.0377209298312664,
      "time_usec": 53368859817
    },
    {
      "x": 0.0913243517279625,
      "y": -0.06459899991750717,
      "z": -0.0377209298312664,
      "time_usec": 53368862068
    },
    {
      "x": 0.09376781433820724,
      "y": -0.06230825558304787,
      "z": -0.03405573591589928,
      "time_usec": 53368864334
    },
    {
      "x": 0.09498954564332962,
      "y": -0.0633772686123848,
      "z": -0.031612277030944824,
      "time_usec": 53368866589
    },
    {
      "x": 0.09743300825357437,
      "y": -0.06108652427792549,
      "z": -0.03145955875515938,
      "time_usec": 53368868850
    },
    {
      "x": 0.1036943718791008,
      "y": -0.06230825558304787,
      "z": -0.029016099870204926,
      "time_usec": 53368871101
    },
    {
      "x": 0.1036943718791008,
      "y": -0.06108652427792549,
      "z": -0.026572637259960175,
      "time_usec": 53368873363
    },
    {
      "x": 0.10735956579446793,
      "y": -0.059864792972803116,
      "z": -0.022907447069883347,
      "time_usec": 53368875616
    },
    {
      "x": 0.10980302840471268,
      "y": -0.05757404863834381,
      "z": -0.022907447069883347,
      "time_usec": 53368877877
    },
    {
      "x": 0.1085812970995903,
      "y": -0.056352317333221436,
      "z": -0.022907447069883347,
      "time_usec": 53368880136
    },
    {
      "x": 0.1111774742603302,
      "y": -0.04917465150356293,
      "z": -0.020311269909143448,
      "time_usec": 53368882394
    },
    {
      "x": 0.10980302840471268,
      "y": -0.050243668258190155,
      "z": -0.014202617108821869,
      "time_usec": 53368884648
    },
    {
      "x": 0.1085812970995903,
      "y": -0.047800205647945404,
      "z": -0.01542434748262167,
      "time_usec": 53368886895
    },
    {
      "x": 0.1085812970995903,
      "y": -0.047800205647945404,
      "z": -0.014202617108821869,
      "time_usec": 53368889165
    },
    {
      "x": 0.10247264802455902,
      "y": -0.047800205647945404,
      "z": -0.01191187184303999,
      "time_usec": 53368891423
    },
    {
      "x": 0.10247264802455902,
      "y": -0.04535674303770065,
      "z": -0.01191187184303999,
      "time_usec": 53368893681
    },
    {
      "x": 0.10002918541431427,
      "y": -0.0429132841527462,
      "z": -0.006872233934700489,
      "time_usec": 53368895921
    },
    {
      "x": 0.09254608303308487,
      "y": -0.045204028487205505,
      "z": -0.004581489134579897,
      "time_usec": 53368898179
    },
    {
      "x": 0.09010262042284012,
      "y": -0.045204028487205505,
      "z": -0.007024950347840786,
      "time_usec": 53368900436
    },
    {
      "x": 0.08643743395805359,
      "y": -0.04153883829712868,
      "z": -0.004581489134579897,
      "time_usec": 53368902700
    },
    {
      "x": 0.07895433157682419,
      "y": -0.04734205827116966,
      "z": -0.004581489134579897,
      "time_usec": 53368904969
    },
    {
      "x": 0.07284568250179291,
      "y": -0.04245513305068016,
      "z": -0.004581489134579897,
      "time_usec": 53368907222
    },
    {
      "x": 0.06154467165470123,
      "y": -0.04841107130050659,
      "z": -0.005955935921519995,
      "time_usec": 53368909484
    },
    {
      "x": 0.05543602257966995,
      "y": -0.04948008432984352,
      "z": -0.005955935921519995,
      "time_usec": 53368911740
    },
    {
      "x": 0.04917465150356293,
      "y": -0.05192354694008827,
      "z": -0.009773843921720982,
      "time_usec": 53368913996
    },
    {
      "x": 0.033139441162347794,
      "y": -0.055283304303884506,
      "z": -0.00855211354792118,
      "time_usec": 53368916248
    },
    {
      "x": 0.024434609338641167,
      "y": -0.05513058975338936,
      "z": -0.006261368747800589,
      "time_usec": 53368918498
    },
    {
      "x": 0.018325956538319588,
      "y": -0.05742133408784866,
      "z": -0.0025961773935705423,
      "time_usec": 53368920765
    },
    {
      "x": 0.005955935921519995,
      "y": -0.05726861581206322,
      "z": -1.5271631127689034E-4,
      "time_usec": 53368923016
    },
    {
      "x": -3.054326225537807E-4,
      "y": -0.05345070734620094,
      "z": 0.004734205547720194,
      "time_usec": 53368925278
    },
    {
      "x": -0.010231993161141872,
      "y": -0.05696318298578262,
      "z": 0.003359758760780096,
      "time_usec": 53368927528
    },
    {
      "x": -0.017562376335263252,
      "y": -0.05451972410082817,
      "z": 0.007024950347840786,
      "time_usec": 53368929802
    },
    {
      "x": -0.025045474991202354,
      "y": -0.054367005825042725,
      "z": 0.010690141469240189,
      "time_usec": 53368932055
    },
    {
      "x": -0.02871066704392433,
      "y": -0.054367005825042725,
      "z": 0.013133603148162365,
      "time_usec": 53368934310
    },
    {
      "x": -0.03375030308961868,
      "y": -0.051770828664302826,
      "z": 0.016798794269561768,
      "time_usec": 53368936564
    },
    {
      "x": -0.04108068719506264,
      "y": -0.04566217586398125,
      "z": 0.016798794269561768,
      "time_usec": 53368938824
    },
    {
      "x": -0.04352414980530739,
      "y": -0.04199698567390442,
      "z": 0.01924225501716137,
      "time_usec": 53368941072
    },
    {
      "x": -0.04856378585100174,
      "y": -0.04795292019844055,
      "z": 0.017867809161543846,
      "time_usec": 53368943340
    },
    {
      "x": -0.04856378585100174,
      "y": -0.0455094613134861,
      "z": 0.020311269909143448,
      "time_usec": 53368945595
    },
    {
      "x": -0.049785517156124115,
      "y": -0.04917465150356293,
      "z": 0.019089538604021072,
      "time_usec": 53368947879
    },
    {
      "x": -0.05100724846124649,
      "y": -0.0503963828086853,
      "z": 0.01664607785642147,
      "time_usec": 53368950113
    },
    {
      "x": -0.05467243865132332,
      "y": -0.05390885844826698,
      "z": 0.012980886735022068,
      "time_usec": 53368952370
    },
    {
      "x": -0.05345070734620094,
      "y": -0.058795779943466187,
      "z": 0.010537425056099892,
      "time_usec": 53368954609
    },
    {
      "x": -0.054825156927108765,
      "y": -0.06001751124858856,
      "z": 0.010537425056099892,
      "time_usec": 53368956877
    },
    {
      "x": -0.05360342562198639,
      "y": -0.06352998316287994,
      "z": 0.011759156361222267,
      "time_usec": 53368959130
    },
    {
      "x": -0.054825156927108765,
      "y": -0.0708603709936142,
      "z": 0.010537425056099892,
      "time_usec": 53368961404
    },
    {
      "x": -0.054825156927108765,
      "y": -0.0708603709936142,
      "z": 0.006872233934700489,
      "time_usec": 53368963658
    },
    {
      "x": -0.05360342562198639,
      "y": -0.06719517707824707,
      "z": 0.00931569468230009,
      "time_usec": 53368965914
    },
    {
      "x": -0.05360342562198639,
      "y": -0.0659734457731247,
      "z": 0.00931569468230009,
      "time_usec": 53368968172
    },
    {
      "x": -0.05100724846124649,
      "y": -0.062460970133543015,
      "z": 0.004428773187100887,
      "time_usec": 53368970430
    },
    {
      "x": -0.049785517156124115,
      "y": -0.06368270516395569,
      "z": 0.004428773187100887,
      "time_usec": 53368972688
    },
    {
      "x": -0.049785517156124115,
      "y": -0.06490442901849747,
      "z": 7.635815418325365E-4,
      "time_usec": 53368974943
    },
    {
      "x": -0.04856378585100174,
      "y": -0.06368270516395569,
      "z": 0.0032070425804704428,
      "time_usec": 53368977196
    },
    {
      "x": -0.04734205827116966,
      "y": -0.06490442901849747,
      "z": 0.004428773187100887,
      "time_usec": 53368979456
    },
    {
      "x": -0.04230241850018501,
      "y": -0.06261368840932846,
      "z": 7.635815418325365E-4,
      "time_usec": 53368981704
    },
    {
      "x": -0.04245513305068016,
      "y": -0.06979135423898697,
      "z": -4.5814894838258624E-4,
      "time_usec": 53368983975
    },
    {
      "x": -0.04001167416572571,
      "y": -0.07101308554410934,
      "z": 7.635815418325365E-4,
      "time_usec": 53368986226
    },
    {
      "x": -0.03878994286060333,
      "y": -0.0734565481543541,
      "z": -4.5814894838258624E-4,
      "time_usec": 53368988493
    },
    {
      "x": -0.03756821155548096,
      "y": -0.07590000331401825,
      "z": -4.5814894838258624E-4,
      "time_usec": 53368990748
    },
    {
      "x": -0.032681290060281754,
      "y": -0.08078692853450775,
      "z": 0.0019853119738399982,
      "time_usec": 53368993003
    },
    {
      "x": -0.030237829312682152,
      "y": -0.08445212244987488,
      "z": 7.635815418325365E-4,
      "time_usec": 53368995255
    },
    {
      "x": -0.026572637259960175,
      "y": -0.08811730891466141,
      "z": -4.5814894838258624E-4,
      "time_usec": 53368997512
    },
    {
      "x": -0.02535090781748295,
      "y": -0.08933904021978378,
      "z": 7.635815418325365E-4,
      "time_usec": 53368999772
    },
    {
      "x": -0.022907447069883347,
      "y": -0.09300423413515091,
      "z": -0.001679879380390048,
      "time_usec": 53369002022
    },
    {
      "x": -0.020463986322283745,
      "y": -0.09544769674539566,
      "z": -4.5814894838258624E-4,
      "time_usec": 53369004286
    },
    {
      "x": -0.019089538604021072,
      "y": -0.09789115190505981,
      "z": -0.004123340360820293,
      "time_usec": 53369006542
    },
    {
      "x": -0.017867809161543846,
      "y": -0.09911288321018219,
      "z": -0.0065668015740811825,
      "time_usec": 53369008803
    },
    {
      "x": -0.01664607785642147,
      "y": -0.10155634582042694,
      "z": -0.005345070734620094,
      "time_usec": 53369011063
    },
    {
      "x": -0.014202617108821869,
      "y": -0.10277807712554932,
      "z": -0.0065668015740811825,
      "time_usec": 53369013318
    },
    {
      "x": -0.015577063895761967,
      "y": -0.10506882518529892,
      "z": -0.0065668015740811825,
      "time_usec": 53369015573
    },
    {
      "x": -0.012980886735022068,
      "y": -0.10033461451530457,
      "z": -0.0065668015740811825,
      "time_usec": 53369017830
    },
    {
      "x": -0.01542434748262167,
      "y": -0.09789115190505981,
      "z": -0.009010262787342072,
      "time_usec": 53369020092
    },
    {
      "x": -0.014202617108821869,
      "y": -0.09789115190505981,
      "z": -0.005345070734620094,
      "time_usec": 53369022342
    },
    {
      "x": -0.011759156361222267,
      "y": -0.09315694868564606,
      "z": -0.005192354787141085,
      "time_usec": 53369024606
    },
    {
      "x": -0.01542434748262167,
      "y": -0.09193521738052368,
      "z": -0.001527163083665073,
      "time_usec": 53369026858
    },
    {
      "x": -0.012828170321881771,
      "y": -0.08460483700037003,
      "z": -0.001527163083665073,
      "time_usec": 53369029122
    },
    {
      "x": -0.019089538604021072,
      "y": -0.07849618047475815,
      "z": 0.002138028386980295,
      "time_usec": 53369031378
    },
    {
      "x": -0.01771509274840355,
      "y": -0.07376197725534439,
      "z": 0.002138028386980295,
      "time_usec": 53369033635
    },
    {
      "x": -0.016493361443281174,
      "y": -0.07009678333997726,
      "z": 0.004581489134579897,
      "time_usec": 53369035888
    },
    {
      "x": -0.016493361443281174,
      "y": -0.06291911751031876,
      "z": 0.002138028386980295,
      "time_usec": 53369038151
    },
    {
      "x": -0.015118914656341076,
      "y": -0.058184914290905,
      "z": 0.005803219974040985,
      "time_usec": 53369040407
    },
    {
      "x": -0.012675453908741474,
      "y": -0.05207626149058342,
      "z": 0.008246680721640587,
      "time_usec": 53369042666
    },
    {
      "x": -0.007635815534740686,
      "y": -0.046273041516542435,
      "z": 0.005955935921519995,
      "time_usec": 53369044921
    },
    {
      "x": -1.5271631127689034E-4,
      "y": -0.04505131021142006,
      "z": 0.005955935921519995,
      "time_usec": 53369047176
    },
    {
      "x": 0.007177666760981083,
      "y": -0.045204028487205505,
      "z": 0.010842857882380486,
      "time_usec": 53369049433
    },
    {
      "x": 0.012217304669320583,
      "y": -0.041691552847623825,
      "z": 0.00855211354792118,
      "time_usec": 53369051694
    },
    {
      "x": 0.01710422709584236,
      "y": -0.04046982154250145,
      "z": 0.010995574295520782,
      "time_usec": 53369053951
    },
    {
      "x": 0.02076941914856434,
      "y": -0.040622539818286896,
      "z": 0.004886921960860491,
      "time_usec": 53369056202
    },
    {
      "x": 0.030695978552103043,
      "y": -0.04306599870324135,
      "z": 0.006108652334660292,
      "time_usec": 53369058450
    },
    {
      "x": 0.035582900047302246,
      "y": -0.04917465150356293,
      "z": 0.00855211354792118,
      "time_usec": 53369060708
    },
    {
      "x": 0.039248090237379074,
      "y": -0.052839845418930054,
      "z": 0.00733038317412138,
      "time_usec": 53369062970
    },
    {
      "x": 0.046731192618608475,
      "y": -0.05054909735918045,
      "z": 0.003817907767370343,
      "time_usec": 53369065240
    },
    {
      "x": 0.05161811411380768,
      "y": -0.0529925599694252,
      "z": 0.0025961773935705423,
      "time_usec": 53369067490
    },
    {
      "x": 0.05650503560900688,
      "y": -0.05665775015950203,
      "z": 0.0025961773935705423,
      "time_usec": 53369069740
    },
    {
      "x": 0.06276640295982361,
      "y": -0.05910121276974678,
      "z": 0.0013744467869400978,
      "time_usec": 53369071998
    },
    {
      "x": 0.06276640295982361,
      "y": -0.05925392732024193,
      "z": -0.003512475173920393,
      "time_usec": 53369074265
    },
    {
      "x": 0.06398813426494598,
      "y": -0.056810468435287476,
      "z": -0.0010690141934901476,
      "time_usec": 53369076512
    },
    {
      "x": 0.06902777403593063,
      "y": -0.05696318298578262,
      "z": -0.004734205547720194,
      "time_usec": 53369078770
    },
    {
      "x": 0.07147123664617538,
      "y": -0.058184914290905,
      "z": -0.004734205547720194,
      "time_usec": 53369081026
    },
    {
      "x": 0.07269296050071716,
      "y": -0.05451972410082817,
      "z": -0.004734205547720194,
      "time_usec": 53369083284
    },
    {
      "x": 0.07651086896657944,
      "y": -0.05100724846124649,
      "z": -0.009621127508580685,
      "time_usec": 53369085541
    },
    {
      "x": 0.07284568250179291,
      "y": -0.04382958263158798,
      "z": -0.013286318629980087,
      "time_usec": 53369087802
    },
    {
      "x": 0.07528914511203766,
      "y": -0.03894266113638878,
      "z": -0.01191187184303999,
      "time_usec": 53369090070
    },
    {
      "x": 0.07406741380691528,
      "y": -0.03420845419168472,
      "z": -0.013286318629980087,
      "time_usec": 53369092319
    },
    {
      "x": 0.07406741380691528,
      "y": -0.030543262138962746,
      "z": -0.010690141469240189,
      "time_usec": 53369094576
    },
    {
      "x": 0.07299839705228806,
      "y": -0.025656340643763542,
      "z": -0.009468411095440388,
      "time_usec": 53369096826
    },
    {
      "x": 0.0705549344420433,
      "y": -0.01970040425658226,
      "z": -0.007024950347840786,
      "time_usec": 53369099090
    },
    {
      "x": 0.06918048858642578,
      "y": -0.019547687843441963,
      "z": -0.003359758760780096,
      "time_usec": 53369101345
    },
    {
      "x": 0.0705549344420433,
      "y": -0.016035212203860283,
      "z": -0.002138028386980295,
      "time_usec": 53369103613
    },
    {
      "x": 0.06673702597618103,
      "y": -0.015882495790719986,
      "z": 3.054326225537807E-4,
      "time_usec": 53369105856
    },
    {
      "x": 0.0656680166721344,
      "y": -0.01114829070866108,
      "z": -9.162978967651725E-4,
      "time_usec": 53369108118
    },
    {
      "x": 0.0630718395113945,
      "y": -0.01466076634824276,
      "z": 0.001527163083665073,
      "time_usec": 53369110386
    },
    {
      "x": 0.059406645596027374,
      "y": -0.013439035043120384,
      "z": 0.0039706239476799965,
      "time_usec": 53369112643
    },
    {
      "x": 0.059406645596027374,
      "y": -0.01710422709584236,
      "z": 0.001527163083665073,
      "time_usec": 53369114888
    },
    {
      "x": 0.05803219974040985,
      "y": -0.020616702735424042,
      "z": 0.005192354787141085,
      "time_usec": 53369117145
    },
    {
      "x": 0.05925392732024193,
      "y": -0.025503624230623245,
      "z": 0.0025961773935705423,
      "time_usec": 53369119398
    },
    {
      "x": 0.0555887371301651,
      "y": -0.02779436856508255,
      "z": 0.005039638374000788,
      "time_usec": 53369121659
    },
    {
      "x": 0.05803219974040985,
      "y": -0.03145955875515938,
      "z": 0.006261368747800589,
      "time_usec": 53369123918
    },
    {
      "x": 0.05925392732024193,
      "y": -0.03741549700498581,
      "z": 0.0013744467869400978,
      "time_usec": 53369126189
    },
    {
      "x": 0.05910121276974678,
      "y": -0.04230241850018501,
      "z": 0.0025961773935705423,
      "time_usec": 53369128445
    },
    {
      "x": 0.05543602257966995,
      "y": -0.04459316283464432,
      "z": 0.0013744467869400978,
      "time_usec": 53369130689
    },
    {
      "x": 0.05665775015950203,
      "y": -0.0507018156349659,
      "z": -0.0022907445672899485,
      "time_usec": 53369132946
    },
    {
      "x": 0.05543602257966995,
      "y": -0.05192354694008827,
      "z": -0.0010690141934901476,
      "time_usec": 53369135213
    },
    {
      "x": 0.05543602257966995,
      "y": -0.05314527451992035,
      "z": -0.003512475173920393,
      "time_usec": 53369137460
    },
    {
      "x": 0.052839845418930054,
      "y": -0.05421429127454758,
      "z": -0.003512475173920393,
      "time_usec": 53369139718
    },
    {
      "x": 0.05161811411380768,
      "y": -0.05192354694008827,
      "z": -0.003512475173920393,
      "time_usec": 53369141972
    },
    {
      "x": 0.04932736977934837,
      "y": -0.04459316283464432,
      "z": -0.003512475173920393,
      "time_usec": 53369144234
    },
    {
      "x": 0.04566217586398125,
      "y": -0.03726277872920036,
      "z": -0.003512475173920393,
      "time_usec": 53369146495
    },
    {
      "x": 0.04688390716910362,
      "y": -0.03130684420466423,
      "z": -0.003512475173920393,
      "time_usec": 53369148752
    },
    {
      "x": 0.04444044828414917,
      "y": -0.020463986322283745,
      "z": -0.0010690141934901476,
      "time_usec": 53369151020
    },
    {
      "x": 0.04092797264456749,
      "y": -0.014355333521962166,
      "z": -0.0022907445672899485,
      "time_usec": 53369153269
    },
    {
      "x": 0.037110064178705215,
      "y": -0.013133603148162365,
      "z": -0.0022907445672899485,
      "time_usec": 53369155521
    },
    {
      "x": 0.031001411378383636,
      "y": -0.007024950347840786,
      "z": -0.0010690141934901476,
      "time_usec": 53369157784
    },
    {
      "x": 0.02733621932566166,
      "y": -0.003359758760780096,
      "z": -0.0012217304902151227,
      "time_usec": 53369160048
    },
    {
      "x": 0.02122756652534008,
      "y": -0.002138028386980295,
      "z": -0.0012217304902151227,
      "time_usec": 53369162308
    },
    {
      "x": 0.01878410577774048,
      "y": 0.0027488935738801956,
      "z": -0.0012217304902151227,
      "time_usec": 53369164564
    },
    {
      "x": 0.015118914656341076,
      "y": 0.0039706239476799965,
      "z": -0.0012217304902151227,
      "time_usec": 53369166814
    },
    {
      "x": 0.011301007121801376,
      "y": 0.008857546374201775,
      "z": 0.0024434609804302454,
      "time_usec": 53369169077
    },
    {
      "x": 0.010079276748001575,
      "y": 0.013744467869400978,
      "z": 0.006108652334660292,
      "time_usec": 53369171330
    },
    {
      "x": 0.0064140851609408855,
      "y": 0.012522737495601177,
      "z": 0.006108652334660292,
      "time_usec": 53369173579
    },
    {
      "x": 0.0039706239476799965,
      "y": 0.019853120669722557,
      "z": 0.00366519158706069,
      "time_usec": 53369175843
    },
    {
      "x": 0.004123340360820293,
      "y": 0.027030786499381065,
      "z": 0.004886921960860491,
      "time_usec": 53369178105
    },
    {
      "x": 0.001679879380390048,
      "y": 0.029474247246980667,
      "z": 0.004886921960860491,
      "time_usec": 53369180366
    },
    {
      "x": 0.0029016099870204926,
      "y": 0.030695978552103043,
      "z": 0.004886921960860491,
      "time_usec": 53369182620
    },
    {
      "x": -7.635815418325365E-4,
      "y": 0.033139441162347794,
      "z": 0.006108652334660292,
      "time_usec": 53369184862
    },
    {
      "x": 0.001679879380390048,
      "y": 0.03420845419168472,
      "z": 0.004886921960860491,
      "time_usec": 53369187119
    },
    {
      "x": 0.0029016099870204926,
      "y": 0.0354301854968071,
      "z": 0.004886921960860491,
      "time_usec": 53369189376
    },
    {
      "x": 0.0029016099870204926,
      "y": 0.03787364438176155,
      "z": 0.00366519158706069,
      "time_usec": 53369191640
    },
    {
      "x": 0.004123340360820293,
      "y": 0.03787364438176155,
      "z": 0.00366519158706069,
      "time_usec": 53369193909
    },
    {
      "x": 0.004123340360820293,
      "y": 0.03787364438176155,
      "z": 0.006108652334660292,
      "time_usec": 53369196162
    },
    {
      "x": 0.004123340360820293,
      "y": 0.03420845419168472,
      "z": 0.00366519158706069,
      "time_usec": 53369198424
    },
    {
      "x": 0.001679879380390048,
      "y": 0.03298672288656235,
      "z": 0.00366519158706069,
      "time_usec": 53369200677
    },
    {
      "x": 0.005345070734620094,
      "y": 0.03176499158143997,
      "z": 0.0024434609804302454,
      "time_usec": 53369202938
    },
    {
      "x": 0.0065668015740811825,
      "y": 0.025656340643763542,
      "z": -0.0012217304902151227,
      "time_usec": 53369205193
    },
    {
      "x": 0.010231993161141872,
      "y": 0.025656340643763542,
      "z": -0.00366519158706069,
      "time_usec": 53369207446
    },
    {
      "x": 0.010231993161141872,
      "y": 0.025656340643763542,
      "z": -0.00366519158706069,
      "time_usec": 53369209708
    },
    {
      "x": 0.009010262787342072,
      "y": 0.024434609338641167,
      "z": -0.004886921960860491,
      "time_usec": 53369211966
    },
    {
      "x": 0.011453723534941673,
      "y": 0.02076941914856434,
      "z": -0.00855211354792118,
      "time_usec": 53369214223
    },
    {
      "x": 0.014049900695681572,
      "y": 0.021991148591041565,
      "z": -0.00855211354792118,
      "time_usec": 53369216476
    },
    {
      "x": 0.016493361443281174,
      "y": 0.02076941914856434,
      "z": -0.00855211354792118,
      "time_usec": 53369218740
    },
    {
      "x": 0.01771509274840355,
      "y": 0.015882495790719986,
      "z": -0.012217304669320583,
      "time_usec": 53369220990
    },
    {
      "x": 0.02015855349600315,
      "y": 0.009773843921720982,
      "z": -0.01466076634824276,
      "time_usec": 53369223240
    },
    {
      "x": 0.02382374368607998,
      "y": 0.00855211354792118,
      "z": -0.013439035043120384,
      "time_usec": 53369225503
    },
    {
      "x": 0.027488935738801956,
      "y": 0.006108652334660292,
      "z": -0.01466076634824276,
      "time_usec": 53369227763
    },
    {
      "x": 0.02871066704392433,
      "y": 0.0012217304902151227,
      "z": -0.019547687843441963,
      "time_usec": 53369230027
    },
    {
      "x": 0.031154127791523933,
      "y": -0.0024434609804302454,
      "z": -0.02076941914856434,
      "time_usec": 53369232279
    },
    {
      "x": 0.03726277872920036,
      "y": -0.00733038317412138,
      "z": -0.024434609338641167,
      "time_usec": 53369234540
    },
    {
      "x": 0.04352414980530739,
      "y": -0.012217304669320583,
      "z": -0.030543262138962746,
      "time_usec": 53369236792
    },
    {
      "x": 0.047189339995384216,
      "y": -0.018325956538319588,
      "z": -0.02932153269648552,
      "time_usec": 53369239054
    },
    {
      "x": 0.04963280260562897,
      "y": -0.024434609338641167,
      "z": -0.03298672288656235,
      "time_usec": 53369241311
    },
    {
      "x": 0.053297992795705795,
      "y": -0.024434609338641167,
      "z": -0.0354301854968071,
      "time_usec": 53369243566
    },
    {
      "x": 0.06185010448098183,
      "y": -0.03176499158143997,
      "z": -0.04153883829712868,
      "time_usec": 53369245821
    },
    {
      "x": 0.0630718395113945,
      "y": -0.0354301854968071,
      "z": -0.0403171069920063,
      "time_usec": 53369248083
    },
    {
      "x": 0.06551529467105865,
      "y": -0.039095375686883926,
      "z": -0.04398229718208313,
      "time_usec": 53369250341
    },
    {
      "x": 0.06673702597618103,
      "y": -0.046273041516542435,
      "z": -0.04642575979232788,
      "time_usec": 53369252599
    },
    {
      "x": 0.07040221989154816,
      "y": -0.04764748737215996,
      "z": -0.04886921867728233,
      "time_usec": 53369254856
    },
    {
      "x": 0.06918048858642578,
      "y": -0.04764748737215996,
      "z": -0.04886921867728233,
      "time_usec": 53369257108
    },
    {
      "x": 0.07162395119667053,
      "y": -0.05115996301174164,
      "z": -0.04886921867728233,
      "time_usec": 53369259370
    },
    {
      "x": 0.07162395119667053,
      "y": -0.05360342562198639,
      "z": -0.04886921867728233,
      "time_usec": 53369261627
    },
    {
      "x": 0.06551529467105865,
      "y": -0.05360342562198639,
      "z": -0.04764748737215996,
      "time_usec": 53369263885
    },
    {
      "x": 0.06536258012056351,
      "y": -0.05711590126156807,
      "z": -0.04642575979232788,
      "time_usec": 53369266137
    },
    {
      "x": 0.06536258012056351,
      "y": -0.05711590126156807,
      "z": -0.04642575979232788,
      "time_usec": 53369268399
    },
    {
      "x": 0.06169738993048668,
      "y": -0.05711590126156807,
      "z": -0.04764748737215996,
      "time_usec": 53369270654
    },
    {
      "x": 0.06169738993048668,
      "y": -0.06185010448098183,
      "z": -0.042760565876960754,
      "time_usec": 53369272917
    },
    {
      "x": 0.06291911751031876,
      "y": -0.06185010448098183,
      "z": -0.045204028487205505,
      "time_usec": 53369275170
    },
    {
      "x": 0.05910121276974678,
      "y": -0.06429356336593628,
      "z": -0.04153883829712868,
      "time_usec": 53369277425
    },
    {
      "x": 0.05910121276974678,
      "y": -0.06673702597618103,
      "z": -0.045204028487205505,
      "time_usec": 53369279685
    },
    {
      "x": 0.057879481464624405,
      "y": -0.06429356336593628,
      "z": -0.045204028487205505,
      "time_usec": 53369281940
    },
    {
      "x": 0.05543602257966995,
      "y": -0.06536258012056351,
      "z": -0.042760565876960754,
      "time_usec": 53369284205
    },
    {
      "x": 0.05421429127454758,
      "y": -0.059406645596027374,
      "z": -0.039095375686883926,
      "time_usec": 53369286453
    },
    {
      "x": 0.0529925599694252,
      "y": -0.05696318298578262,
      "z": -0.0354301854968071,
      "time_usec": 53369288717
    },
    {
      "x": 0.056810468435287476,
      "y": -0.055741455405950546,
      "z": -0.036651913076639175,
      "time_usec": 53369290974
    },
    {
      "x": 0.0555887371301651,
      "y": -0.050854530185461044,
      "z": -0.036651913076639175,
      "time_usec": 53369293231
    },
    {
      "x": 0.0555887371301651,
      "y": -0.04856378585100174,
      "z": -0.03420845419168472,
      "time_usec": 53369295482
    },
    {
      "x": 0.056810468435287476,
      "y": -0.04245513305068016,
      "z": -0.030543262138962746,
      "time_usec": 53369297739
    },
    {
      "x": 0.0555887371301651,
      "y": -0.04001167416572571,
      "z": -0.02932153269648552,
      "time_usec": 53369300002
    },
    {
      "x": 0.054367005825042725,
      "y": -0.03649919852614403,
      "z": -0.02932153269648552,
      "time_usec": 53369302257
    },
    {
      "x": 0.05314527451992035,
      "y": -0.03527746722102165,
      "z": -0.028099801391363144,
      "time_usec": 53369304517
    },
    {
      "x": 0.05192354694008827,
      "y": -0.029168816283345222,
      "z": -0.028099801391363144,
      "time_usec": 53369306766
    },
    {
      "x": 0.0555887371301651,
      "y": -0.03039054572582245,
      "z": -0.02428189292550087,
      "time_usec": 53369309020
    },
    {
      "x": 0.05696318298578262,
      "y": -0.02672535367310047,
      "z": -0.021838432177901268,
      "time_usec": 53369311286
    },
    {
      "x": 0.05696318298578262,
      "y": -0.025503624230623245,
      "z": -0.020616702735424042,
      "time_usec": 53369313547
    },
    {
      "x": 0.055741455405950546,
      "y": -0.021991148591041565,
      "z": -0.016951510682702065,
      "time_usec": 53369315802
    },
    {
      "x": 0.058184914290905,
      "y": -0.015882495790719986,
      "z": -0.013286318629980087,
      "time_usec": 53369318059
    },
    {
      "x": 0.059406645596027374,
      "y": -0.01237002108246088,
      "z": -0.013286318629980087,
      "time_usec": 53369320306
    },
    {
      "x": 0.06444628536701202,
      "y": -0.005192354787141085,
      "z": -0.01191187184303999,
      "time_usec": 53369322575
    },
    {
      "x": 0.0607810914516449,
      "y": -0.001527163083665073,
      "z": -0.007024950347840786,
      "time_usec": 53369324832
    },
    {
      "x": 0.06200282275676727,
      "y": 0.004581489134579897,
      "z": -0.004581489134579897,
      "time_usec": 53369327090
    },
    {
      "x": 0.06200282275676727,
      "y": 0.010537425056099892,
      "z": 0.0027488935738801956,
      "time_usec": 53369329349
    },
    {
      "x": 0.06582073122262955,
      "y": 0.010537425056099892,
      "z": 0.0039706239476799965,
      "time_usec": 53369331605
    },
    {
      "x": 0.07192938029766083,
      "y": 0.010537425056099892,
      "z": 0.0039706239476799965,
      "time_usec": 53369333863
    },
    {
      "x": 0.0731511116027832,
      "y": 0.00809396430850029,
      "z": 0.0027488935738801956,
      "time_usec": 53369336115
    },
    {
      "x": 0.07559457421302795,
      "y": 0.00809396430850029,
      "z": 0.009010262787342072,
      "time_usec": 53369338377
    },
    {
      "x": 0.07925976812839508,
      "y": 0.0032070425804704428,
      "z": 0.0065668015740811825,
      "time_usec": 53369340631
    },
    {
      "x": 0.08048149943351746,
      "y": 0.006719517521560192,
      "z": 0.0065668015740811825,
      "time_usec": 53369342894
    },
    {
      "x": 0.08170322328805923,
      "y": 0.005650503560900688,
      "z": 0.009010262787342072,
      "time_usec": 53369345149
    },
    {
      "x": 0.08292495459318161,
      "y": 0.004428773187100887,
      "z": 0.011453723534941673,
      "time_usec": 53369347403
    },
    {
      "x": 0.08536841720342636,
      "y": 0.0019853119738399982,
      "z": 0.015118914656341076,
      "time_usec": 53369349665
    },
    {
      "x": 0.08918632566928864,
      "y": 7.635815418325365E-4,
      "z": 0.015118914656341076,
      "time_usec": 53369351921
    },
    {
      "x": 0.08918632566928864,
      "y": 0.0019853119738399982,
      "z": 0.016340645030140877,
      "time_usec": 53369354179
    },
    {
      "x": 0.08918632566928864,
      "y": 0.00427605677396059,
      "z": 0.017562376335263252,
      "time_usec": 53369356431
    },
    {
      "x": 0.08918632566928864,
      "y": 0.0019853119738399982,
      "z": 0.017562376335263252,
      "time_usec": 53369358693
    },
    {
      "x": 0.09040805697441101,
      "y": 0.006719517521560192,
      "z": 0.017562376335263252,
      "time_usec": 53369360952
    },
    {
      "x": 0.08918632566928864,
      "y": 0.01160643994808197,
      "z": 0.018936822190880775,
      "time_usec": 53369363211
    },
    {
      "x": 0.08429940044879913,
      "y": 0.012828170321881771,
      "z": 0.01878410577774048,
      "time_usec": 53369365458
    },
    {
      "x": 0.08674286305904388,
      "y": 0.015271631069481373,
      "z": 0.01878410577774048,
      "time_usec": 53369367710
    },
    {
      "x": 0.08552113175392151,
      "y": 0.014049900695681572,
      "z": 0.016340645030140877,
      "time_usec": 53369369980
    },
    {
      "x": 0.08185594528913498,
      "y": 0.014049900695681572,
      "z": 0.015118914656341076,
      "time_usec": 53369372239
    },
    {
      "x": 0.07941248267889023,
      "y": 0.014049900695681572,
      "z": 0.013897184282541275,
      "time_usec": 53369374497
    },
    {
      "x": 0.07696902006864548,
      "y": 0.02015855349600315,
      "z": 0.013897184282541275,
      "time_usec": 53369376746
    },
    {
      "x": 0.07192938029766083,
      "y": 0.02015855349600315,
      "z": 0.010231993161141872,
      "time_usec": 53369379005
    },
    {
      "x": 0.06948592513799667,
      "y": 0.01664607785642147,
      "z": 0.010231993161141872,
      "time_usec": 53369381262
    },
    {
      "x": 0.0682641938328743,
      "y": 0.012980886735022068,
      "z": 0.007635815534740686,
      "time_usec": 53369383518
    },
    {
      "x": 0.06688974797725677,
      "y": 0.00931569468230009,
      "z": 0.010079276748001575,
      "time_usec": 53369385777
    },
    {
      "x": 0.0607810914516449,
      "y": 0.009468411095440388,
      "z": 0.010079276748001575,
      "time_usec": 53369388036
    },
    {
      "x": 0.055741455405950546,
      "y": 0.005955935921519995,
      "z": 0.008857546374201775,
      "time_usec": 53369390302
    },
    {
      "x": 0.050854530185461044,
      "y": 0.0024434609804302454,
      "z": 0.008857546374201775,
      "time_usec": 53369392558
    },
    {
      "x": 0.04337143152952194,
      "y": -0.003512475173920393,
      "z": 0.008704829961061478,
      "time_usec": 53369394811
    },
    {
      "x": 0.039706241339445114,
      "y": -0.0022907445672899485,
      "z": 0.006261368747800589,
      "time_usec": 53369397063
    },
    {
      "x": 0.03344487398862839,
      "y": -0.003512475173920393,
      "z": 0.003817907767370343,
      "time_usec": 53369399324
    },
    {
      "x": 0.02733621932566166,
      "y": -0.00931569468230009,
      "z": 0.004886921960860491,
      "time_usec": 53369401572
    },
    {
      "x": 0.026114489883184433,
      "y": -0.005803219974040985,
      "z": 0.00366519158706069,
      "time_usec": 53369403841
    },
    {
      "x": 0.021074850112199783,
      "y": -0.004428773187100887,
      "z": 0.0024434609804302454,
      "time_usec": 53369406093
    },
    {
      "x": 0.01618792861700058,
      "y": -0.004428773187100887,
      "z": 0.0024434609804302454,
      "time_usec": 53369408357
    },
    {
      "x": 0.012522737495601177,
      "y": -0.006719517521560192,
      "z": 0.006108652334660292,
      "time_usec": 53369410609
    },
    {
      "x": 0.010079276748001575,
      "y": -0.003054326167330146,
      "z": 0.006108652334660292,
      "time_usec": 53369412871
    },
    {
      "x": 0.008704829961061478,
      "y": -0.00427605677396059,
      "z": 0.004886921960860491,
      "time_usec": 53369415126
    },
    {
      "x": 0.006261368747800589,
      "y": -0.00427605677396059,
      "z": 0.00855211354792118,
      "time_usec": 53369417381
    },
    {
      "x": 0.008704829961061478,
      "y": -0.005497787147760391,
      "z": 0.00855211354792118,
      "time_usec": 53369419636
    },
    {
      "x": 0.008704829961061478,
      "y": -0.006719517521560192,
      "z": 0.006108652334660292,
      "time_usec": 53369421887
    },
    {
      "x": 0.009926560334861279,
      "y": -0.007941247895359993,
      "z": 0.00733038317412138,
      "time_usec": 53369424156
    },
    {
      "x": 0.0074830991216003895,
      "y": -0.010231993161141872,
      "z": 0.00733038317412138,
      "time_usec": 53369426410
    },
    {
      "x": 0.009926560334861279,
      "y": -0.016340645030140877,
      "z": 0.0024434609804302454,
      "time_usec": 53369428675
    },
    {
      "x": 0.008704829961061478,
      "y": -0.016340645030140877,
      "z": 0.0024434609804302454,
      "time_usec": 53369430929
    },
    {
      "x": 0.01114829070866108,
      "y": -0.01878410577774048,
      "z": 0.0,
      "time_usec": 53369433187
    },
    {
      "x": 0.016035212203860283,
      "y": -0.02367102913558483,
      "z": -0.00366519158706069,
      "time_usec": 53369435440
    },
    {
      "x": 0.01725694350898266,
      "y": -0.02733621932566166,
      "z": -0.0024434609804302454,
      "time_usec": 53369437696
    },
    {
      "x": 0.01725694350898266,
      "y": -0.02733621932566166,
      "z": -0.004886921960860491,
      "time_usec": 53369439959
    },
    {
      "x": 0.01970040425658226,
      "y": -0.028557950630784035,
      "z": -0.00366519158706069,
      "time_usec": 53369442217
    },
    {
      "x": 0.023365596309304237,
      "y": -0.02977968007326126,
      "z": -0.004886921960860491,
      "time_usec": 53369444473
    },
    {
      "x": 0.024587325751781464,
      "y": -0.03222314268350601,
      "z": -0.00366519158706069,
      "time_usec": 53369446725
    },
    {
      "x": 0.028405234217643738,
      "y": -0.02871066704392433,
      "z": -0.0024434609804302454,
      "time_usec": 53369448988
    },
    {
      "x": 0.025961773470044136,
      "y": -0.025045474991202354,
      "z": -0.0012217304902151227,
      "time_usec": 53369451247
    },
    {
      "x": 0.03084869496524334,
      "y": -0.02275473065674305,
      "z": 0.0,
      "time_usec": 53369453504
    },
    {
      "x": 0.03222314268350601,
      "y": -0.017867809161543846,
      "z": 0.0,
      "time_usec": 53369455754
    },
    {
      "x": 0.03222314268350601,
      "y": -0.01542434748262167,
      "z": 0.0013744467869400978,
      "time_usec": 53369458015
    },
    {
      "x": 0.03222314268350601,
      "y": -0.007024950347840786,
      "z": 0.0025961773935705423,
      "time_usec": 53369460269
    },
    {
      "x": 0.03481931984424591,
      "y": -0.0022907445672899485,
      "z": 0.0025961773935705423,
      "time_usec": 53369462533
    },
    {
      "x": 0.03481931984424591,
      "y": 0.00366519158706069,
      "z": 0.0025961773935705423,
      "time_usec": 53369464788
    },
    {
      "x": 0.03726277872920036,
      "y": 0.00855211354792118,
      "z": 0.003817907767370343,
      "time_usec": 53369467043
    },
    {
      "x": 0.03741549700498581,
      "y": 0.012064588256180286,
      "z": 0.003817907767370343,
      "time_usec": 53369469305
    },
    {
      "x": 0.03741549700498581,
      "y": 0.012064588256180286,
      "z": 0.003817907767370343,
      "time_usec": 53369471562
    },
    {
      "x": 0.038637228310108185,
      "y": 0.01572977937757969,
      "z": 0.005039638374000788,
      "time_usec": 53369473806
    },
    {
      "x": 0.04108068719506264,
      "y": 0.018020525574684143,
      "z": 0.0025961773935705423,
      "time_usec": 53369476060
    },
    {
      "x": 0.04596760869026184,
      "y": 0.015577063895761967,
      "z": 0.0013744467869400978,
      "time_usec": 53369478320
    },
    {
      "x": 0.05100724846124649,
      "y": 0.015577063895761967,
      "z": 0.0039706239476799965,
      "time_usec": 53369480594
    },
    {
      "x": 0.05345070734620094,
      "y": 0.01191187184303999,
      "z": -9.162978967651725E-4,
      "time_usec": 53369482851
    },
    {
      "x": 0.055894169956445694,
      "y": 0.01191187184303999,
      "z": -0.002138028386980295,
      "time_usec": 53369485106
    },
    {
      "x": 0.05955936014652252,
      "y": 0.005803219974040985,
      "z": -0.002138028386980295,
      "time_usec": 53369487351
    },
    {
      "x": 0.05955936014652252,
      "y": 0.002138028386980295,
      "z": -0.002138028386980295,
      "time_usec": 53369489621
    },
    {
      "x": 0.06322455406188965,
      "y": -0.003817907767370343,
      "z": -0.003359758760780096,
      "time_usec": 53369491877
    },
    {
      "x": 0.06811147183179855,
      "y": -0.0039706239476799965,
      "z": -0.003359758760780096,
      "time_usec": 53369494137
    },
    {
      "x": 0.07299839705228806,
      "y": -0.012522737495601177,
      "z": -0.005803219974040985,
      "time_usec": 53369496387
    },
    {
      "x": 0.07559457421302795,
      "y": -0.011301007121801376,
      "z": -0.007024950347840786,
      "time_usec": 53369498649
    },
    {
      "x": 0.07681630551815033,
      "y": -0.011301007121801376,
      "z": -0.008246680721640587,
      "time_usec": 53369500907
    },
    {
      "x": 0.07925976812839508,
      "y": -0.010231993161141872,
      "z": -0.013133603148162365,
      "time_usec": 53369503166
    },
    {
      "x": 0.07925976812839508,
      "y": -0.012522737495601177,
      "z": -0.013133603148162365,
      "time_usec": 53369505424
    },
    {
      "x": 0.08048149943351746,
      "y": -0.011453723534941673,
      "z": -0.018020525574684143,
      "time_usec": 53369507676
    },
    {
      "x": 0.0806342139840126,
      "y": -0.005497787147760391,
      "z": -0.01924225501716137,
      "time_usec": 53369509937
    },
    {
      "x": 0.08307767659425735,
      "y": -0.00427605677396059,
      "z": -0.02168571576476097,
      "time_usec": 53369512193
    },
    {
      "x": 0.08429940044879913,
      "y": -0.001832595793530345,
      "z": -0.02168571576476097,
      "time_usec": 53369514450
    },
    {
      "x": 0.08689557760953903,
      "y": 0.004123340360820293,
      "z": -0.024129176512360573,
      "time_usec": 53369516703
    },
    {
      "x": 0.08307767659425735,
      "y": 0.0065668015740811825,
      "z": -0.022907447069883347,
      "time_usec": 53369518963
    },
    {
      "x": 0.0832303911447525,
      "y": 0.012522737495601177,
      "z": -0.02168571576476097,
      "time_usec": 53369521211
    },
    {
      "x": 0.08445212244987488,
      "y": 0.01970040425658226,
      "z": -0.020463986322283745,
      "time_usec": 53369523481
    },
    {
      "x": 0.08445212244987488,
      "y": 0.020922135561704636,
      "z": -0.02168571576476097,
      "time_usec": 53369525734
    },
    {
      "x": 0.08078692853450775,
      "y": 0.022143865004181862,
      "z": -0.02168571576476097,
      "time_usec": 53369528000
    },
    {
      "x": 0.07956519722938538,
      "y": 0.021074850112199783,
      "z": -0.018020525574684143,
      "time_usec": 53369530257
    },
    {
      "x": 0.08200865983963013,
      "y": 0.021074850112199783,
      "z": -0.01924225501716137,
      "time_usec": 53369532508
    },
    {
      "x": 0.08078692853450775,
      "y": 0.02229658141732216,
      "z": -0.015577063895761967,
      "time_usec": 53369534753
    },
    {
      "x": 0.08078692853450775,
      "y": 0.023518312722444534,
      "z": -0.018020525574684143,
      "time_usec": 53369537018
    },
    {
      "x": 0.08078692853450775,
      "y": 0.021074850112199783,
      "z": -0.01924225501716137,
      "time_usec": 53369539274
    },
    {
      "x": 0.08445212244987488,
      "y": 0.014966198243200779,
      "z": -0.018020525574684143,
      "time_usec": 53369541530
    },
    {
      "x": 0.08689557760953903,
      "y": 0.010079276748001575,
      "z": -0.01924225501716137,
      "time_usec": 53369543784
    },
    {
      "x": 0.08811730891466141,
      "y": 0.0029016099870204926,
      "z": -0.018020525574684143,
      "time_usec": 53369546047
    },
    {
      "x": 0.09162978827953339,
      "y": -0.01038470957428217,
      "z": -0.02168571576476097,
      "time_usec": 53369548301
    },
    {
      "x": 0.09162978827953339,
      "y": -0.02122756652534008,
      "z": -0.024129176512360573,
      "time_usec": 53369550560
    },
    {
      "x": 0.08903361111879349,
      "y": -0.029626963660120964,
      "z": -0.02779436856508255,
      "time_usec": 53369552828
    },
    {
      "x": 0.09025534242391586,
      "y": -0.038179077208042145,
      "z": -0.030237829312682152,
      "time_usec": 53369555086
    },
    {
      "x": 0.09025534242391586,
      "y": -0.044135015457868576,
      "z": -0.03649919852614403,
      "time_usec": 53369557338
    },
    {
      "x": 0.08765916526317596,
      "y": -0.05742133408784866,
      "z": -0.0377209298312664,
      "time_usec": 53369559598
    },
    {
      "x": 0.08506298810243607,
      "y": -0.06933320313692093,
      "z": -0.04260785132646561,
      "time_usec": 53369561856
    },
    {
      "x": 0.08261952549219131,
      "y": -0.07299839705228806,
      "z": -0.04382958263158798,
      "time_usec": 53369564113
    },
    {
      "x": 0.07880161702632904,
      "y": -0.07895433157682419,
      "z": -0.045204028487205505,
      "time_usec": 53369566362
    },
    {
      "x": 0.07880161702632904,
      "y": -0.08261952549219131,
      "z": -0.04398229718208313,
      "time_usec": 53369568614
    },
    {
      "x": 0.07620543986558914,
      "y": -0.08979719132184982,
      "z": -0.045204028487205505,
      "time_usec": 53369570885
    },
    {
      "x": 0.07880161702632904,
      "y": -0.09224065393209457,
      "z": -0.045204028487205505,
      "time_usec": 53369573144
    },
    {
      "x": 0.07254024595022202,
      "y": -0.09208793938159943,
      "z": -0.042760565876960754,
      "time_usec": 53369575402
    },
    {
      "x": 0.07131851464509964,
      "y": -0.09086620807647705,
      "z": -0.039095375686883926,
      "time_usec": 53369577652
    },
    {
      "x": 0.07131851464509964,
      "y": -0.09086620807647705,
      "z": -0.0403171069920063,
      "time_usec": 53369579916
    },
    {
      "x": 0.07131851464509964,
      "y": -0.08368854224681854,
      "z": -0.0403171069920063,
      "time_usec": 53369582168
    },
    {
      "x": 0.07391469180583954,
      "y": -0.07757988572120667,
      "z": -0.03787364438176155,
      "time_usec": 53369584416
    },
    {
      "x": 0.07269296050071716,
      "y": -0.07040221989154816,
      "z": -0.0354301854968071,
      "time_usec": 53369586680
    },
    {
      "x": 0.07773260027170181,
      "y": -0.06322455406188965,
      "z": -0.03405573591589928,
      "time_usec": 53369588944
    },
    {
      "x": 0.08765916526317596,
      "y": -0.05253441259264946,
      "z": -0.0328340083360672,
      "time_usec": 53369591204
    },
    {
      "x": 0.08888089656829834,
      "y": -0.04535674303770065,
      "z": -0.031612277030944824,
      "time_usec": 53369593459
    },
    {
      "x": 0.09514226019382477,
      "y": -0.03695734590291977,
      "z": -0.032681290060281754,
      "time_usec": 53369595711
    },
    {
      "x": 0.10262536257505417,
      "y": -0.03222314268350601,
      "z": -0.03145955875515938,
      "time_usec": 53369597974
    },
    {
      "x": 0.11010845750570297,
      "y": -0.02519819140434265,
      "z": -0.032681290060281754,
      "time_usec": 53369600227
    },
    {
      "x": 0.11759155988693237,
      "y": -0.027641652151942253,
      "z": -0.030085112899541855,
      "time_usec": 53369602477
    },
    {
      "x": 0.12492194026708603,
      "y": -0.022907447069883347,
      "z": -0.03130684420466423,
      "time_usec": 53369604744
    },
    {
      "x": 0.12492194026708603,
      "y": -0.02535090781748295,
      "z": -0.03497203439474106,
      "time_usec": 53369606997
    },
    {
      "x": 0.1287398487329483,
      "y": -0.02535090781748295,
      "z": -0.036193765699863434,
      "time_usec": 53369609259
    },
    {
      "x": 0.13484850525856018,
      "y": -0.02672535367310047,
      "z": -0.038637228310108185,
      "time_usec": 53369611517
    },
    {
      "x": 0.13729196786880493,
      "y": -0.031612277030944824,
      "z": -0.038637228310108185,
      "time_usec": 53369613775
    },
    {
      "x": 0.1385136991739273,
      "y": -0.03634648025035858,
      "z": -0.04108068719506264,
      "time_usec": 53369616026
    },
    {
      "x": 0.1385136991739273,
      "y": -0.04001167416572571,
      "z": -0.04352414980530739,
      "time_usec": 53369618273
    },
    {
      "x": 0.1371392458677292,
      "y": -0.047189339995384216,
      "z": -0.04596760869026184,
      "time_usec": 53369620534
    },
    {
      "x": 0.13836097717285156,
      "y": -0.053297992795705795,
      "z": -0.047189339995384216,
      "time_usec": 53369622805
    },
    {
      "x": 0.13469578325748444,
      "y": -0.06414084881544113,
      "z": -0.05467243865132332,
      "time_usec": 53369625063
    },
    {
      "x": 0.13209961354732513,
      "y": -0.07009678333997726,
      "z": -0.05345070734620094,
      "time_usec": 53369627316
    },
    {
      "x": 0.13087788224220276,
      "y": -0.07483099400997162,
      "z": -0.055894169956445694,
      "time_usec": 53369629574
    },
    {
      "x": 0.12828169763088226,
      "y": -0.0832303911447525,
      "z": -0.05345070734620094,
      "time_usec": 53369631834
    },
    {
      "x": 0.12217304855585098,
      "y": -0.08078692853450775,
      "z": -0.05467243865132332,
      "time_usec": 53369634092
    },
    {
      "x": 0.12202033400535583,
      "y": -0.08674286305904388,
      "z": -0.052228979766368866,
      "time_usec": 53369636344
    },
    {
      "x": 0.11468994617462158,
      "y": -0.08903361111879349,
      "z": -0.05115996301174164,
      "time_usec": 53369638603
    },
    {
      "x": 0.11331550031900406,
      "y": -0.09147707372903824,
      "z": -0.05115996301174164,
      "time_usec": 53369640847
    },
    {
      "x": 0.1033889427781105,
      "y": -0.09498954564332962,
      "z": -0.04993823543190956,
      "time_usec": 53369643106
    },
    {
      "x": 0.09728029370307922,
      "y": -0.09972374886274338,
      "z": -0.04749477282166481,
      "time_usec": 53369645364
    },
    {
      "x": 0.08857546001672745,
      "y": -0.10552696883678436,
      "z": -0.045204028487205505,
      "time_usec": 53369647622
    },
    {
      "x": 0.0835358202457428,
      "y": -0.11026117950677872,
      "z": -0.04398229718208313,
      "time_usec": 53369649883
    },
    {
      "x": 0.07483099400997162,
      "y": -0.1137736514210701,
      "z": -0.04153883829712868,
