{
  "rotations": [
    {
      "x": -0.0455094613134861,
      "y": 0.019394971430301666,
      "z": 0.0708603709936142,
      "time_usec": 51314596956
    },
    {
      "x": -0.04184427112340927,
      "y": 0.014508049935102463,
      "z": 0.0659734457731247,
      "time_usec": 51314599213
    },
    {
      "x": -0.03573561832308769,
      "y": 0.008399397134780884,
      "z": 0.06841690838336945,
      "time_usec": 51314601457
    },
    {
      "x": -0.03329215571284294,
      "y": 0.007177666760981083,
      "z": 0.06230825558304787,
      "time_usec": 51314603727
    },
    {
      "x": -0.024587325751781464,
      "y": 0.004734205547720194,
      "z": 0.06368270516395569,
      "time_usec": 51314605984
    },
    {
      "x": -0.028405234217643738,
      "y": 0.0022907445672899485,
      "z": 0.059864792972803116,
      "time_usec": 51314608245
    },
    {
      "x": -0.028405234217643738,
      "y": 0.0022907445672899485,
      "z": 0.06368270516395569,
      "time_usec": 51314610499
    },
    {
      "x": -0.03084869496524334,
      "y": 0.003512475173920393,
      "z": 0.06475171446800232,
      "time_usec": 51314612757
    },
    {
      "x": -0.03084869496524334,
      "y": 0.0022907445672899485,
      "z": 0.06352998316287994,
      "time_usec": 51314615013
    },
    {
      "x": -0.03329215571284294,
      "y": 0.009621127508580685,
      "z": 0.0659734457731247,
      "time_usec": 51314617267
    },
    {
      "x": -0.038179077208042145,
      "y": 0.013286318629980087,
      "z": 0.0659734457731247,
      "time_usec": 51314619511
    },
    {
      "x": -0.040622539818286896,
      "y": 0.016951510682702065,
      "z": 0.0659734457731247,
      "time_usec": 51314621771
    },
    {
      "x": -0.044287730008363724,
      "y": 0.020616702735424042,
      "z": 0.06841690838336945,
      "time_usec": 51314624040
    },
    {
      "x": -0.0455094613134861,
      "y": 0.023060163483023643,
      "z": 0.0659734457731247,
      "time_usec": 51314626296
    },
    {
      "x": -0.0503963828086853,
      "y": 0.02672535367310047,
      "z": 0.06475171446800232,
      "time_usec": 51314628559
    },
    {
      "x": -0.052839845418930054,
      "y": 0.03145955875515938,
      "z": 0.0659734457731247,
      "time_usec": 51314630814
    },
    {
      "x": -0.05772676691412926,
      "y": 0.03756821155548096,
      "z": 0.06719517707824707,
      "time_usec": 51314633071
    },
    {
      "x": -0.061391957104206085,
      "y": 0.04612032696604729,
      "z": 0.06963863968849182,
      "time_usec": 51314635327
    },
    {
      "x": -0.06505715101957321,
      "y": 0.049785517156124115,
      "z": 0.0659734457731247,
      "time_usec": 51314637583
    },
    {
      "x": -0.06750060617923737,
      "y": 0.058184914290905,
      "z": 0.06719517707824707,
      "time_usec": 51314639841
    },
    {
      "x": -0.06994406878948212,
      "y": 0.06291911751031876,
      "z": 0.06352998316287994,
      "time_usec": 51314642098
    },
    {
      "x": -0.07483099400997162,
      "y": 0.06551529467105865,
      "z": 0.06841690838336945,
      "time_usec": 51314644355
    },
    {
      "x": -0.07727445662021637,
      "y": 0.07147123664617538,
      "z": 0.0659734457731247,
      "time_usec": 51314646613
    },
    {
      "x": -0.0809396430850029,
      "y": 0.07391469180583954,
      "z": 0.06459899991750717,
      "time_usec": 51314648869
    },
    {
      "x": -0.08720101416110992,
      "y": 0.07406741380691528,
      "z": 0.06704246252775192,
      "time_usec": 51314651122
    },
    {
      "x": -0.09208793938159943,
      "y": 0.07528914511203766,
      "z": 0.060933809727430344,
      "time_usec": 51314653384
    },
    {
      "x": -0.09697485715150833,
      "y": 0.08384125679731369,
      "z": 0.060933809727430344,
      "time_usec": 51314655641
    },
    {
      "x": -0.09941831976175308,
      "y": 0.08491026610136032,
      "z": 0.05726861581206322,
      "time_usec": 51314657899
    },
    {
      "x": -0.10308351367712021,
      "y": 0.08261952549219131,
      "z": 0.05467243865132332,
      "time_usec": 51314660154
    },
    {
      "x": -0.10690141469240189,
      "y": 0.07788532227277756,
      "z": 0.05467243865132332,
      "time_usec": 51314662407
    },
    {
      "x": -0.11423180252313614,
      "y": 0.06948592513799667,
      "z": 0.05100724846124649,
      "time_usec": 51314664655
    },
    {
      "x": -0.11927144229412079,
      "y": 0.059864792972803116,
      "z": 0.044745877385139465,
      "time_usec": 51314666915
    },
    {
      "x": -0.11804971098899841,
      "y": 0.05497787147760391,
      "z": 0.04108068719506264,
      "time_usec": 51314669171
    },
    {
      "x": -0.12553280591964722,
      "y": 0.04184427112340927,
      "z": 0.036193765699863434,
      "time_usec": 51314671441
    },
    {
      "x": -0.12690725922584534,
      "y": 0.03344487398862839,
      "z": 0.029932396486401558,
      "time_usec": 51314673698
    },
    {
      "x": -0.12568552792072296,
      "y": 0.026114489883184433,
      "z": 0.02626720629632473,
      "time_usec": 51314675945
    },
    {
      "x": -0.13072516024112701,
      "y": 0.01771509274840355,
      "z": 0.021380282938480377,
      "time_usec": 51314678214
    },
    {
      "x": -0.1319468915462494,
      "y": 0.010537425056099892,
      "z": 0.015118914656341076,
      "time_usec": 51314680471
    },
    {
      "x": -0.13439035415649414,
      "y": 0.00809396430850029,
      "z": 0.011453723534941673,
      "time_usec": 51314682726
    },
    {
      "x": -0.13316862285137177,
      "y": 0.006872233934700489,
      "z": 0.009010262787342072,
      "time_usec": 51314684983
    },
    {
      "x": -0.1319468915462494,
      "y": 0.0019853119738399982,
      "z": 0.0065668015740811825,
      "time_usec": 51314687231
    },
    {
      "x": -0.1319468915462494,
      "y": -0.001527163083665073,
      "z": 0.004123340360820293,
      "time_usec": 51314689483
    },
    {
      "x": -0.1319468915462494,
      "y": -0.005192354787141085,
      "z": -7.635815418325365E-4,
      "time_usec": 51314691741
    },
    {
      "x": -0.12950342893600464,
      "y": -0.008857546374201775,
      "z": -0.004428773187100887,
      "time_usec": 51314694006
    },
    {
      "x": -0.12965615093708038,
      "y": -0.016035212203860283,
      "z": -0.007024950347840786,
      "time_usec": 51314696257
    },
    {
      "x": -0.12721268832683563,
      "y": -0.022143865004181862,
      "z": -0.01191187184303999,
      "time_usec": 51314698514
    },
    {
      "x": -0.12095131725072861,
      "y": -0.029474247246980667,
      "z": -0.015577063895761967,
      "time_usec": 51314700770
    },
    {
      "x": -0.1160643994808197,
      "y": -0.03191770985722542,
      "z": -0.01664607785642147,
      "time_usec": 51314703029
    },
    {
      "x": -0.11362093687057495,
      "y": -0.03680463135242462,
      "z": -0.019089538604021072,
      "time_usec": 51314705286
    },
    {
      "x": -0.1062905490398407,
      "y": -0.04184427112340927,
      "z": -0.023976460099220276,
      "time_usec": 51314707543
    },
    {
      "x": -0.10506882518529892,
      "y": -0.04535674303770065,
      "z": -0.026419922709465027,
      "time_usec": 51314709803
    },
    {
      "x": -0.0988074541091919,
      "y": -0.04795292019844055,
      "z": -0.02886338345706463,
      "time_usec": 51314712068
    },
    {
      "x": -0.09636399149894714,
      "y": -0.05161811411380768,
      "z": -0.03375030308961868,
      "time_usec": 51314714329
    },
    {
      "x": -0.09147707372903824,
      "y": -0.05161811411380768,
      "z": -0.036193765699863434,
      "time_usec": 51314716583
    },
    {
      "x": -0.08521570265293121,
      "y": -0.05421429127454758,
      "z": -0.036193765699863434,
      "time_usec": 51314718826
    },
    {
      "x": -0.08399397134780884,
      "y": -0.05421429127454758,
      "z": -0.03985895588994026,
      "time_usec": 51314721086
    },
    {
      "x": -0.07910704612731934,
      "y": -0.05192354694008827,
      "z": -0.04230241850018501,
      "time_usec": 51314723350
    },
    {
      "x": -0.07910704612731934,
      "y": -0.05192354694008827,
      "z": -0.04108068719506264,
      "time_usec": 51314725601
    },
    {
      "x": -0.07773260027170181,
      "y": -0.04703662544488907,
      "z": -0.04230241850018501,
      "time_usec": 51314727860
    },
    {
      "x": -0.07773260027170181,
      "y": -0.04581489413976669,
      "z": -0.04108068719506264,
      "time_usec": 51314730112
    },
    {
      "x": -0.07895433157682419,
      "y": -0.04108068719506264,
      "z": -0.03985895588994026,
      "time_usec": 51314732371
    },
    {
      "x": -0.08017606288194656,
      "y": -0.03375030308961868,
      "z": -0.038637228310108185,
      "time_usec": 51314734628
    },
    {
      "x": -0.08384125679731369,
      "y": -0.030237829312682152,
      "z": -0.03985895588994026,
      "time_usec": 51314736885
    },
    {
      "x": -0.08750644326210022,
      "y": -0.02535090781748295,
      "z": -0.03741549700498581,
      "time_usec": 51314739144
    },
    {
      "x": -0.0887281745672226,
      "y": -0.02275473065674305,
      "z": -0.030085112899541855,
      "time_usec": 51314741403
    },
    {
      "x": -0.09239336848258972,
      "y": -0.018020525574684143,
      "z": -0.02886338345706463,
      "time_usec": 51314743672
    },
    {
      "x": -0.09483683109283447,
      "y": -0.01191187184303999,
      "z": -0.023976460099220276,
      "time_usec": 51314745929
    },
    {
      "x": -0.09728029370307922,
      "y": -0.003359758760780096,
      "z": -0.016493361443281174,
      "time_usec": 51314748184
    },
    {
      "x": -0.10094548016786575,
      "y": 0.001527163083665073,
      "z": -0.018936822190880775,
      "time_usec": 51314750427
    },
    {
      "x": -0.1033889427781105,
      "y": 0.01725694350898266,
      "z": -0.007941247895359993,
      "time_usec": 51314752690
    },
    {
      "x": -0.10949759185314178,
      "y": 0.023365596309304237,
      "z": -0.006719517521560192,
      "time_usec": 51314754942
    },
    {
      "x": -0.11194105446338654,
      "y": 0.0354301854968071,
      "z": 0.00427605677396059,
      "time_usec": 51314757214
    },
    {
      "x": -0.11560624837875366,
      "y": 0.04153883829712868,
      "z": 0.005497787147760391,
      "time_usec": 51314759455
    },
    {
      "x": -0.11682797968387604,
      "y": 0.04642575979232788,
      "z": 0.01038470957428217,
      "time_usec": 51314761718
    },
    {
      "x": -0.12049316614866257,
      "y": 0.054825156927108765,
      "z": 0.014049900695681572,
      "time_usec": 51314763983
    },
    {
      "x": -0.1215621829032898,
      "y": 0.06459899991750717,
      "z": 0.019089538604021072,
      "time_usec": 51314766241
    },
    {
      "x": -0.12400564551353455,
      "y": 0.0754418596625328,
      "z": 0.02519819140434265,
      "time_usec": 51314768488
    },
    {
      "x": -0.12522737681865692,
      "y": 0.08155050873756409,
      "z": 0.027641652151942253,
      "time_usec": 51314770751
    },
    {
      "x": -0.1264491081237793,
      "y": 0.09117163717746735,
      "z": 0.030085112899541855,
      "time_usec": 51314772999
    },
    {
      "x": -0.12767083942890167,
      "y": 0.09605856239795685,
      "z": 0.03375030308961868,
      "time_usec": 51314775273
    },
    {
      "x": -0.1287398487329483,
      "y": 0.10567969083786011,
      "z": 0.038637228310108185,
      "time_usec": 51314777527
    },
    {
      "x": -0.12996158003807068,
      "y": 0.11178833991289139,
      "z": 0.043676864355802536,
      "time_usec": 51314779785
    },
    {
      "x": -0.1287398487329483,
      "y": 0.11774427443742752,
      "z": 0.04734205827116966,
      "time_usec": 51314782035
    },
    {
      "x": -0.13240504264831543,
      "y": 0.12018773704767227,
      "z": 0.05100724846124649,
      "time_usec": 51314784298
    },
    {
      "x": -0.13607023656368256,
      "y": 0.1215621829032898,
      "z": 0.05100724846124649,
      "time_usec": 51314786555
    },
    {
      "x": -0.13744467496871948,
      "y": 0.11911872029304504,
      "z": 0.055894169956445694,
      "time_usec": 51314788812
    },
    {
      "x": -0.13988813757896423,
      "y": 0.11789698898792267,
      "z": 0.055894169956445694,
      "time_usec": 51314791064
    },
    {
      "x": -0.13988813757896423,
      "y": 0.11789698898792267,
      "z": 0.055894169956445694,
      "time_usec": 51314793328
    },
    {
      "x": -0.1437060534954071,
      "y": 0.11560624837875366,
      "z": 0.059406645596027374,
      "time_usec": 51314795584
    },
    {
      "x": -0.14614951610565186,
      "y": 0.11453723162412643,
      "z": 0.06062837690114975,
      "time_usec": 51314797839
    },
    {
      "x": -0.14737124741077423,
      "y": 0.11209376901388168,
      "z": 0.0630718395113945,
      "time_usec": 51314800084
    },
    {
      "x": -0.15103642642498016,
      "y": 0.10980302840471268,
      "z": 0.0630718395113945,
      "time_usec": 51314802350
    },
    {
      "x": -0.15363261103630066,
      "y": 0.10491610318422318,
      "z": 0.06551529467105865,
      "time_usec": 51314804612
    },
    {
      "x": -0.15485434234142303,
      "y": 0.10384709388017654,
      "z": 0.06551529467105865,
      "time_usec": 51314806873
    },
    {
      "x": -0.1586722433567047,
      "y": 0.09544769674539566,
      "z": 0.07040221989154816,
      "time_usec": 51314809127
    },
    {
      "x": -0.16233743727207184,
      "y": 0.09315694868564606,
      "z": 0.0679587572813034,
      "time_usec": 51314811380
    },
    {
      "x": -0.1661553531885147,
      "y": 0.08597928285598755,
      "z": 0.06902777403593063,
      "time_usec": 51314813641
    },
    {
      "x": -0.16859880089759827,
      "y": 0.08231408894062042,
      "z": 0.06902777403593063,
      "time_usec": 51314815898
    },
    {
      "x": -0.17241671681404114,
      "y": 0.08124507963657379,
      "z": 0.07147123664617538,
      "time_usec": 51314818157
    },
    {
      "x": -0.17608191072940826,
      "y": 0.07528914511203766,
      "z": 0.07024950534105301,
      "time_usec": 51314820416
    },
    {
      "x": -0.17989981174468994,
      "y": 0.07162395119667053,
      "z": 0.06902777403593063,
      "time_usec": 51314822664
    },
    {
      "x": -0.18356500566005707,
      "y": 0.06811147183179855,
      "z": 0.07269296050071716,
      "time_usec": 51314824926
    },
    {
      "x": -0.1849394589662552,
      "y": 0.06688974797725677,
      "z": 0.07147123664617538,
      "time_usec": 51314827180
    },
    {
      "x": -0.19104810059070587,
      "y": 0.06704246252775192,
      "z": 0.07131851464509964,
      "time_usec": 51314829437
    },
    {
      "x": -0.19349156320095062,
      "y": 0.06582073122262955,
      "z": 0.07254024595022202,
      "time_usec": 51314831693
    },
    {
      "x": -0.20097467303276062,
      "y": 0.06948592513799667,
      "z": 0.07009678333997726,
      "time_usec": 51314833955
    },
    {
      "x": -0.20463985204696655,
      "y": 0.07192938029766083,
      "z": 0.06765332818031311,
      "time_usec": 51314836213
    },
    {
      "x": -0.20830504596233368,
      "y": 0.06963863968849182,
      "z": 0.06643159687519073,
      "time_usec": 51314838469
    },
    {
      "x": -0.21212296187877655,
      "y": 0.06612616032361984,
      "z": 0.06627888232469559,
      "time_usec": 51314840722
    },
    {
      "x": -0.21700987219810486,
      "y": 0.06368270516395569,
      "z": 0.06261368840932846,
      "time_usec": 51314842981
    },
    {
      "x": -0.22189679741859436,
      "y": 0.06261368840932846,
      "z": 0.061391957104206085,
      "time_usec": 51314845241
    },
    {
      "x": -0.22449298202991486,
      "y": 0.06017022579908371,
      "z": 0.05772676691412926,
      "time_usec": 51314847500
    },
    {
      "x": -0.23060162365436554,
      "y": 0.05543602257966995,
      "z": 0.05513058975338936,
      "time_usec": 51314849753
    },
    {
      "x": -0.23808473348617554,
      "y": 0.0507018156349659,
      "z": 0.05146539583802223,
      "time_usec": 51314852007
    },
    {
      "x": -0.24174992740154266,
      "y": 0.04948008432984352,
      "z": 0.04764748737215996,
      "time_usec": 51314854269
    },
    {
      "x": -0.24434609711170197,
      "y": 0.04581489413976669,
      "z": 0.045204028487205505,
      "time_usec": 51314856527
    },
    {
      "x": -0.25045475363731384,
      "y": 0.04108068719506264,
      "z": 0.042760565876960754,
      "time_usec": 51314858783
    },
    {
      "x": -0.2554943859577179,
      "y": 0.03756821155548096,
      "z": 0.0403171069920063,
      "time_usec": 51314861035
    },
    {
      "x": -0.2591595947742462,
      "y": 0.0328340083360672,
      "z": 0.03527746722102165,
      "time_usec": 51314863298
    },
    {
      "x": -0.266642689704895,
      "y": 0.02687807008624077,
      "z": 0.0328340083360672,
      "time_usec": 51314865554
    },
    {
      "x": -0.26801711320877075,
      "y": 0.013591751456260681,
      "z": 0.029016099870204926,
      "time_usec": 51314867813
    },
    {
      "x": -0.26801711320877075,
      "y": 0.007635815534740686,
      "z": 0.029016099870204926,
      "time_usec": 51314870066
    },
    {
      "x": -0.27290403842926025,
      "y": 0.0039706239476799965,
      "z": 0.026572637259960175,
      "time_usec": 51314872311
    },
    {
      "x": -0.2742784917354584,
      "y": 4.5814894838258624E-4,
      "z": 0.022907447069883347,
      "time_usec": 51314874571
    },
    {
      "x": -0.2742784917354584,
      "y": -0.004428773187100887,
      "z": 0.01924225501716137,
      "time_usec": 51314876841
    },
    {
      "x": -0.2742784917354584,
      "y": -0.004428773187100887,
      "z": 0.015577063895761967,
      "time_usec": 51314879101
    },
    {
      "x": -0.27550023794174194,
      "y": -0.00809396430850029,
      "z": 0.00931569468230009,
      "time_usec": 51314881352
    },
    {
      "x": -0.2718350291252136,
      "y": -0.00809396430850029,
      "z": 0.006872233934700489,
      "time_usec": 51314883608
    },
    {
      "x": -0.2704605758190155,
      "y": -0.008246680721640587,
      "z": 0.004428773187100887,
      "time_usec": 51314885869
    },
    {
      "x": -0.2692388594150543,
      "y": -0.008246680721640587,
      "z": -4.5814894838258624E-4,
      "time_usec": 51314888127
    },
    {
      "x": -0.26801711320877075,
      "y": -0.004734205547720194,
      "z": -0.004123340360820293,
      "time_usec": 51314890383
    },
    {
      "x": -0.266642689704895,
      "y": -0.005955935921519995,
      "z": -0.013897184282541275,
      "time_usec": 51314892634
    },
    {
      "x": -0.26679539680480957,
      "y": -0.008399397134780884,
      "z": -0.012675453908741474,
      "time_usec": 51314894898
    },
    {
      "x": -0.2629774808883667,
      "y": -0.009621127508580685,
      "z": -0.016340645030140877,
      "time_usec": 51314897156
    },
    {
      "x": -0.2617557644844055,
      "y": -0.008399397134780884,
      "z": -0.02122756652534008,
      "time_usec": 51314899419
    },
    {
      "x": -0.2629774808883667,
      "y": -0.006108652334660292,
      "z": -0.022449297830462456,
      "time_usec": 51314901665
    },
    {
      "x": -0.26542094349861145,
      "y": -0.004886921960860491,
      "z": -0.024892758578062057,
      "time_usec": 51314903926
    },
    {
      "x": -0.26419922709465027,
      "y": -0.006108652334660292,
      "z": -0.028557950630784035,
      "time_usec": 51314906181
    },
    {
      "x": -0.26542094349861145,
      "y": -0.006108652334660292,
      "z": -0.02733621932566166,
      "time_usec": 51314908436
    },
    {
      "x": -0.266642689704895,
      "y": -0.004886921960860491,
      "z": -0.028557950630784035,
      "time_usec": 51314910690
    },
    {
      "x": -0.26542094349861145,
      "y": -0.0024434609804302454,
      "z": -0.028557950630784035,
      "time_usec": 51314912943
    },
    {
      "x": -0.266642689704895,
      "y": -0.00733038317412138,
      "z": -0.031001411378383636,
      "time_usec": 51314915213
    },
    {
      "x": -0.2678644061088562,
      "y": -0.0012217304902151227,
      "z": -0.031001411378383636,
      "time_usec": 51314917470
    },
    {
      "x": -0.2678644061088562,
      "y": -0.00366519158706069,
      "z": -0.03222314268350601,
      "time_usec": 51314919727
    },
    {
      "x": -0.2678644061088562,
      "y": -0.004886921960860491,
      "z": -0.03222314268350601,
      "time_usec": 51314921978
    },
    {
      "x": -0.27030786871910095,
      "y": -0.0024434609804302454,
      "z": -0.02977968007326126,
      "time_usec": 51314924241
    },
    {
      "x": -0.2715296149253845,
      "y": -0.00366519158706069,
      "z": -0.031001411378383636,
      "time_usec": 51314926495
    },
    {
      "x": -0.266642689704895,
      "y": -0.00366519158706069,
      "z": -0.02977968007326126,
      "time_usec": 51314928742
    },
    {
      "x": -0.27030786871910095,
      "y": -0.005955935921519995,
      "z": -0.02733621932566166,
      "time_usec": 51314931007
    },
    {
      "x": -0.27030786871910095,
      "y": -0.005955935921519995,
      "z": -0.03222314268350601,
      "time_usec": 51314933269
    },
    {
      "x": -0.26908615231513977,
      "y": -0.008399397134780884,
      "z": -0.02977968007326126,
      "time_usec": 51314935530
    },
    {
      "x": -0.2678644061088562,
      "y": -0.009621127508580685,
      "z": -0.03222314268350601,
      "time_usec": 51314937785
    },
    {
      "x": -0.26542094349861145,
      "y": -0.010842857882380486,
      "z": -0.028557950630784035,
      "time_usec": 51314940036
    },
    {
      "x": -0.26679539680480957,
      "y": -0.01572977937757969,
      "z": -0.02733621932566166,
      "time_usec": 51314942292
    },
    {
      "x": -0.26679539680480957,
      "y": -0.01572977937757969,
      "z": -0.026114489883184433,
      "time_usec": 51314944553
    },
    {
      "x": -0.26679539680480957,
      "y": -0.016798794269561768,
      "z": -0.02733621932566166,
      "time_usec": 51314946805
    },
    {
      "x": -0.26679539680480957,
      "y": -0.016798794269561768,
      "z": -0.02733621932566166,
      "time_usec": 51314949068
    },
    {
      "x": -0.2643519341945648,
      "y": -0.018020525574684143,
      "z": -0.024892758578062057,
      "time_usec": 51314951320
    },
    {
      "x": -0.2617557644844055,
      "y": -0.016951510682702065,
      "z": -0.022449297830462456,
      "time_usec": 51314953574
    },
    {
      "x": -0.2617557644844055,
      "y": -0.013286318629980087,
      "z": -0.02122756652534008,
      "time_usec": 51314955839
    },
    {
      "x": -0.2629774808883667,
      "y": -0.01572977937757969,
      "z": -0.02122756652534008,
      "time_usec": 51314958082
    },
    {
      "x": -0.2629774808883667,
      "y": -0.012064588256180286,
      "z": -0.020005837082862854,
      "time_usec": 51314960336
    },
    {
      "x": -0.256868839263916,
      "y": -0.010842857882380486,
      "z": -0.017562376335263252,
      "time_usec": 51314962600
    },
    {
      "x": -0.25305092334747314,
      "y": -0.00733038317412138,
      "z": -0.012522737495601177,
      "time_usec": 51314964872
    },
    {
      "x": -0.2506074607372284,
      "y": -1.5271631127689034E-4,
      "z": -0.011301007121801376,
      "time_usec": 51314967126
    },
    {
      "x": -0.24434609711170197,
      "y": 0.003359758760780096,
      "z": -0.010079276748001575,
      "time_usec": 51314969385
    },
    {
      "x": -0.23945917189121246,
      "y": 0.008246680721640587,
      "z": -0.005039638374000788,
      "time_usec": 51314971636
    },
    {
      "x": -0.23579397797584534,
      "y": 0.00931569468230009,
      "z": -0.0013744467869400978,
      "time_usec": 51314973899
    },
    {
      "x": -0.2295326143503189,
      "y": 0.012980886735022068,
      "z": 0.0010690141934901476,
      "time_usec": 51314976156
    },
    {
      "x": -0.22220222651958466,
      "y": 0.01160643994808197,
      "z": 0.0024434609804302454,
      "time_usec": 51314978418
    },
    {
      "x": -0.21838432550430298,
      "y": 0.01878410577774048,
      "z": 0.00733038317412138,
      "time_usec": 51314980662
    },
    {
      "x": -0.21471913158893585,
      "y": 0.017562376335263252,
      "z": 0.00733038317412138,
      "time_usec": 51314982921
    },
    {
      "x": -0.2047925740480423,
      "y": 0.01618792861700058,
      "z": 0.00855211354792118,
      "time_usec": 51314985181
    },
    {
      "x": -0.20234911143779755,
      "y": 0.017409659922122955,
      "z": 0.0074830991216003895,
      "time_usec": 51314987438
    },
    {
      "x": -0.1973094791173935,
      "y": 0.022143865004181862,
      "z": 0.01114829070866108,
      "time_usec": 51314989698
    },
    {
      "x": -0.19120082259178162,
      "y": 0.022143865004181862,
      "z": 0.009926560334861279,
      "time_usec": 51314991950
    },
    {
      "x": -0.18616119027137756,
      "y": 0.025656340643763542,
      "z": 0.014813481830060482,
      "time_usec": 51314994213
    },
    {
      "x": -0.18249599635601044,
      "y": 0.024434609338641167,
      "z": 0.01618792861700058,
      "time_usec": 51314996469
    },
    {
      "x": -0.17623461782932281,
      "y": 0.031612277030944824,
      "z": 0.019853120669722557,
      "time_usec": 51314998728
    },
    {
      "x": -0.17256943881511688,
      "y": 0.0328340083360672,
      "z": 0.023518312722444534,
      "time_usec": 51315000977
    },
    {
      "x": -0.16890424489974976,
      "y": 0.0328340083360672,
      "z": 0.02977968007326126,
      "time_usec": 51315003241
    },
    {
      "x": -0.16264286637306213,
      "y": 0.03756821155548096,
      "z": 0.02977968007326126,
      "time_usec": 51315005499
    },
    {
      "x": -0.1589776873588562,
      "y": 0.04108068719506264,
      "z": 0.03588833287358284,
      "time_usec": 51315007762
    },
    {
      "x": -0.15393804013729095,
      "y": 0.04581489413976669,
      "z": 0.03726277872920036,
      "time_usec": 51315010011
    },
    {
      "x": -0.1514945775270462,
      "y": 0.0529925599694252,
      "z": 0.03848451003432274,
      "time_usec": 51315012264
    },
    {
      "x": -0.1440114825963974,
      "y": 0.0529925599694252,
      "z": 0.03848451003432274,
      "time_usec": 51315014525
    },
    {
      "x": -0.1391245573759079,
      "y": 0.055283304303884506,
      "z": 0.03848451003432274,
      "time_usec": 51315016783
    },
    {
      "x": -0.13530665636062622,
      "y": 0.06123924255371094,
      "z": 0.03985895588994026,
      "time_usec": 51315019038
    },
    {
      "x": -0.13041973114013672,
      "y": 0.058795779943466187,
      "z": 0.04108068719506264,
      "time_usec": 51315021284
    },
    {
      "x": -0.1241583600640297,
      "y": 0.06108652427792549,
      "z": 0.044745877385139465,
      "time_usec": 51315023552
    },
    {
      "x": -0.12171489745378494,
      "y": 0.06352998316287994,
      "z": 0.04596760869026184,
      "time_usec": 51315025809
    },
    {
      "x": -0.11804971098899841,
      "y": 0.06475171446800232,
      "z": 0.047189339995384216,
      "time_usec": 51315028068
    },
    {
      "x": -0.11560624837875366,
      "y": 0.06704246252775192,
      "z": 0.04612032696604729,
      "time_usec": 51315030326
    },
    {
      "x": -0.11301007121801376,
      "y": 0.0682641938328743,
      "z": 0.04612032696604729,
      "time_usec": 51315032579
    },
    {
      "x": -0.10812314599752426,
      "y": 0.07299839705228806,
      "z": 0.049785517156124115,
      "time_usec": 51315034842
    },
    {
      "x": -0.10445795953273773,
      "y": 0.07177666574716568,
      "z": 0.04856378585100174,
      "time_usec": 51315037095
    },
    {
      "x": -0.09941831976175308,
      "y": 0.07406741380691528,
      "z": 0.05467243865132332,
      "time_usec": 51315039346
    },
    {
      "x": -0.0981965884566307,
      "y": 0.08017606288194656,
      "z": 0.049785517156124115,
      "time_usec": 51315041607
    },
    {
      "x": -0.09804387390613556,
      "y": 0.08246681094169617,
      "z": 0.04993823543190956,
      "time_usec": 51315043869
    },
    {
      "x": -0.09560041129589081,
      "y": 0.0861319974064827,
      "z": 0.05115996301174164,
      "time_usec": 51315046129
    },
    {
      "x": -0.0907134860754013,
      "y": 0.08720101416110992,
      "z": 0.05360342562198639,
      "time_usec": 51315048383
    },
    {
      "x": -0.08949175477027893,
      "y": 0.08720101416110992,
      "z": 0.04993823543190956,
      "time_usec": 51315050634
    },
    {
      "x": -0.08811730891466141,
      "y": 0.08720101416110992,
      "z": 0.04749477282166481,
      "time_usec": 51315052892
    },
    {
      "x": -0.08689557760953903,
      "y": 0.08964447677135468,
      "z": 0.048716504126787186,
      "time_usec": 51315055156
    },
    {
      "x": -0.08811730891466141,
      "y": 0.08964447677135468,
      "z": 0.046273041516542435,
      "time_usec": 51315057419
    },
    {
      "x": -0.08567385375499725,
      "y": 0.08949175477027893,
      "z": 0.04749477282166481,
      "time_usec": 51315059669
    },
    {
      "x": -0.08811730891466141,
      "y": 0.09193521738052368,
      "z": 0.04382958263158798,
      "time_usec": 51315061921
    },
    {
      "x": -0.08933904021978378,
      "y": 0.08827003091573715,
      "z": 0.040164388716220856,
      "time_usec": 51315064182
    },
    {
      "x": -0.0907134860754013,
      "y": 0.08231408894062042,
      "z": 0.04138612002134323,
      "time_usec": 51315066436
    },
    {
      "x": -0.08827003091573715,
      "y": 0.07987063378095627,
      "z": 0.0377209298312664,
      "time_usec": 51315068698
    },
    {
      "x": -0.08704829961061478,
      "y": 0.07498370856046677,
      "z": 0.03145955875515938,
      "time_usec": 51315070950
    },
    {
      "x": -0.0858265683054924,
      "y": 0.07009678333997726,
      "z": 0.02779436856508255,
      "time_usec": 51315073213
    },
    {
      "x": -0.08704829961061478,
      "y": 0.06291911751031876,
      "z": 0.029016099870204926,
      "time_usec": 51315075470
    },
    {
      "x": -0.08704829961061478,
      "y": 0.059406645596027374,
      "z": 0.02779436856508255,
      "time_usec": 51315077729
    },
    {
      "x": -0.08216137439012527,
      "y": 0.053297992795705795,
      "z": 0.024129176512360573,
      "time_usec": 51315079970
    },
    {
      "x": -0.07971791177988052,
      "y": 0.044745877385139465,
      "z": 0.026572637259960175,
      "time_usec": 51315082236
    },
    {
      "x": -0.076052725315094,
      "y": 0.03878994286060333,
      "z": 0.022907447069883347,
      "time_usec": 51315084494
    },
    {
      "x": -0.06750060617923737,
      "y": 0.03145955875515938,
      "z": 0.020463986322283745,
      "time_usec": 51315086746
    },
    {
      "x": -0.06627888232469559,
      "y": 0.022907447069883347,
      "z": 0.016798794269561768,
      "time_usec": 51315089012
    },
    {
      "x": -0.06261368840932846,
      "y": 0.01924225501716137,
      "z": 0.016798794269561768,
      "time_usec": 51315091263
    },
    {
      "x": -0.06017022579908371,
      "y": 0.012064588256180286,
      "z": 0.014355333521962166,
      "time_usec": 51315093526
    },
    {
      "x": -0.05406157299876213,
      "y": 0.003512475173920393,
      "z": 0.009468411095440388,
      "time_usec": 51315095784
    },
    {
      "x": -0.0503963828086853,
      "y": -0.005039638374000788,
      "z": 0.008246680721640587,
      "time_usec": 51315098039
    },
    {
      "x": -0.044287730008363724,
      "y": -0.008704829961061478,
      "z": 0.007024950347840786,
      "time_usec": 51315100286
    },
    {
      "x": -0.040622539818286896,
      "y": -0.01114829070866108,
      "z": 0.009468411095440388,
      "time_usec": 51315102549
    },
    {
      "x": -0.03573561832308769,
      "y": -0.01114829070866108,
      "z": 0.008399397134780884,
      "time_usec": 51315104812
    },
    {
      "x": -0.033139441162347794,
      "y": -0.011301007121801376,
      "z": 0.009621127508580685,
      "time_usec": 51315107072
    },
    {
      "x": -0.02825251780450344,
      "y": -0.01725694350898266,
      "z": 0.007177666760981083,
      "time_usec": 51315109326
    },
    {
      "x": -0.027030786499381065,
      "y": -0.013744467869400978,
      "z": 0.009621127508580685,
      "time_usec": 51315111578
    },
    {
      "x": -0.023365596309304237,
      "y": -0.013744467869400978,
      "z": 0.009621127508580685,
      "time_usec": 51315113841
    },
    {
      "x": -0.02076941914856434,
      "y": -0.012675453908741474,
      "z": 0.005955935921519995,
      "time_usec": 51315116098
    },
    {
      "x": -0.023365596309304237,
      "y": -0.011301007121801376,
      "z": 0.008399397134780884,
      "time_usec": 51315118356
    },
    {
      "x": -0.024587325751781464,
      "y": -0.013744467869400978,
      "z": 0.008399397134780884,
      "time_usec": 51315120606
    },
    {
      "x": -0.02825251780450344,
      "y": -0.011301007121801376,
      "z": 0.008399397134780884,
      "time_usec": 51315122864
    },
    {
      "x": -0.03191770985722542,
      "y": -0.007635815534740686,
      "z": 0.010842857882380486,
      "time_usec": 51315125126
    },
    {
      "x": -0.035582900047302246,
      "y": -0.007635815534740686,
      "z": 0.013286318629980087,
      "time_usec": 51315127384
    },
    {
      "x": -0.03695734590291977,
      "y": -0.0064140851609408855,
      "z": 0.014508049935102463,
      "time_usec": 51315129640
    },
    {
      "x": -0.04306599870324135,
      "y": -0.003817907767370343,
      "z": 0.019394971430301666,
      "time_usec": 51315131893
    },
    {
      "x": -0.046731192618608475,
      "y": -0.005039638374000788,
      "z": 0.020616702735424042,
      "time_usec": 51315134156
    },
    {
      "x": -0.05054909735918045,
      "y": -0.004886921960860491,
      "z": 0.020463986322283745,
      "time_usec": 51315136417
    },
    {
      "x": -0.057879481464624405,
      "y": -0.0,
      "z": 0.02168571576476097,
      "time_usec": 51315138669
    },
    {
      "x": -0.06276640295982361,
      "y": 1.5271631127689034E-4,
      "z": 0.02535090781748295,
      "time_usec": 51315140921
    },
    {
      "x": -0.06398813426494598,
      "y": 0.0024434609804302454,
      "z": 0.026572637259960175,
      "time_usec": 51315143181
    },
    {
      "x": -0.07024950534105301,
      "y": 0.003817907767370343,
      "z": 0.026572637259960175,
      "time_usec": 51315145436
    },
    {
      "x": -0.07269296050071716,
      "y": 0.0074830991216003895,
      "z": 0.02779436856508255,
      "time_usec": 51315147700
    },
    {
      "x": -0.07880161702632904,
      "y": 0.008704829961061478,
      "z": 0.02779436856508255,
      "time_usec": 51315149954
    },
    {
      "x": -0.08124507963657379,
      "y": 0.01237002108246088,
      "z": 0.02779436856508255,
      "time_usec": 51315152208
    },
    {
      "x": -0.08368854224681854,
      "y": 0.013591751456260681,
      "z": 0.02779436856508255,
      "time_usec": 51315154467
    },
    {
      "x": -0.08384125679731369,
      "y": 0.01237002108246088,
      "z": 0.030237829312682152,
      "time_usec": 51315156713
    },
    {
      "x": -0.08368854224681854,
      "y": 0.01237002108246088,
      "z": 0.026572637259960175,
      "time_usec": 51315158971
    },
    {
      "x": -0.0887281745672226,
      "y": 0.011301007121801376,
      "z": 0.03130684420466423,
      "time_usec": 51315161234
    },
    {
      "x": -0.08994990587234497,
      "y": 0.012522737495601177,
      "z": 0.032528575509786606,
      "time_usec": 51315163493
    },
    {
      "x": -0.09239336848258972,
      "y": 0.017409659922122955,
      "z": 0.03375030308961868,
      "time_usec": 51315165746
    },
    {
      "x": -0.0887281745672226,
      "y": 0.020922135561704636,
      "z": 0.032681290060281754,
      "time_usec": 51315168014
    },
    {
      "x": -0.09117163717746735,
      "y": 0.022143865004181862,
      "z": 0.032681290060281754,
      "time_usec": 51315170269
    },
    {
      "x": -0.09239336848258972,
      "y": 0.024587325751781464,
      "z": 0.032681290060281754,
      "time_usec": 51315172526
    },
    {
      "x": -0.09117163717746735,
      "y": 0.022143865004181862,
      "z": 0.032681290060281754,
      "time_usec": 51315174783
    },
    {
      "x": -0.09117163717746735,
      "y": 0.022143865004181862,
      "z": 0.032681290060281754,
      "time_usec": 51315177041
    },
    {
      "x": -0.08994990587234497,
      "y": 0.020922135561704636,
      "z": 0.030085112899541855,
      "time_usec": 51315179297
    },
    {
      "x": -0.0887281745672226,
      "y": 0.020922135561704636,
      "z": 0.03145955875515938,
      "time_usec": 51315181548
    },
    {
      "x": -0.0887281745672226,
      "y": 0.01725694350898266,
      "z": 0.02886338345706463,
      "time_usec": 51315183804
    },
    {
      "x": -0.08491026610136032,
      "y": 0.01725694350898266,
      "z": 0.03145955875515938,
      "time_usec": 51315186069
    },
    {
      "x": -0.08246681094169617,
      "y": 0.013591751456260681,
      "z": 0.02779436856508255,
      "time_usec": 51315188329
    },
    {
      "x": -0.07757988572120667,
      "y": 0.014813481830060482,
      "z": 0.029016099870204926,
      "time_usec": 51315190590
    },
    {
      "x": -0.07513642311096191,
      "y": 0.01466076634824276,
      "z": 0.026572637259960175,
      "time_usec": 51315192835
    },
    {
      "x": -0.07009678333997726,
      "y": 0.013439035043120384,
      "z": 0.026572637259960175,
      "time_usec": 51315195097
    },
    {
      "x": -0.06887505948543549,
      "y": 0.013439035043120384,
      "z": 0.030237829312682152,
      "time_usec": 51315197351
    },
    {
      "x": -0.06765332818031311,
      "y": 0.01572977937757969,
      "z": 0.026572637259960175,
      "time_usec": 51315199611
    },
    {
      "x": -0.06887505948543549,
      "y": 0.012217304669320583,
      "z": 0.02779436856508255,
      "time_usec": 51315201863
    },
    {
      "x": -0.06643159687519073,
      "y": 0.012217304669320583,
      "z": 0.024129176512360573,
      "time_usec": 51315204122
    },
    {
      "x": -0.06765332818031311,
      "y": 0.01466076634824276,
      "z": 0.02535090781748295,
      "time_usec": 51315206384
    },
    {
      "x": -0.06643159687519073,
      "y": 0.009773843921720982,
      "z": 0.022907447069883347,
      "time_usec": 51315208640
    },
    {
      "x": -0.06520986557006836,
      "y": 0.004886921960860491,
      "z": 0.022907447069883347,
      "time_usec": 51315210886
    },
    {
      "x": -0.06276640295982361,
      "y": -0.0022907445672899485,
      "z": 0.020463986322283745,
      "time_usec": 51315213156
    },
    {
      "x": -0.060475658625364304,
      "y": -0.008399397134780884,
      "z": 0.022907447069883347,
      "time_usec": 51315215418
    },
    {
      "x": -0.060475658625364304,
      "y": -0.015577063895761967,
      "z": 0.024129176512360573,
      "time_usec": 51315217673
    },
    {
      "x": -0.05925392732024193,
      "y": -0.018020525574684143,
      "z": 0.024129176512360573,
      "time_usec": 51315219925
    },
    {
      "x": -0.059406645596027374,
      "y": -0.02519819140434265,
      "z": 0.02535090781748295,
      "time_usec": 51315222176
    },
    {
      "x": -0.056810468435287476,
      "y": -0.02886338345706463,
      "z": 0.022907447069883347,
      "time_usec": 51315224436
    },
    {
      "x": -0.055741455405950546,
      "y": -0.03375030308961868,
      "z": 0.02168571576476097,
      "time_usec": 51315226699
    },
    {
      "x": -0.053297992795705795,
      "y": -0.03848451003432274,
      "z": 0.02168571576476097,
      "time_usec": 51315228955
    },
    {
      "x": -0.050854530185461044,
      "y": -0.04459316283464432,
      "z": 0.020463986322283745,
      "time_usec": 51315231207
    },
    {
      "x": -0.04841107130050659,
      "y": -0.04337143152952194,
      "z": 0.02168571576476097,
      "time_usec": 51315233466
    },
    {
      "x": -0.04841107130050659,
      "y": -0.04459316283464432,
      "z": 0.02168571576476097,
      "time_usec": 51315235729
    },
    {
      "x": -0.04841107130050659,
      "y": -0.04459316283464432,
      "z": 0.024129176512360573,
      "time_usec": 51315237985
    },
    {
      "x": -0.04963280260562897,
      "y": -0.04581489413976669,
      "z": 0.026572637259960175,
      "time_usec": 51315240241
    },
    {
      "x": -0.050854530185461044,
      "y": -0.04459316283464432,
      "z": 0.022907447069883347,
      "time_usec": 51315242489
    },
    {
      "x": -0.05207626149058342,
      "y": -0.04703662544488907,
      "z": 0.024129176512360573,
      "time_usec": 51315244743
    },
    {
      "x": -0.055741455405950546,
      "y": -0.04688390716910362,
      "z": 0.024129176512360573,
      "time_usec": 51315247010
    },
    {
      "x": -0.058337632566690445,
      "y": -0.04688390716910362,
      "z": 0.026572637259960175,
      "time_usec": 51315249262
    },
    {
      "x": -0.06322455406188965,
      "y": -0.04795292019844055,
      "z": 0.02779436856508255,
      "time_usec": 51315251524
    },
    {
      "x": -0.06811147183179855,
      "y": -0.046731192618608475,
      "z": 0.026419922709465027,
      "time_usec": 51315253783
    },
    {
      "x": -0.07192938029766083,
      "y": -0.046731192618608475,
      "z": 0.02886338345706463,
      "time_usec": 51315256042
    },
    {
      "x": -0.07681630551815033,
      "y": -0.050243668258190155,
      "z": 0.030085112899541855,
      "time_usec": 51315258299
    },
    {
      "x": -0.08307767659425735,
      "y": -0.04764748737215996,
      "z": 0.03497203439474106,
      "time_usec": 51315260555
    },
    {
      "x": -0.08796459436416626,
      "y": -0.045204028487205505,
      "z": 0.03497203439474106,
      "time_usec": 51315262811
    },
    {
      "x": -0.09162978827953339,
      "y": -0.0403171069920063,
      "z": 0.038637228310108185,
      "time_usec": 51315265069
    },
    {
      "x": -0.09911288321018219,
      "y": -0.0354301854968071,
      "z": 0.04108068719506264,
      "time_usec": 51315267325
    },
    {
      "x": -0.10384709388017654,
      "y": -0.02687807008624077,
      "z": 0.04108068719506264,
      "time_usec": 51315269580
    },
    {
      "x": -0.11133018881082535,
      "y": -0.01710422709584236,
      "z": 0.047189339995384216,
      "time_usec": 51315271835
    },
    {
      "x": -0.11743884533643723,
      "y": -0.012217304669320583,
      "z": 0.048258353024721146,
      "time_usec": 51315274094
    },
    {
      "x": -0.12232576310634613,
      "y": -0.006108652334660292,
      "z": 0.05192354694008827,
      "time_usec": 51315276342
    },
    {
      "x": -0.128434419631958,
      "y": -0.0,
      "z": 0.054367005825042725,
      "time_usec": 51315278612
    },
    {
      "x": -0.13836097717285156,
      "y": 0.004886921960860491,
      "z": 0.05803219974040985,
      "time_usec": 51315280865
    },
    {
      "x": -0.14446963369846344,
      "y": 0.006261368747800589,
      "z": 0.05925392732024193,
      "time_usec": 51315283129
    },
    {
      "x": -0.154396191239357,
      "y": 0.0039706239476799965,
      "z": 0.06169738993048668,
      "time_usec": 51315285383
    },
    {
      "x": -0.16432274878025055,
      "y": -7.635815418325365E-4,
      "z": 0.06520986557006836,
      "time_usec": 51315287642
    },
    {
      "x": -0.17547103762626648,
      "y": -0.0029016099870204926,
      "z": 0.06887505948543549,
      "time_usec": 51315289896
    },
    {
      "x": -0.18539759516716003,
      "y": -0.005192354787141085,
      "z": 0.07254024595022202,
      "time_usec": 51315292151
    },
    {
      "x": -0.19288070499897003,
      "y": -3.054326225537807E-4,
      "z": 0.07116580009460449,
      "time_usec": 51315294418
    },
    {
      "x": -0.19898934662342072,
      "y": 0.005803219974040985,
      "z": 0.076052725315094,
      "time_usec": 51315296666
    },
    {
      "x": -0.20143280923366547,
      "y": 0.010690141469240189,
      "z": 0.07849618047475815,
      "time_usec": 51315298914
    },
    {
      "x": -0.2050980031490326,
      "y": 0.015577063895761967,
      "z": 0.08216137439012527,
      "time_usec": 51315301172
    },
    {
      "x": -0.20754146575927734,
      "y": 0.026419922709465027,
      "z": 0.08338310569524765,
      "time_usec": 51315303436
    },
    {
      "x": -0.2099849283695221,
      "y": 0.03726277872920036,
      "z": 0.0884227454662323,
      "time_usec": 51315305701
    },
    {
      "x": -0.21365012228488922,
      "y": 0.04214970022439957,
      "z": 0.09208793938159943,
      "time_usec": 51315307957
    },
    {
      "x": -0.22098049521446228,
      "y": 0.054367005825042725,
      "z": 0.09453139454126358,
      "time_usec": 51315310212
    },
    {
      "x": -0.23075434565544128,
      "y": 0.06169738993048668,
      "z": 0.09804387390613556,
      "time_usec": 51315312462
    },
    {
      "x": -0.2344195395708084,
      "y": 0.0630718395113945,
      "z": 0.10415252298116684,
      "time_usec": 51315314714
    },
    {
      "x": -0.23945917189121246,
      "y": 0.0679587572813034,
      "z": 0.11148291081190109,
      "time_usec": 51315316985
    },
    {
      "x": -0.23945917189121246,
      "y": 0.06322455406188965,
      "z": 0.11652254313230515,
      "time_usec": 51315319240
    },
    {
      "x": -0.24083362519741058,
      "y": 0.05711590126156807,
      "z": 0.11881329119205475,
      "time_usec": 51315321498
    },
    {
      "x": -0.23839016258716583,
      "y": 0.052381694316864014,
      "z": 0.12263119965791702,
      "time_usec": 51315323762
    },
    {
      "x": -0.23350323736667633,
      "y": 0.04505131021142006,
      "z": 0.12140946835279465,
      "time_usec": 51315326002
    },
    {
      "x": -0.2272418737411499,
      "y": 0.04138612002134323,
      "z": 0.11774427443742752,
      "time_usec": 51315328270
    },
    {
      "x": -0.22357667982578278,
      "y": 0.03405573591589928,
      "z": 0.11407908797264099,
      "time_usec": 51315330523
    },
    {
      "x": -0.21991148591041565,
      "y": 0.029168816283345222,
      "z": 0.10430523753166199,
      "time_usec": 51315332781
    },
    {
      "x": -0.21502456068992615,
      "y": 0.026572637259960175,
      "z": 0.09560041129589081,
      "time_usec": 51315335042
    },
    {
      "x": -0.21502456068992615,
      "y": 0.022907447069883347,
      "z": 0.08460483700037003,
      "time_usec": 51315337298
    },
    {
      "x": -0.21135938167572021,
      "y": 0.015577063895761967,
      "z": 0.07849618047475815,
      "time_usec": 51315339555
    },
    {
      "x": -0.20387627184391022,
      "y": 0.005803219974040985,
      "z": 0.07238753139972687,
      "time_usec": 51315341806
    },
    {
      "x": -0.20036379992961884,
      "y": -0.006261368747800589,
      "z": 0.06994406878948212,
      "time_usec": 51315344069
    },
    {
      "x": -0.19547687470912933,
      "y": -0.01710422709584236,
      "z": 0.06627888232469559,
      "time_usec": 51315346326
    },
    {
      "x": -0.1966986060142517,
      "y": -0.024434609338641167,
      "z": 0.061391957104206085,
      "time_usec": 51315348584
    },
    {
      "x": -0.19685132801532745,
      "y": -0.035124752670526505,
      "z": 0.062460970133543015,
      "time_usec": 51315350836
    },
    {
      "x": -0.19807305932044983,
      "y": -0.04001167416572571,
      "z": 0.062460970133543015,
      "time_usec": 51315353099
    },
    {
      "x": -0.206777885556221,
      "y": -0.04703662544488907,
      "z": 0.062460970133543015,
      "time_usec": 51315355352
    },
    {
      "x": -0.20922134816646576,
      "y": -0.05314527451992035,
      "z": 0.06001751124858856,
      "time_usec": 51315357598
    },
    {
      "x": -0.2154827117919922,
      "y": -0.061391957104206085,
      "z": 0.05619960278272629,
      "time_usec": 51315359853
    },
    {
      "x": -0.22296582162380219,
      "y": -0.06490442901849747,
      "z": 0.05619960278272629,
      "time_usec": 51315362114
    },
    {
      "x": -0.23289237916469574,
      "y": -0.06963863968849182,
      "z": 0.052381694316864014,
      "time_usec": 51315364386
    },
    {
      "x": -0.24159720540046692,
      "y": -0.07192938029766083,
      "z": 0.05115996301174164,
      "time_usec": 51315366641
    },
    {
      "x": -0.24892759323120117,
      "y": -0.07666359096765518,
      "z": 0.04612032696604729,
      "time_usec": 51315368900
    },
    {
      "x": -0.25763240456581116,
      "y": -0.07177666574716568,
      "z": 0.04489859566092491,
      "time_usec": 51315371152
    },
    {
      "x": -0.26251932978630066,
      "y": -0.07299839705228806,
      "z": 0.04001167416572571,
      "time_usec": 51315373418
    },
    {
      "x": -0.2736676335334778,
      "y": -0.07528914511203766,
      "z": 0.03375030308961868,
      "time_usec": 51315375669
    },
    {
      "x": -0.28848111629486084,
      "y": -0.08597928285598755,
      "z": 0.025045474991202354,
      "time_usec": 51315377926
    },
    {
      "x": -0.30604347586631775,
      "y": -0.1062905490398407,
      "z": 0.02122756652534008,
      "time_usec": 51315380174
    },
    {
      "x": -0.32330042123794556,
      "y": -0.11575896292924881,
      "z": 0.010079276748001575,
      "time_usec": 51315382429
    },
    {
      "x": -0.337044894695282,
      "y": -0.12767083942890167,
      "z": 0.0013744467869400978,
      "time_usec": 51315384699
    },
    {
      "x": -0.34437528252601624,
      "y": -0.1371392458677292,
      "z": -0.009621127508580685,
      "time_usec": 51315386956
    },
    {
      "x": -0.35552358627319336,
      "y": -0.1492038369178772,
      "z": -0.030695978552103043,
      "time_usec": 51315389215
    },
    {
      "x": -0.37308594584465027,
      "y": -0.1817324161529541,
      "z": -0.06154467165470123,
      "time_usec": 51315391461
    },
    {
      "x": -0.3842342495918274,
      "y": -0.1973094791173935,
      "z": -0.08857546001672745,
      "time_usec": 51315393714
    },
    {
      "x": -0.3854559659957886,
      "y": -0.20830504596233368,
      "z": -0.10461067408323288,
      "time_usec": 51315395983
    },
    {
      "x": -0.38927388191223145,
      "y": -0.22403483092784882,
      "z": -0.11927144229412079,
      "time_usec": 51315398242
    },
    {
      "x": -0.39675697684288025,
      "y": -0.24327708780765533,
      "z": -0.1316414624452591,
      "time_usec": 51315400501
    },
    {
      "x": -0.40912699699401855,
      "y": -0.25763240456581116,
      "z": -0.14523321390151978,
      "time_usec": 51315402753
    },
    {
      "x": -0.4178318381309509,
      "y": -0.2635883390903473,
      "z": -0.1514945775270462,
      "time_usec": 51315405012
    },
    {
      "x": -0.4314235746860504,
      "y": -0.26572638750076294,
      "z": -0.1563815027475357,
      "time_usec": 51315407270
    },
    {
      "x": -0.4437935948371887,
      "y": -0.2692388594150543,
      "z": -0.16142113506793976,
      "time_usec": 51315409525
    },
    {
      "x": -0.4586070775985718,
      "y": -0.27748554944992065,
      "z": -0.166460782289505,
      "time_usec": 51315411778
    },
    {
      "x": -0.4697553813457489,
      "y": -0.27611109614372253,
      "z": -0.16279558837413788,
      "time_usec": 51315414041
    },
    {
      "x": -0.48090365529060364,
      "y": -0.2736676335334778,
      "z": -0.16172657907009125,
      "time_usec": 51315416298
    },
    {
      "x": -0.49205195903778076,
      "y": -0.27580565214157104,
      "z": -0.1592831164598465,
      "time_usec": 51315418555
    },
    {
      "x": -0.5019785165786743,
      "y": -0.2793181240558624,
      "z": -0.15561792254447937,
      "time_usec": 51315420807
    },
    {
      "x": -0.5082398653030396,
      "y": -0.2828305959701538,
      "z": -0.15195272862911224,
      "time_usec": 51315423071
    },
    {
      "x": -0.5119050741195679,
      "y": -0.2791654169559479,
      "z": -0.14828753471374512,
      "time_usec": 51315425331
    },
    {
      "x": -0.5143485069274902,
      "y": -0.27061331272125244,
      "z": -0.144622340798378,
      "time_usec": 51315427585
    },
    {
      "x": -0.5143485069274902,
      "y": -0.2646573781967163,
      "z": -0.14340060949325562,
      "time_usec": 51315429839
    },
    {
      "x": -0.5093088746070862,
      "y": -0.2562579810619354,
      "z": -0.14095716178417206,
      "time_usec": 51315432091
    },
    {
      "x": -0.5105306506156921,
      "y": -0.2525927722454071,
      "z": -0.14340060949325562,
      "time_usec": 51315434355
    },
    {
      "x": -0.5068654417991638,
      "y": -0.25503623485565186,
      "z": -0.14095716178417206,
      "time_usec": 51315436612
    },
    {
      "x": -0.5007568001747131,
      "y": -0.2587014436721802,
      "z": -0.13469578325748444,
      "time_usec": 51315438869
    },
    {
      "x": -0.49327367544174194,
      "y": -0.2635883390903473,
      "z": -0.12736541032791138,
      "time_usec": 51315441122
    },
    {
      "x": -0.4922046661376953,
      "y": -0.2695443034172058,
      "z": -0.12370020896196365,
      "time_usec": 51315443384
    },
    {
      "x": -0.4810563921928406,
      "y": -0.26969701051712036,
      "z": -0.1186605766415596,
      "time_usec": 51315445637
    },
    {
      "x": -0.4737260043621063,
      "y": -0.26740625500679016,
      "z": -0.11133018881082535,
      "time_usec": 51315447899
    },
    {
      "x": -0.46502116322517395,
      "y": -0.2626720666885376,
      "z": -0.10995574295520782,
      "time_usec": 51315450154
    },
    {
      "x": -0.4524984359741211,
      "y": -0.24587325751781464,
      "z": -0.1062905490398407,
      "time_usec": 51315452410
    },
    {
      "x": -0.43508878350257874,
      "y": -0.2353358417749405,
      "z": -0.10125091671943665,
      "time_usec": 51315454670
    },
    {
      "x": -0.41890084743499756,
      "y": -0.22708915174007416,
      "z": -0.1010981947183609,
      "time_usec": 51315456926
    },
    {
      "x": -0.408974289894104,
      "y": -0.21639901399612427,
      "z": -0.098502017557621,
      "time_usec": 51315459178
    },
    {
      "x": -0.39416080713272095,
      "y": -0.2116648107767105,
      "z": -0.0936150997877121,
      "time_usec": 51315461432
    },
    {
      "x": -0.3830125033855438,
      "y": -0.2070833146572113,
      "z": -0.08857546001672745,
      "time_usec": 51315463693
    },
    {
      "x": -0.36819902062416077,
      "y": -0.1999056488275528,
      "z": -0.08109235763549805,
      "time_usec": 51315465956
    },
    {
      "x": -0.3546072840690613,
      "y": -0.19883663952350616,
      "z": -0.076052725315094,
      "time_usec": 51315468215
    },
    {
      "x": -0.3396410644054413,
      "y": -0.1846340149641037,
      "z": -0.06490442901849747,
      "time_usec": 51315470473
    },
    {
      "x": -0.3234531581401825,
      "y": -0.16065755486488342,
      "z": -0.05742133408784866,
      "time_usec": 51315472722
    },
    {
      "x": -0.304669052362442,
      "y": -0.13087788224220276,
      "z": -0.05115996301174164,
      "time_usec": 51315474984
    },
    {
      "x": -0.28099802136421204,
      "y": -0.1033889427781105,
      "z": -0.04612032696604729,
      "time_usec": 51315477240
    },
    {
      "x": -0.2597704529762268,
      "y": -0.07727445662021637,
      "z": -0.04459316283464432,
      "time_usec": 51315479500
    },
    {
      "x": -0.24098633229732513,
      "y": -0.05100724846124649,
      "z": -0.03955352306365967,
      "time_usec": 51315481753
    },
    {
      "x": -0.22113321721553802,
      "y": -0.03436116874217987,
      "z": -0.03329215571284294,
      "time_usec": 51315484012
    },
    {
      "x": -0.20494529604911804,
      "y": -0.02122756652534008,
      "z": -0.030695978552103043,
      "time_usec": 51315486269
    },
    {
      "x": -0.18631389737129211,
      "y": -0.009468411095440388,
      "z": -0.02687807008624077,
      "time_usec": 51315488526
    },
    {
      "x": -0.17272214591503143,
      "y": -0.0012217304902151227,
      "z": -0.019394971430301666,
      "time_usec": 51315490777
    },
    {
      "x": -0.15653422474861145,
      "y": 0.004581489134579897,
      "z": -0.01572977937757969,
      "time_usec": 51315493037
    },
    {
      "x": -0.1417207419872284,
      "y": 0.00931569468230009,
      "z": -0.01191187184303999,
      "time_usec": 51315495297
    },
    {
      "x": -0.1293507218360901,
      "y": 0.009162978269159794,
      "z": -0.012980886735022068,
      "time_usec": 51315497550
    },
    {
      "x": -0.11194105446338654,
      "y": 0.014813481830060482,
      "z": -0.014202617108821869,
      "time_usec": 51315499799
    },
    {
      "x": -0.09712757170200348,
      "y": 0.012217304669320583,
      "z": -0.016493361443281174,
      "time_usec": 51315502065
    },
    {
      "x": -0.08231408894062042,
      "y": 0.004886921960860491,
      "z": -0.021380282938480377,
      "time_usec": 51315504327
    },
    {
      "x": -0.06872233748435974,
      "y": 0.003359758760780096,
      "z": -0.02733621932566166,
      "time_usec": 51315506587
    },
    {
      "x": -0.05390885844826698,
      "y": -0.0039706239476799965,
      "z": -0.03344487398862839,
      "time_usec": 51315508840
    },
    {
      "x": -0.038026362657547,
      "y": -0.016340645030140877,
      "z": -0.04199698567390442,
      "time_usec": 51315511090
    },
    {
      "x": -0.02687807008624077,
      "y": -0.02733621932566166,
      "z": -0.04688390716910362,
      "time_usec": 51315513340
    },
    {
      "x": -0.015882495790719986,
      "y": -0.03588833287358284,
      "z": -0.051770828664302826,
      "time_usec": 51315515600
    },
    {
      "x": -0.004734205547720194,
      "y": -0.04581489413976669,
      "z": -0.058948494493961334,
      "time_usec": 51315517871
    },
    {
      "x": 0.0064140851609408855,
      "y": -0.04596760869026184,
      "z": -0.06383541971445084,
      "time_usec": 51315520128
    },
    {
      "x": 0.013744467869400978,
      "y": -0.05207626149058342,
      "z": -0.07116580009460449,
      "time_usec": 51315522381
    },
    {
      "x": 0.02122756652534008,
      "y": -0.055894169956445694,
      "z": -0.076052725315094,
      "time_usec": 51315524637
    },
    {
      "x": 0.024892758578062057,
      "y": -0.058337632566690445,
      "z": -0.08216137439012527,
      "time_usec": 51315526885
    },
    {
      "x": 0.031001411378383636,
      "y": -0.06200282275676727,
      "z": -0.08704829961061478,
      "time_usec": 51315529156
    },
    {
      "x": 0.033597588539123535,
      "y": -0.05726861581206322,
      "z": -0.08827003091573715,
      "time_usec": 51315531410
    },
    {
      "x": 0.036193765699863434,
      "y": -0.04657847434282303,
      "z": -0.09193521738052368,
      "time_usec": 51315533674
    },
    {
      "x": 0.038637228310108185,
      "y": -0.040622539818286896,
      "z": -0.09682214260101318,
      "time_usec": 51315535926
    },
    {
      "x": 0.043676864355802536,
      "y": -0.034666601568460464,
      "z": -0.09911288321018219,
      "time_usec": 51315538183
    },
    {
      "x": 0.048716504126787186,
      "y": -0.031154127791523933,
      "z": -0.10155634582042694,
      "time_usec": 51315540435
    },
    {
      "x": 0.05360342562198639,
      "y": -0.029932396486401558,
      "z": -0.10399980843067169,
      "time_usec": 51315542693
    },
    {
      "x": 0.052381694316864014,
      "y": -0.03726277872920036,
      "z": -0.10277807712554932,
      "time_usec": 51315544955
    },
    {
      "x": 0.052381694316864014,
      "y": -0.03726277872920036,
      "z": -0.10277807712554932,
