{
  "accelerations": [
    {
      "x": -9.312865257263184,
      "y": -0.05922235921025276,
      "z": 1.6211373805999756,
      "time_usec": 8412796434
    },
    {
      "x": -9.312267303466797,
      "y": -0.049651071429252625,
      "z": 1.6259230375289917,
      "time_usec": 8412798688
    },
    {
      "x": -9.322437286376953,
      "y": -0.054436713457107544,
      "z": 1.6498512029647827,
      "time_usec": 8412800948
    },
    {
      "x": -9.336793899536133,
      "y": -0.07357929646968842,
      "z": 1.6450655460357666,
      "time_usec": 8412803200
    },
    {
      "x": -9.350552558898926,
      "y": -0.04905286431312561,
      "z": 1.6737794876098633,
      "time_usec": 8412805448
    },
    {
      "x": -9.369695663452148,
      "y": -0.04905286431312561,
      "z": 1.6929219961166382,
      "time_usec": 8412807715
    },
    {
      "x": -9.393623352050781,
      "y": -0.05383851006627083,
      "z": 1.7114664316177368,
      "time_usec": 8412809963
    },
    {
      "x": -9.41755199432373,
      "y": -0.048454657196998596,
      "z": 1.74496591091156,
      "time_usec": 8412812237
    },
    {
      "x": -9.436694145202637,
      "y": -0.048454657196998596,
      "z": 1.7928223609924316,
      "time_usec": 8412814487
    },
    {
      "x": -9.460622787475586,
      "y": -0.05802594870328903,
      "z": 1.8113667964935303,
      "time_usec": 8412816735
    },
    {
      "x": -9.474979400634766,
      "y": -0.053240302950143814,
      "z": 1.8783657550811768,
      "time_usec": 8412818989
    },
    {
      "x": -9.503693580627441,
      "y": -0.038285162299871445,
      "z": 1.9166508913040161,
      "time_usec": 8412821247
    },
    {
      "x": -9.485149383544922,
      "y": -0.02392822690308094,
      "z": 1.9830517768859863,
      "time_usec": 8412823511
    },
    {
      "x": -9.504291534423828,
      "y": -0.04307080805301666,
      "z": 2.0548365116119385,
      "time_usec": 8412825782
    },
    {
      "x": -9.476176261901855,
      "y": -0.038285162299871445,
      "z": 2.0883359909057617,
      "time_usec": 8412828036
    },
    {
      "x": -9.466604232788086,
      "y": -0.04307080805301666,
      "z": 2.1170499324798584,
      "time_usec": 8412830293
    },
    {
      "x": -9.452845573425293,
      "y": -0.02392822690308094,
      "z": 2.1266210079193115,
      "time_usec": 8412832537
    },
    {
      "x": -9.448060035705566,
      "y": -0.019142581149935722,
      "z": 2.1505494117736816,
      "time_usec": 8412834808
    },
    {
      "x": -9.42891788482666,
      "y": -0.02392822690308094,
      "z": 2.1409780979156494,
      "time_usec": 8412837065
    },
    {
      "x": -9.424132347106934,
      "y": -0.038285162299871445,
      "z": 2.108076810836792,
      "time_usec": 8412839323
    },
    {
      "x": -9.414560317993164,
      "y": -0.05802594870328903,
      "z": 2.0745773315429688,
      "time_usec": 8412841568
    },
    {
      "x": -9.400203704833984,
      "y": -0.053240302950143814,
      "z": 2.045863389968872,
      "time_usec": 8412843839
    },
    {
      "x": -9.404391288757324,
      "y": -0.029312077909708023,
      "z": 2.0027925968170166,
      "time_usec": 8412846093
    },
    {
      "x": -9.390632629394531,
      "y": -0.03888336941599846,
      "z": 2.012363910675049,
      "time_usec": 8412848351
    },
    {
      "x": -9.370891571044922,
      "y": -0.014955141581594944,
      "z": 1.9932212829589844,
      "time_usec": 8412850610
    },
    {
      "x": -9.366703987121582,
      "y": -0.005383851006627083,
      "z": 2.012363910675049,
      "time_usec": 8412852868
    },
    {
      "x": -9.357132911682129,
      "y": -0.024526432156562805,
      "z": 2.0267207622528076,
      "time_usec": 8412855126
    },
    {
      "x": -9.376275062561035,
      "y": -0.010169495828449726,
      "z": 2.069791555404663,
      "time_usec": 8412857379
    },
    {
      "x": -9.371489524841309,
      "y": -0.005383851006627083,
      "z": 2.1032910346984863,
      "time_usec": 8412859625
    },
    {
      "x": -9.386445045471191,
      "y": -0.029312077909708023,
      "z": 2.146361827850342,
      "time_usec": 8412861888
    },
    {
      "x": -9.396016120910645,
      "y": -0.04785645380616188,
      "z": 2.155933141708374,
      "time_usec": 8412864155
    },
    {
      "x": -9.424132347106934,
      "y": -0.02871387079358101,
      "z": 2.184048891067505,
      "time_usec": 8412866415
    },
    {
      "x": -9.429515838623047,
      "y": -0.04785645380616188,
      "z": 2.207977056503296,
      "time_usec": 8412868666
    },
    {
      "x": -9.476774215698242,
      "y": -0.062213387340307236,
      "z": 2.1984057426452637,
      "time_usec": 8412870927
    },
    {
      "x": -9.462417602539062,
      "y": -0.07178468257188797,
      "z": 2.1888344287872314,
      "time_usec": 8412873184
    },
    {
      "x": -9.486345291137695,
      "y": -0.07178468257188797,
      "z": 2.179263114929199,
      "time_usec": 8412875445
    },
    {
      "x": -9.495916366577148,
      "y": -0.06161518394947052,
      "z": 2.1744775772094727,
      "time_usec": 8412877702
    },
    {
      "x": -9.504889488220215,
      "y": -0.052043892443180084,
      "z": 2.145763635635376,
      "time_usec": 8412879945
    },
    {
      "x": -9.491130828857422,
      "y": -0.07178468257188797,
      "z": 2.1409780979156494,
      "time_usec": 8412882215
    },
    {
      "x": -9.514460563659668,
      "y": -0.0568295381963253,
      "z": 2.1170499324798584,
      "time_usec": 8412884470
    },
    {
      "x": -9.500103950500488,
      "y": -0.05742774158716202,
      "z": 2.121835470199585,
      "time_usec": 8412886727
    },
    {
      "x": -9.485747337341309,
      "y": -0.06699903309345245,
      "z": 2.0931215286254883,
      "time_usec": 8412888982
    },
    {
      "x": -9.514460563659668,
      "y": -0.0526420995593071,
      "z": 2.083550214767456,
      "time_usec": 8412891244
    },
    {
      "x": -9.504291534423828,
      "y": -0.038285162299871445,
      "z": 2.059622049331665,
      "time_usec": 8412893503
    },
    {
      "x": -9.494720458984375,
      "y": -0.03349951654672623,
      "z": 2.0404794216156006,
      "time_usec": 8412895760
    },
    {
      "x": -9.513862609863281,
      "y": -0.03349951654672623,
      "z": 2.0309081077575684,
      "time_usec": 8412898013
    },
    {
      "x": -9.499505996704102,
      "y": -0.02392822690308094,
      "z": 2.011765718460083,
      "time_usec": 8412900272
    },
    {
      "x": -9.499505996704102,
      "y": -0.03349951654672623,
      "z": 2.0165512561798096,
      "time_usec": 8412902533
    },
    {
      "x": -9.509077072143555,
      "y": -0.019142581149935722,
      "z": 1.9830517768859863,
      "time_usec": 8412904795
    },
    {
      "x": -9.518648147583008,
      "y": -0.038285162299871445,
      "z": 1.9974087476730347,
      "time_usec": 8412907050
    },
    {
      "x": -9.509077072143555,
      "y": -0.02871387079358101,
      "z": 2.002194404602051,
      "time_usec": 8412909288
    },
    {
      "x": -9.518648147583008,
      "y": -0.02392822690308094,
      "z": 1.9926230907440186,
      "time_usec": 8412911549
    },
    {
      "x": -9.504291534423828,
      "y": -0.02871387079358101,
      "z": 1.9926230907440186,
      "time_usec": 8412913818
    },
    {
      "x": -9.485149383544922,
      "y": -0.02871387079358101,
      "z": 2.002194404602051,
      "time_usec": 8412916080
    },
    {
      "x": -9.4660062789917,
      "y": -0.02871387079358101,
      "z": 2.0027925968170166,
      "time_usec": 8412918332
    },
    {
      "x": -9.442676544189453,
      "y": -0.02392822690308094,
      "z": 2.007578134536743,
      "time_usec": 8412920592
    },
    {
      "x": -9.442676544189453,
      "y": -0.038285162299871445,
      "z": 2.007578134536743,
      "time_usec": 8412922849
    },
    {
      "x": -9.428318977355957,
      "y": -0.029312077909708023,
      "z": 2.012363910675049,
      "time_usec": 8412925108
    },
    {
      "x": -9.418747901916504,
      "y": -0.03409772366285324,
      "z": 2.007578134536743,
      "time_usec": 8412927363
    },
    {
      "x": -9.437891006469727,
      "y": -0.02871387079358101,
      "z": 2.021935224533081,
      "time_usec": 8412929615
    },
    {
      "x": -9.43310546875,
      "y": -0.02392822690308094,
      "z": 2.0410776138305664,
      "time_usec": 8412931881
    },
    {
      "x": -9.437891006469727,
      "y": -0.014356935396790504,
      "z": 2.0793628692626953,
      "time_usec": 8412934144
    },
    {
      "x": -9.44746208190918,
      "y": -0.014356935396790504,
      "z": 2.059622049331665,
      "time_usec": 8412936395
    },
    {
      "x": -9.448060035705566,
      "y": -0.014356935396790504,
      "z": 2.1266210079193115,
      "time_usec": 8412938645
    },
    {
      "x": -9.490532875061035,
      "y": 0.019740786403417587,
      "z": 2.0883359909057617,
      "time_usec": 8412940895
    },
    {
      "x": -9.448060035705566,
      "y": 0.009571290574967861,
      "z": 2.193620204925537,
      "time_usec": 8412943167
    },
    {
      "x": -9.466604232788086,
      "y": 0.062213387340307236,
      "z": 2.107478618621826,
      "time_usec": 8412945425
    },
    {
      "x": -9.448060035705566,
      "y": 0.019740786403417587,
      "z": 2.2271196842193604,
      "time_usec": 8412947682
    },
    {
      "x": -9.485747337341309,
      "y": 0.06759724020957947,
      "z": 2.179263114929199,
      "time_usec": 8412949927
    },
    {
      "x": -9.490532875061035,
      "y": 0.08195417374372482,
      "z": 2.1649062633514404,
      "time_usec": 8412952197
    },
    {
      "x": -9.471988677978516,
      "y": 0.053240302950143814,
      "z": 2.293520450592041,
      "time_usec": 8412954453
    },
    {
      "x": -9.499505996704102,
      "y": 0.14416755735874176,
      "z": 2.145763635635376,
      "time_usec": 8412956709
    },
    {
      "x": -9.471389770507812,
      "y": 0.09152546525001526,
      "z": 2.2271196842193604,
      "time_usec": 8412958964
    },
    {
      "x": -9.518648147583008,
      "y": 0.10588239878416061,
      "z": 2.197807550430298,
      "time_usec": 8412961227
    },
    {
      "x": -9.528220176696777,
      "y": 0.11066804826259613,
      "z": 2.1547367572784424,
      "time_usec": 8412963486
    },
    {
      "x": -9.504889488220215,
      "y": 0.06281159073114395,
      "z": 2.179263114929199,
      "time_usec": 8412965746
    },
    {
      "x": -9.518648147583008,
      "y": 0.06759724020957947,
      "z": 2.1505494117736816,
      "time_usec": 8412967991
    },
    {
      "x": -9.500103950500488,
      "y": 0.019740786403417587,
      "z": 2.160120725631714,
      "time_usec": 8412970244
    },
    {
      "x": -9.500103950500488,
      "y": 5.982056609354913E-4,
      "z": 2.169692039489746,
      "time_usec": 8412972513
    },
    {
      "x": -9.514460563659668,
      "y": -0.008973085321485996,
      "z": 2.145763635635376,
      "time_usec": 8412974770
    },
    {
      "x": -9.519247055053711,
      "y": -0.047258246690034866,
      "z": 2.1505494117736816,
      "time_usec": 8412977018
    },
    {
      "x": -9.538389205932617,
      "y": -0.06640082597732544,
      "z": 2.173879384994507,
      "time_usec": 8412979278
    },
    {
      "x": -9.54796028137207,
      "y": -0.07118647545576096,
      "z": 2.1882362365722656,
      "time_usec": 8412981531
    },
    {
      "x": -9.562915802001953,
      "y": -0.10468599200248718,
      "z": 2.1882362365722656,
      "time_usec": 8412983805
    },
    {
      "x": -9.54377269744873,
      "y": -0.09032905846834183,
      "z": 2.2360928058624268,
      "time_usec": 8412986059
    },
    {
      "x": -9.558130264282227,
      "y": -0.0849452018737793,
      "z": 2.2791635990142822,
      "time_usec": 8412988315
    },
    {
      "x": -9.544371604919434,
      "y": -0.09990034252405167,
      "z": 2.3030917644500732,
      "time_usec": 8412990574
    },
    {
      "x": -9.553942680358887,
      "y": -0.09930214285850525,
      "z": 2.3647069931030273,
      "time_usec": 8412992831
    },
    {
      "x": -9.559326171875,
      "y": -0.11844471842050552,
      "z": 2.4221346378326416,
      "time_usec": 8412995090
    },
    {
      "x": -9.578469276428223,
      "y": -0.10887342691421509,
      "z": 2.4508485794067383,
      "time_usec": 8412997343
    },
    {
      "x": -9.602396965026855,
      "y": -0.12323036789894104,
      "z": 2.4987051486968994,
      "time_usec": 8412999591
    },
    {
      "x": -9.602396965026855,
      "y": -0.13220344483852386,
      "z": 2.526820659637451,
      "time_usec": 8413001860
    },
    {
      "x": -9.621540069580078,
      "y": -0.1178465187549591,
      "z": 2.5698914527893066,
      "time_usec": 8413004115
    },
    {
      "x": -9.635896682739258,
      "y": -0.10827522724866867,
      "z": 2.56510591506958,
      "time_usec": 8413006379
    },
    {
      "x": -9.631111145019531,
      "y": -0.12263216078281403,
      "z": 2.60339093208313,
      "time_usec": 8413008629
    },
    {
      "x": -9.664610862731934,
      "y": -0.12741780281066895,
      "z": 2.60339093208313,
      "time_usec": 8413010894
    },
    {
      "x": -9.673583984375,
      "y": -0.13698910176753998,
      "z": 2.5746772289276123,
      "time_usec": 8413013148
    },
    {
      "x": -9.65503978729248,
      "y": -0.1417747437953949,
      "z": 2.5698914527893066,
      "time_usec": 8413015407
    },
    {
      "x": -9.631111145019531,
      "y": -0.14656038582324982,
      "z": 2.541177749633789,
      "time_usec": 8413017661
    },
    {
      "x": -9.616754531860352,
      "y": -0.13698910176753998,
      "z": 2.541177749633789,
      "time_usec": 8413019913
    },
    {
      "x": -9.616754531860352,
      "y": -0.1417747437953949,
      "z": 2.517249345779419,
      "time_usec": 8413022166
    },
    {
      "x": -9.607182502746582,
      "y": -0.14715859293937683,
      "z": 2.5082762241363525,
      "time_usec": 8413024438
    },
    {
      "x": -9.588040351867676,
      "y": -0.1423729509115219,
      "z": 2.4843480587005615,
      "time_usec": 8413026696
    },
    {
      "x": -9.564111709594727,
      "y": -0.14715859293937683,
      "z": 2.4939193725585938,
      "time_usec": 8413028949
    },
    {
      "x": -9.554540634155273,
      "y": -0.15194423496723175,
      "z": 2.4699912071228027,
      "time_usec": 8413031208
    },
    {
      "x": -9.54496955871582,
      "y": -0.1663011759519577,
      "z": 2.465205430984497,
      "time_usec": 8413033464
    },
    {
      "x": -9.521040916442871,
      "y": -0.15254244208335876,
      "z": 2.4508485794067383,
      "time_usec": 8413035718
    },
    {
      "x": -9.516255378723145,
      "y": -0.14775680005550385,
      "z": 2.4227328300476074,
      "time_usec": 8413037975
    },
    {
      "x": -9.488140106201172,
      "y": -0.16689938306808472,
      "z": 2.4131617546081543,
      "time_usec": 8413040235
    },
    {
      "x": -9.482755661010742,
      "y": -0.16689938306808472,
      "z": 2.3748764991760254,
      "time_usec": 8413042503
    },
    {
      "x": -9.506684303283691,
      "y": -0.18125630915164948,
      "z": 2.341377019882202,
      "time_usec": 8413044751
    },
    {
      "x": -9.492327690124512,
      "y": -0.17647066712379456,
      "z": 2.3222343921661377,
      "time_usec": 8413046998
    },
    {
      "x": -9.473184585571289,
      "y": -0.1621137410402298,
      "z": 2.2983062267303467,
      "time_usec": 8413049261
    },
    {
      "x": -9.45882797241211,
      "y": -0.14356936514377594,
      "z": 2.270190477371216,
      "time_usec": 8413051523
    },
    {
      "x": -9.430113792419434,
      "y": -0.11485548317432404,
      "z": 2.279761791229248,
      "time_usec": 8413053786
    },
    {
      "x": -9.44447135925293,
      "y": -0.11485548317432404,
      "z": 2.2893331050872803,
      "time_usec": 8413056038
    },
    {
      "x": -9.467801094055176,
      "y": -0.09511470049619675,
      "z": 2.3030917644500732,
      "time_usec": 8413058294
    },
    {
      "x": -9.486943244934082,
      "y": -0.07597211748361588,
      "z": 2.307877540588379,
      "time_usec": 8413060557
    },
    {
      "x": -9.491728782653809,
      "y": -0.06640082597732544,
      "z": 2.3270199298858643,
      "time_usec": 8413062813
    },
    {
      "x": -9.486943244934082,
      "y": -0.047258246690034866,
      "z": 2.355733871459961,
      "time_usec": 8413065072
    },
    {
      "x": -9.477970123291016,
      "y": -0.03768695518374443,
      "z": 2.389233350753784,
      "time_usec": 8413067327
    },
    {
      "x": -9.482157707214355,
      "y": -0.018544375896453857,
      "z": 2.403590440750122,
      "time_usec": 8413069581
    },
    {
      "x": -9.482755661010742,
      "y": -0.01375873014330864,
      "z": 2.4131617546081543,
      "time_usec": 8413071842
    },
    {
      "x": -9.463613510131836,
      "y": -0.004187439568340778,
      "z": 2.3988046646118164,
      "time_usec": 8413074097
    },
    {
      "x": -9.486943244934082,
      "y": -0.004187439568340778,
      "z": 2.39401912689209,
      "time_usec": 8413076358
    },
    {
      "x": -9.510871887207031,
      "y": -0.004187439568340778,
      "z": 2.379662036895752,
      "time_usec": 8413078612
    },
    {
      "x": -9.482157707214355,
      "y": -0.023330021649599075,
      "z": 2.365305185317993,
      "time_usec": 8413080874
    },
    {
      "x": -9.482157707214355,
      "y": -0.018544375896453857,
      "z": 2.3461625576019287,
      "time_usec": 8413083131
    },
    {
      "x": -9.486943244934082,
      "y": -0.028115665540099144,
      "z": 2.3126630783081055,
      "time_usec": 8413085389
    },
    {
      "x": -9.482157707214355,
      "y": -0.03290131315588951,
      "z": 2.26959228515625,
      "time_usec": 8413087644
    },
    {
      "x": -9.476774215698242,
      "y": -0.01375873014330864,
      "z": 2.2510478496551514,
      "time_usec": 8413089898
    },
    {
      "x": -9.482157707214355,
      "y": -0.028115665540099144,
      "z": 2.2600209712982178,
      "time_usec": 8413092160
    },
    {
      "x": -9.405587196350098,
      "y": -0.03349951654672623,
      "z": 2.231905221939087,
      "time_usec": 8413094418
    },
    {
      "x": -9.381659507751465,
      "y": -0.02871387079358101,
      "z": 2.1990039348602295,
      "time_usec": 8413096674
    },
    {
      "x": -9.5862455368042,
      "y": -0.09511470049619675,
      "z": 2.14516544342041,
      "time_usec": 8413098920
    },
    {
      "x": -9.552745819091797,
      "y": -0.08554340898990631,
      "z": 2.149951219558716,
      "time_usec": 8413101187
    },
    {
      "x": -9.405587196350098,
      "y": -0.009571290574967861,
      "z": 2.1655044555664062,
      "time_usec": 8413103432
    },
    {
      "x": -9.476774215698242,
      "y": -0.038285162299871445,
      "z": 2.1361923217773438,
      "time_usec": 8413105695
    },
    {
      "x": -9.476774215698242,
      "y": -0.02871387079358101,
      "z": 2.155334949493408,
      "time_usec": 8413107955
    },
    {
      "x": -9.415159225463867,
      "y": -0.009571290574967861,
      "z": 2.1744775772094727,
      "time_usec": 8413110211
    },
    {
      "x": -9.42891788482666,
      "y": -0.004785645287483931,
      "z": 2.1744775772094727,
      "time_usec": 8413112478
    },
    {
      "x": -9.467203140258789,
      "y": -0.02871387079358101,
      "z": 2.184048891067505,
      "time_usec": 8413114722
    },
    {
      "x": -9.462417602539062,
      "y": -0.02392822690308094,
      "z": 2.193620204925537,
      "time_usec": 8413116983
    },
    {
      "x": -9.505488395690918,
      "y": -0.047258246690034866,
      "z": 2.1744775772094727,
      "time_usec": 8413119239
    },
    {
      "x": -9.562317848205566,
      "y": -0.0568295381963253,
      "z": 2.2121646404266357,
      "time_usec": 8413121496
    },
    {
      "x": -9.562317848205566,
      "y": -0.06161518394947052,
      "z": 2.1930220127105713,
      "time_usec": 8413123752
    },
    {
      "x": -9.5862455368042,
      "y": -0.05623133108019829,
      "z": 2.197807550430298,
      "time_usec": 8413126008
    },
    {
      "x": -9.600004196166992,
      "y": -0.05144568532705307,
      "z": 2.1786649227142334,
      "time_usec": 8413128266
    },
    {
      "x": -9.591031074523926,
      "y": -0.04666004329919815,
      "z": 2.1786649227142334,
      "time_usec": 8413130523
    },
    {
      "x": -9.614361763000488,
      "y": -0.037088751792907715,
      "z": 2.169093608856201,
      "time_usec": 8413132779
    },
    {
      "x": -9.609575271606445,
      "y": -0.0323031060397625,
      "z": 2.173879384994507,
      "time_usec": 8413135041
    },
    {
      "x": -9.628718376159668,
      "y": -0.05623133108019829,
      "z": 2.1828525066375732,
      "time_usec": 8413137296
    },
    {
      "x": -9.623932838439941,
      "y": -0.061016976833343506,
      "z": 2.1780667304992676,
      "time_usec": 8413139558
    },
    {
      "x": -9.643074989318848,
      "y": -0.061016976833343506,
      "z": 2.163709878921509,
      "time_usec": 8413141815
    },
    {
      "x": -9.652647018432617,
      "y": -0.06580262631177902,
      "z": 2.1684954166412354,
      "time_usec": 8413144070
    },
    {
      "x": -9.66221809387207,
      "y": -0.0849452018737793,
      "z": 2.173281192779541,
      "time_usec": 8413146326
    },
    {
      "x": -9.66221809387207,
      "y": -0.09451649338006973,
      "z": 2.1828525066375732,
      "time_usec": 8413148584
    },
    {
      "x": -9.671789169311523,
      "y": -0.09930214285850525,
      "z": 2.1828525066375732,
      "time_usec": 8413150843
    },
    {
      "x": -9.695717811584473,
      "y": -0.10887342691421509,
      "z": 2.197209358215332,
      "time_usec": 8413153100
    },
    {
      "x": -9.686145782470703,
      "y": -0.09451649338006973,
      "z": 2.197209358215332,
      "time_usec": 8413155361
    },
    {
      "x": -9.695717811584473,
      "y": -0.10408778488636017,
      "z": 2.211566209793091,
      "time_usec": 8413157629
    },
    {
      "x": -9.695717811584473,
      "y": -0.10408778488636017,
      "z": 2.2067806720733643,
      "time_usec": 8413159884
    },
    {
      "x": -9.686145782470703,
      "y": -0.10408778488636017,
      "z": 2.2019951343536377,
      "time_usec": 8413162142
    },
    {
      "x": -9.67657470703125,
      "y": -0.10408778488636017,
      "z": 2.1780667304992676,
      "time_usec": 8413164384
    },
    {
      "x": -9.638887405395508,
      "y": -0.09451649338006973,
      "z": 2.211566209793091,
      "time_usec": 8413166644
    },
    {
      "x": -9.643074989318848,
      "y": -0.08973085135221481,
      "z": 2.2067806720733643,
      "time_usec": 8413168907
    },
    {
      "x": -9.614959716796875,
      "y": -0.08015955984592438,
      "z": 2.197807550430298,
      "time_usec": 8413171162
    },
    {
      "x": -9.581459999084473,
      "y": -0.061016976833343506,
      "z": 2.2265214920043945,
      "time_usec": 8413173434
    },
    {
      "x": -9.595816612243652,
      "y": -0.06580262631177902,
      "z": 2.245664119720459,
      "time_usec": 8413175692
    },
    {
      "x": -9.605388641357422,
      "y": -0.061016976833343506,
      "z": 2.2307088375091553,
      "time_usec": 8413177940
    },
    {
      "x": -9.605388641357422,
      "y": -0.06580262631177902,
      "z": 2.2307088375091553,
      "time_usec": 8413180189
    },
    {
      "x": -9.610174179077148,
      "y": -0.07537391036748886,
      "z": 2.2259232997894287,
      "time_usec": 8413182455
    },
    {
      "x": -9.610174179077148,
      "y": -0.09930214285850525,
      "z": 2.245065927505493,
      "time_usec": 8413184704
    },
    {
      "x": -9.610174179077148,
      "y": -0.09930214285850525,
      "z": 2.235494613647461,
      "time_usec": 8413186963
    },
    {
      "x": -9.624530792236328,
      "y": -0.10887342691421509,
      "z": 2.2067806720733643,
      "time_usec": 8413189216
    },
    {
      "x": -9.591031074523926,
      "y": -0.1136590763926506,
      "z": 2.2121646404266357,
      "time_usec": 8413191476
    },
    {
      "x": -9.5862455368042,
      "y": -0.11425728350877762,
      "z": 2.2121646404266357,
      "time_usec": 8413193735
    },
    {
      "x": -9.562915802001953,
      "y": -0.11904292553663254,
      "z": 2.2265214920043945,
      "time_usec": 8413195991
    },
    {
      "x": -9.54377269744873,
      "y": -0.1381855010986328,
      "z": 2.197807550430298,
      "time_usec": 8413198252
    },
    {
      "x": -9.538987159729004,
      "y": -0.14775680005550385,
      "z": 2.197807550430298,
      "time_usec": 8413200522
    },
    {
      "x": -9.534201622009277,
      "y": -0.11904292553663254,
      "z": 2.183450698852539,
      "time_usec": 8413202781
    },
    {
      "x": -9.524630546569824,
      "y": -0.1333998590707779,
      "z": 2.1786649227142334,
      "time_usec": 8413205036
    },
    {
      "x": -9.510273933410645,
      "y": -0.11425728350877762,
      "z": 2.184048891067505,
      "time_usec": 8413207281
    },
    {
      "x": -9.54377269744873,
      "y": -0.1094716340303421,
      "z": 2.183450698852539,
      "time_usec": 8413209542
    },
    {
      "x": -9.524630546569824,
      "y": -0.09511470049619675,
      "z": 2.2121646404266357,
      "time_usec": 8413211791
    },
    {
      "x": -9.54377269744873,
      "y": -0.09032905846834183,
      "z": 2.221735715866089,
      "time_usec": 8413214058
    },
    {
      "x": -9.510273933410645,
      "y": -0.08075776696205139,
      "z": 2.2504496574401855,
      "time_usec": 8413216326
    },
    {
      "x": -9.506086349487305,
      "y": -0.07597211748361588,
      "z": 2.283949136734009,
      "time_usec": 8413218577
    },
    {
      "x": -9.515657424926758,
      "y": -0.0568295381963253,
      "z": 2.3270199298858643,
      "time_usec": 8413220840
    },
    {
      "x": -9.520442962646484,
      "y": -0.07118647545576096,
      "z": 2.341377019882202,
      "time_usec": 8413223094
    },
    {
      "x": -9.511469841003418,
      "y": -0.08554340898990631,
      "z": 2.3844478130340576,
      "time_usec": 8413225353
    },
    {
      "x": -9.539586067199707,
      "y": -0.0849452018737793,
      "z": 2.3982064723968506,
      "time_usec": 8413227607
    },
    {
      "x": -9.544371604919434,
      "y": -0.08973085135221481,
      "z": 2.3982064723968506,
      "time_usec": 8413229857
    },
    {
      "x": -9.606584548950195,
      "y": -0.09451649338006973,
      "z": 2.393420934677124,
      "time_usec": 8413232126
    },
    {
      "x": -9.57787036895752,
      "y": -0.08973085135221481,
      "z": 2.4029922485351562,
      "time_usec": 8413234376
    },
    {
      "x": -9.573084831237793,
      "y": -0.08015955984592438,
      "z": 2.3742783069610596,
      "time_usec": 8413236640
    },
    {
      "x": -9.577272415161133,
      "y": -0.08973085135221481,
      "z": 2.3407788276672363,
      "time_usec": 8413238891
    },
    {
      "x": -9.577272415161133,
      "y": -0.061016976833343506,
      "z": 2.3503501415252686,
      "time_usec": 8413241157
    },
    {
      "x": -9.577272415161133,
      "y": -0.061016976833343506,
      "z": 2.316850423812866,
      "time_usec": 8413243412
    },
    {
      "x": -9.572486877441406,
      "y": -0.061016976833343506,
      "z": 2.3120648860931396,
      "time_usec": 8413245667
    },
    {
      "x": -9.558130264282227,
      "y": -0.05144568532705307,
      "z": 2.293520450592041,
      "time_usec": 8413247912
    },
    {
      "x": -9.5533447265625,
      "y": -0.04247260093688965,
      "z": 2.2743778228759766,
      "time_usec": 8413250179
    },
    {
      "x": -9.5533447265625,
      "y": -0.028115665540099144,
      "z": 2.2600209712982178,
      "time_usec": 8413252443
    },
    {
      "x": -9.576674461364746,
      "y": -0.003589233849197626,
      "z": 2.2504496574401855,
      "time_usec": 8413254707
    },
    {
      "x": -9.591031074523926,
      "y": -0.013160524889826775,
      "z": 2.2504496574401855,
      "time_usec": 8413256957
    },
    {
      "x": -9.623932838439941,
      "y": 0.0011964113218709826,
      "z": 2.2498514652252197,
      "time_usec": 8413259210
    },
    {
      "x": -9.633503913879395,
      "y": 0.015553346835076809,
      "z": 2.2498514652252197,
      "time_usec": 8413261469
    },
    {
      "x": -9.638289451599121,
      "y": 0.0011964113218709826,
      "z": 2.259422779083252,
      "time_usec": 8413263721
    },
    {
      "x": -9.629316329956055,
      "y": -0.017946170642971992,
      "z": 2.2642083168029785,
      "time_usec": 8413265973
    },
    {
      "x": -9.629316329956055,
      "y": -0.017946170642971992,
      "z": 2.2737796306610107,
      "time_usec": 8413268236
    },
    {
      "x": -9.634101867675781,
      "y": -0.017946170642971992,
      "z": 2.2737796306610107,
      "time_usec": 8413270492
    },
    {
      "x": -9.595816612243652,
      "y": -0.02751746028661728,
      "z": 2.259422779083252,
      "time_usec": 8413272762
    },
    {
      "x": -9.595816612243652,
      "y": -0.04666004329919815,
      "z": 2.2408783435821533,
      "time_usec": 8413275017
    },
    {
      "x": -9.595816612243652,
      "y": -0.02751746028661728,
      "z": 2.231307029724121,
      "time_usec": 8413277274
    },
    {
      "x": -9.595816612243652,
      "y": -0.0323031060397625,
      "z": 2.2121646404266357,
      "time_usec": 8413279515
    },
    {
      "x": -9.585647583007812,
      "y": -0.0323031060397625,
      "z": 2.1786649227142334,
      "time_usec": 8413281775
    },
    {
      "x": -9.585647583007812,
      "y": -0.047258246690034866,
      "z": 2.149951219558716,
      "time_usec": 8413284042
    },
    {
      "x": -9.56650447845459,
      "y": -0.0568295381963253,
      "z": 2.111665964126587,
      "time_usec": 8413286305
    },
    {
      "x": -9.55214786529541,
      "y": -0.03290131315588951,
      "z": 2.073979139328003,
      "time_usec": 8413288559
    },
    {
      "x": -9.53779125213623,
      "y": -0.018544375896453857,
      "z": 2.050050735473633,
      "time_usec": 8413290816
    },
    {
      "x": -9.528220176696777,
      "y": -0.008973085321485996,
      "z": 2.026122570037842,
      "time_usec": 8413293064
    },
    {
      "x": -9.509077072143555,
      "y": 0.009571290574967861,
      "z": 2.0165512561798096,
      "time_usec": 8413295336
    },
    {
      "x": -9.480362892150879,
      "y": 0.038285162299871445,
      "z": 1.9836499691009521,
      "time_usec": 8413297590
    },
    {
      "x": -9.470791816711426,
      "y": 0.04785645380616188,
      "z": 2.0165512561798096,
      "time_usec": 8413299848
    },
    {
      "x": -9.45164966583252,
      "y": 0.0526420995593071,
      "z": 2.0027925968170166,
      "time_usec": 8413302105
    },
    {
      "x": -9.422935485839844,
      "y": 0.0526420995593071,
      "z": 1.978864312171936,
      "time_usec": 8413304358
    },
    {
      "x": -9.42772102355957,
      "y": 0.0526420995593071,
      "z": 1.97407865524292,
      "time_usec": 8413306621
    },
    {
      "x": -9.41336441040039,
      "y": 0.04247260093688965,
      "z": 1.9405791759490967,
      "time_usec": 8413308874
    },
    {
      "x": -9.41336441040039,
      "y": 0.04247260093688965,
      "z": 1.9453648328781128,
      "time_usec": 8413311137
    },
    {
      "x": -9.384650230407715,
      "y": 0.018544375896453857,
      "z": 1.9172492027282715,
      "time_usec": 8413313394
    },
    {
      "x": -9.394221305847168,
      "y": 0.023330021649599075,
      "z": 1.9262222051620483,
      "time_usec": 8413315651
    },
    {
      "x": -9.408578872680664,
      "y": -5.982056609354913E-4,
      "z": 1.892722725868225,
      "time_usec": 8413317901
    },
    {
      "x": -9.408578872680664,
      "y": 0.01375873014330864,
      "z": 1.887937068939209,
      "time_usec": 8413320158
    },
    {
      "x": -9.370891571044922,
      "y": 0.008973085321485996,
      "z": 1.9076778888702393,
      "time_usec": 8413322423
    },
    {
      "x": -9.379864692687988,
      "y": 0.01375873014330864,
      "z": 1.898106575012207,
      "time_usec": 8413324682
    },
    {
      "x": -9.384650230407715,
      "y": 0.023330021649599075,
      "z": 1.9172492027282715,
      "time_usec": 8413326937
    },
    {
      "x": -9.361320495605469,
      "y": 0.023330021649599075,
      "z": 1.9411773681640625,
      "time_usec": 8413329183
    },
    {
      "x": -9.356534957885742,
      "y": 0.03290131315588951,
      "z": 1.989033818244934,
      "time_usec": 8413331453
    },
    {
      "x": -9.337990760803223,
      "y": 0.0568295381963253,
      "z": 2.022533416748047,
      "time_usec": 8413333706
    },
    {
      "x": -9.352347373962402,
      "y": 0.052043892443180084,
      "z": 2.0889341831207275,
      "time_usec": 8413335971
    },
    {
      "x": -9.366703987121582,
      "y": 0.0568295381963253,
      "z": 2.117648124694824,
      "time_usec": 8413338220
    },
    {
      "x": -9.385847091674805,
      "y": 0.03349951654672623,
      "z": 2.146361827850342,
      "time_usec": 8413340486
    },
    {
      "x": -9.395418167114258,
      "y": 0.04785645380616188,
      "z": 2.155933141708374,
      "time_usec": 8413342746
    },
    {
      "x": -9.433703422546387,
      "y": 0.038285162299871445,
      "z": 2.1505494117736816,
      "time_usec": 8413344997
    },
    {
      "x": -9.433703422546387,
      "y": 0.03349951654672623,
      "z": 2.155334949493408,
      "time_usec": 8413347245
    },
    {
      "x": -9.457033157348633,
      "y": 0.03349951654672623,
      "z": 2.1122641563415527,
      "time_usec": 8413349507
    },
    {
      "x": -9.471389770507812,
      "y": 0.04785645380616188,
      "z": 2.097907304763794,
      "time_usec": 8413351771
    },
    {
      "x": -9.4660062789917,
      "y": 0.04307080805301666,
      "z": 2.0787646770477295,
      "time_usec": 8413354031
    },
    {
      "x": -9.470791816711426,
      "y": 0.04785645380616188,
      "z": 2.0548365116119385,
      "time_usec": 8413356285
    },
    {
      "x": -9.442078590393066,
      "y": 0.04307080805301666,
      "z": 2.03629207611084,
      "time_usec": 8413358534
    },
    {
      "x": -9.456435203552246,
      "y": 0.07657032459974289,
      "z": 2.0315065383911133,
      "time_usec": 8413360787
    },
    {
      "x": -9.4660062789917,
      "y": 0.07657032459974289,
      "z": 2.012363910675049,
      "time_usec": 8413363057
    },
    {
      "x": -9.4660062789917,
      "y": 0.07657032459974289,
      "z": 2.026122570037842,
      "time_usec": 8413365313
    },
    {
      "x": -9.480362892150879,
      "y": 0.07657032459974289,
      "z": 2.0165512561798096,
      "time_usec": 8413367576
    },
    {
      "x": -9.480362892150879,
      "y": 0.062213387340307236,
      "z": 2.0404794216156006,
      "time_usec": 8413369826
    },
    {
      "x": -9.485149383544922,
      "y": 0.05742774158716202,
      "z": 2.050050735473633,
      "time_usec": 8413372090
    },
    {
      "x": -9.513862609863281,
      "y": 0.03409772366285324,
      "z": 2.0548365116119385,
      "time_usec": 8413374345
    },
    {
      "x": -9.504291534423828,
      "y": 0.009571290574967861,
      "z": 2.0644078254699707,
      "time_usec": 8413376602
    },
    {
      "x": -9.528220176696777,
      "y": 0.019740786403417587,
      "z": 2.0644078254699707,
      "time_usec": 8413378855
    },
    {
      "x": -9.533005714416504,
      "y": 5.982056609354913E-4,
      "z": 2.0787646770477295,
      "time_usec": 8413381118
    },
    {
      "x": -9.523433685302734,
      "y": -0.018544375896453857,
      "z": 2.073979139328003,
      "time_usec": 8413383376
    },
    {
      "x": -9.542576789855957,
      "y": -0.018544375896453857,
      "z": 2.0787646770477295,
      "time_usec": 8413385634
    },
    {
      "x": -9.523433685302734,
      "y": 5.982056609354913E-4,
      "z": 2.050050735473633,
      "time_usec": 8413387883
    },
    {
      "x": -9.518648147583008,
      "y": 0.019740786403417587,
      "z": 2.050050735473633,
      "time_usec": 8413390132
    },
    {
      "x": -9.518648147583008,
      "y": 0.024526432156562805,
      "z": 2.035693883895874,
      "time_usec": 8413392393
    },
    {
      "x": -9.499505996704102,
      "y": 0.038285162299871445,
      "z": 2.0165512561798096,
      "time_usec": 8413394663
    },
    {
      "x": -9.480362892150879,
      "y": 0.062213387340307236,
      "z": 2.0165512561798096,
      "time_usec": 8413396922
    },
    {
      "x": -9.485149383544922,
      "y": 0.062213387340307236,
      "z": 2.0069799423217773,
      "time_usec": 8413399175
    },
    {
      "x": -9.470791816711426,
      "y": 0.07178468257188797,
      "z": 1.9980069398880005,
      "time_usec": 8413401436
    },
    {
      "x": -9.503693580627441,
      "y": 0.06699903309345245,
      "z": 2.0069799423217773,
      "time_usec": 8413403696
    },
    {
      "x": -9.494122505187988,
      "y": 0.0526420995593071,
      "z": 1.9782661199569702,
      "time_usec": 8413405950
    },
    {
      "x": -9.480362892150879,
      "y": 0.038285162299871445,
      "z": 1.9878374338150024,
      "time_usec": 8413408202
    },
    {
      "x": -9.513264656066895,
      "y": 0.02392822690308094,
      "z": 1.9974087476730347,
      "time_usec": 8413410462
    },
    {
      "x": -9.518648147583008,
      "y": 0.014356935396790504,
      "z": 2.011765718460083,
      "time_usec": 8413412714
    },
    {
      "x": -9.5324068069458,
      "y": 0.03409772366285324,
      "z": 1.9878374338150024,
      "time_usec": 8413414982
    },
    {
      "x": -9.5324068069458,
      "y": 0.03888336941599846,
      "z": 2.002194404602051,
      "time_usec": 8413417236
    },
    {
      "x": -9.5324068069458,
      "y": 0.024526432156562805,
      "z": 1.9878374338150024,
      "time_usec": 8413419489
    },
    {
      "x": -9.55633544921875,
      "y": 0.024526432156562805,
      "z": 1.9926230907440186,
      "time_usec": 8413421738
    },
    {
      "x": -9.55633544921875,
      "y": 0.014955141581594944,
      "z": 1.968694806098938,
      "time_usec": 8413423998
    },
    {
      "x": -9.56052303314209,
      "y": 5.982056609354913E-4,
      "z": 1.9304096698760986,
      "time_usec": 8413426266
    },
    {
      "x": -9.579665184020996,
      "y": -0.023330021649599075,
      "z": 1.9160526990890503,
      "time_usec": 8413428518
    },
    {
      "x": -9.561120986938477,
      "y": -0.023330021649599075,
      "z": 1.9208383560180664,
      "time_usec": 8413430783
    },
    {
      "x": -9.594022750854492,
      "y": -0.018544375896453857,
      "z": 1.8921245336532593,
      "time_usec": 8413433032
    },
    {
      "x": -9.598808288574219,
      "y": -0.01375873014330864,
      "z": 1.8729819059371948,
      "time_usec": 8413435300
    },
    {
      "x": -9.626923561096191,
      "y": -0.028115665540099144,
      "z": 1.8586249351501465,
      "time_usec": 8413437554
    },
    {
      "x": -9.598209381103516,
      "y": -0.023330021649599075,
      "z": 1.8251254558563232,
      "time_usec": 8413439811
    },
    {
      "x": -9.589237213134766,
      "y": -0.052043892443180084,
      "z": 1.8251254558563232,
      "time_usec": 8413442067
    },
    {
      "x": -9.593423843383789,
      "y": -0.03290131315588951,
      "z": 1.7964116334915161,
      "time_usec": 8413444316
    },
    {
      "x": -9.57487964630127,
      "y": -0.03349951654672623,
      "z": 1.815554141998291,
      "time_usec": 8413446584
    },
    {
      "x": -9.57487964630127,
      "y": -0.038285162299871445,
      "z": 1.8011972904205322,
      "time_usec": 8413448837
    },
    {
      "x": -9.541379928588867,
      "y": -0.05742774158716202,
      "z": 1.8113667964935303,
      "time_usec": 8413451103
    },
    {
      "x": -9.555737495422363,
      "y": -0.04307080805301666,
      "z": 1.7964116334915161,
      "time_usec": 8413453357
    },
    {
      "x": -9.555737495422363,
      "y": -0.02392822690308094,
      "z": 1.8059829473495483,
      "time_usec": 8413455617
    },
    {
      "x": -9.550951957702637,
      "y": -0.04307080805301666,
      "z": 1.8059829473495483,
      "time_usec": 8413457874
    },
    {
      "x": -9.546764373779297,
      "y": -0.04785645380616188,
      "z": 1.8586249351501465,
      "time_usec": 8413460124
    },
    {
      "x": -9.537193298339844,
      "y": -0.038285162299871445,
      "z": 1.85383939743042,
      "time_usec": 8413462385
    },
    {
      "x": -9.551549911499023,
      "y": -0.04785645380616188,
      "z": 1.8873388767242432,
      "time_usec": 8413464634
    },
    {
      "x": -9.546764373779297,
      "y": -0.019142581149935722,
      "z": 1.9304096698760986,
      "time_usec": 8413466902
    },
    {
      "x": -9.5324068069458,
      "y": -0.019142581149935722,
      "z": 1.9351953268051147,
      "time_usec": 8413469154
    },
    {
      "x": -9.54197883605957,
      "y": -0.0,
      "z": 1.9304096698760986,
      "time_usec": 8413471419
    },
    {
      "x": -9.54197883605957,
      "y": 0.005383851006627083,
      "z": 1.949552297592163,
      "time_usec": 8413473675
    },
    {
      "x": -9.537193298339844,
      "y": 0.014356935396790504,
      "z": 1.9399809837341309,
      "time_usec": 8413475933
    },
    {
      "x": -9.522835731506348,
      "y": 0.009571290574967861,
      "z": 1.944766640663147,
      "time_usec": 8413478184
    },
    {
      "x": -9.54197883605957,
      "y": 0.014356935396790504,
      "z": 1.9208383560180664,
      "time_usec": 8413480446
    },
    {
      "x": -9.555737495422363,
      "y": 0.03888336941599846,
      "z": 1.9304096698760986,
      "time_usec": 8413482702
    },
    {
      "x": -9.56052303314209,
      "y": 0.03888336941599846,
      "z": 1.9160526990890503,
      "time_usec": 8413484963
    },
    {
      "x": -9.594022750854492,
      "y": 0.03888336941599846,
      "z": 1.8969101905822754,
      "time_usec": 8413487218
    },
    {
      "x": -9.584450721740723,
      "y": 0.03409772366285324,
      "z": 1.877767562866211,
      "time_usec": 8413489469
    },
    {
      "x": -9.584450721740723,
      "y": 0.029312077909708023,
      "z": 1.882553219795227,
      "time_usec": 8413491719
    },
    {
      "x": -9.589237213134766,
      "y": 0.03409772366285324,
      "z": 1.8873388767242432,
      "time_usec": 8413493980
    },
    {
      "x": -9.584450721740723,
      "y": 0.014955141581594944,
      "z": 1.877767562866211,
      "time_usec": 8413496249
    },
    {
      "x": -9.555737495422363,
      "y": 0.014356935396790504,
      "z": 1.8729819059371948,
      "time_usec": 8413498505
    },
    {
      "x": -9.541379928588867,
      "y": 0.014356935396790504,
      "z": 1.8873388767242432,
      "time_usec": 8413500765
    },
    {
      "x": -9.53659439086914,
      "y": 0.014356935396790504,
      "z": 1.8921245336532593,
      "time_usec": 8413503015
    },
    {
      "x": -9.518050193786621,
      "y": -0.0,
      "z": 1.8969101905822754,
      "time_usec": 8413505280
    },
    {
      "x": -9.498908042907715,
      "y": 0.02871387079358101,
      "z": 1.9070796966552734,
      "time_usec": 8413507535
    },
    {
      "x": -9.475577354431152,
      "y": -0.004785645287483931,
      "z": 1.9405791759490967,
      "time_usec": 8413509791
    },
    {
      "x": -9.470791816711426,
      "y": -0.02871387079358101,
      "z": 1.9597218036651611,
      "time_usec": 8413512053
    },
    {
      "x": -9.4660062789917,
      "y": -0.02392822690308094,
      "z": 1.97407865524292,
      "time_usec": 8413514309
    },
    {
      "x": -9.457033157348633,
      "y": -0.019142581149935722,
      "z": 1.9980069398880005,
      "time_usec": 8413516568
    },
    {
      "x": -9.428318977355957,
      "y": -0.019142581149935722,
      "z": 2.045863389968872,
      "time_usec": 8413518819
    },
    {
      "x": -9.428318977355957,
      "y": 0.004785645287483931,
      "z": 2.0745773315429688,
      "time_usec": 8413521082
    },
    {
      "x": -9.42891788482666,
      "y": 0.019142581149935722,
      "z": 2.1266210079193115,
      "time_usec": 8413523338
    },
    {
      "x": -9.433703422546387,
      "y": -0.009571290574967861,
      "z": 2.1409780979156494,
      "time_usec": 8413525598
    },
    {
      "x": -9.419346809387207,
      "y": 0.009571290574967861,
      "z": 2.1505494117736816,
      "time_usec": 8413527853
    },
    {
      "x": -9.452845573425293,
      "y": 0.009571290574967861,
      "z": 2.1649062633514404,
      "time_usec": 8413530107
    },
    {
      "x": -9.452845573425293,
      "y": -0.009571290574967861,
      "z": 2.169692039489746,
      "time_usec": 8413532369
    },
    {
      "x": -9.476176261901855,
      "y": 0.010169495828449726,
      "z": 2.160120725631714,
      "time_usec": 8413534626
    },
    {
      "x": -9.500103950500488,
      "y": 5.982056609354913E-4,
      "z": 2.1505494117736816,
      "time_usec": 8413536884
    },
    {
      "x": -9.500103950500488,
      "y": 0.005383851006627083,
      "z": 2.097907304763794,
      "time_usec": 8413539136
    },
    {
      "x": -9.485747337341309,
      "y": -0.0,
      "z": 2.0787646770477295,
      "time_usec": 8413541399
    },
    {
      "x": -9.476176261901855,
      "y": -0.0,
      "z": 2.0548365116119385,
      "time_usec": 8413543656
    },
    {
      "x": -9.499505996704102,
      "y": -0.009571290574967861,
      "z": 2.0548365116119385,
      "time_usec": 8413545913
    },
    {
      "x": -9.489934921264648,
      "y": -0.009571290574967861,
      "z": 2.0213370323181152,
      "time_usec": 8413548160
    },
    {
      "x": -9.480362892150879,
      "y": -0.009571290574967861,
      "z": 1.9830517768859863,
      "time_usec": 8413550429
    },
    {
      "x": -9.498908042907715,
      "y": 0.004785645287483931,
      "z": 1.949552297592163,
      "time_usec": 8413552686
    },
    {
      "x": -9.508479118347168,
      "y": -0.0,
      "z": 1.8831514120101929,
      "time_usec": 8413554947
    },
    {
      "x": -9.503693580627441,
      "y": -0.03349951654672623,
      "z": 1.8640087842941284,
      "time_usec": 8413557200
    },
    {
      "x": -9.498908042907715,
      "y": -0.04307080805301666,
      "z": 1.8161523342132568,
      "time_usec": 8413559452
    },
    {
      "x": -9.489336013793945,
      "y": -0.06281159073114395,
      "z": 1.7635103464126587,
      "time_usec": 8413561708
    },
    {
      "x": -9.507881164550781,
      "y": -0.05802594870328903,
      "z": 1.7252250909805298,
      "time_usec": 8413563962
    },
    {
      "x": -9.517452239990234,
      "y": -0.06281159073114395,
      "z": 1.6917256116867065,
      "time_usec": 8413566232
    },
    {
      "x": -9.54078197479248,
      "y": -0.07178468257188797,
      "z": 1.6582261323928833,
      "time_usec": 8413568485
    },
    {
      "x": -9.54078197479248,
      "y": -0.053240302950143814,
      "z": 1.6295121908187866,
      "time_usec": 8413570751
    },
    {
      "x": -9.540184020996094,
      "y": -0.053240302950143814,
      "z": 1.5960127115249634,
      "time_usec": 8413573007
    },
    {
      "x": -9.516854286193848,
      "y": -0.04366901144385338,
      "z": 1.591825246810913,
      "time_usec": 8413575262
    },
    {
      "x": -9.506684303283691,
      "y": -0.03888336941599846,
      "z": 1.5535401105880737,
      "time_usec": 8413577517
    },
    {
      "x": -9.473783493041992,
      "y": -0.03409772366285324,
      "z": 1.5296118259429932,
      "time_usec": 8413579769
    },
    {
      "x": -9.459425926208496,
      "y": -0.029910283163189888,
      "z": 1.5104693174362183,
      "time_usec": 8413582032
    },
    {
      "x": -9.435498237609863,
      "y": -0.029910283163189888,
      "z": 1.5200406312942505,
      "time_usec": 8413584289
    },
    {
      "x": -9.44028377532959,
      "y": -0.02512463741004467,
      "z": 1.4967105388641357,
      "time_usec": 8413586536
    },
    {
      "x": -9.421140670776367,
      "y": -0.020338991656899452,
      "z": 1.4919248819351196,
      "time_usec": 8413588802
    },
    {
      "x": -9.411569595336914,
      "y": -0.029910283163189888,
      "z": 1.4871392250061035,
      "time_usec": 8413591063
    },
    {
      "x": -9.406784057617188,
      "y": -0.02512463741004467,
      "z": 1.444068431854248,
      "time_usec": 8413593324
    },
    {
      "x": -9.411569595336914,
      "y": -0.02512463741004467,
      "z": 1.439282774925232,
      "time_usec": 8413595579
    },
    {
      "x": -9.401998519897461,
      "y": -0.039481572806835175,
      "z": 1.420140266418457,
      "time_usec": 8413597834
    },
    {
      "x": -9.401400566101074,
      "y": -0.039481572806835175,
      "z": 1.4057832956314087,
      "time_usec": 8413600088
    },
    {
      "x": -9.382855415344238,
      "y": -0.049651071429252625,
      "z": 1.3914263248443604,
      "time_usec": 8413602352
    },
    {
      "x": -9.415757179260254,
      "y": -0.058624155819416046,
      "z": 1.3722838163375854,
      "time_usec": 8413604608
    },
    {
      "x": -9.391828536987305,
      "y": -0.06400800496339798,
      "z": 1.353141188621521,
      "time_usec": 8413606866
    },
    {
      "x": -9.387042999267578,
      "y": -0.06400800496339798,
      "z": 1.3441680669784546,
      "time_usec": 8413609114
    },
    {
      "x": -9.415757179260254,
      "y": -0.07357929646968842,
      "z": 1.3483555316925049,
      "time_usec": 8413611368
    },
    {
      "x": -9.430113792419434,
      "y": -0.06340979784727097,
      "z": 1.3387842178344727,
      "time_usec": 8413613638
    },
    {
      "x": -9.430113792419434,
      "y": -0.08255238085985184,
      "z": 1.3627125024795532,
      "time_usec": 8413615896
    },
    {
      "x": -9.43489933013916,
      "y": -0.06340979784727097,
      "z": 1.3722838163375854,
      "time_usec": 8413618151
    },
    {
      "x": -9.42054271697998,
      "y": -0.07776673883199692,
      "z": 1.3770694732666016,
      "time_usec": 8413620412
    },
    {
      "x": -9.435498237609863,
      "y": -0.08733802288770676,
      "z": 1.439282774925232,
      "time_usec": 8413622668
    },
    {
      "x": -9.46899700164795,
      "y": -0.10648060590028763,
      "z": 1.4578272104263306,
      "time_usec": 8413624924
    },
    {
      "x": -9.478569030761719,
      "y": -0.11126625537872314,
      "z": 1.5391831398010254,
      "time_usec": 8413627167
    },
    {
      "x": -9.488738059997559,
      "y": -0.13459627330303192,
      "z": 1.587039589881897,
      "time_usec": 8413629430
    },
    {
      "x": -9.484550476074219,
      "y": -0.1537388563156128,
      "z": 1.6917256116867065,
      "time_usec": 8413631703
    },
    {
      "x": -9.522835731506348,
      "y": -0.1824527233839035,
      "z": 1.7539390325546265,
      "time_usec": 8413633958
    },
    {
      "x": -9.528220176696777,
      "y": -0.19142581522464752,
      "z": 1.8634105920791626,
      "time_usec": 8413636215
    },
    {
      "x": -9.543174743652344,
      "y": -0.2105683982372284,
      "z": 1.9543378353118896,
      "time_usec": 8413638464
    },
    {
      "x": -9.552745819091797,
      "y": -0.21954147517681122,
      "z": 2.0644078254699707,
      "time_usec": 8413640723
    },
    {
      "x": -9.5533447265625,
      "y": -0.2147558331489563,
      "z": 2.1260228157043457,
      "time_usec": 8413642985
    },
    {
      "x": -9.573084831237793,
      "y": -0.25782662630081177,
      "z": 2.197807550430298,
      "time_usec": 8413645244
    },
    {
      "x": -9.582656860351562,
      "y": -0.267397940158844,
      "z": 2.2408783435821533,
      "time_usec": 8413647500
    },
    {
      "x": -9.606584548950195,
      "y": -0.2721835672855377,
      "z": 2.268994092941284,
      "time_usec": 8413649753
    },
    {
      "x": -9.620942115783691,
      "y": -0.26201409101486206,
      "z": 2.2881367206573486,
      "time_usec": 8413652015
    },
    {
      "x": -9.616155624389648,
      "y": -0.28115665912628174,
      "z": 2.3120648860931396,
      "time_usec": 8413654273
    },
    {
      "x": -9.644869804382324,
      "y": -0.2763710021972656,
      "z": 2.316850423812866,
      "time_usec": 8413656531
    },
    {
      "x": -9.64965534210205,
      "y": -0.3002992272377014,
      "z": 2.2785654067993164,
      "time_usec": 8413658784
    },
    {
      "x": -9.654440879821777,
      "y": -0.3194418251514435,
      "z": 2.259422779083252,
      "time_usec": 8413661050
    },
    {
      "x": -9.658628463745117,
      "y": -0.3290131092071533,
      "z": 2.211566209793091,
      "time_usec": 8413663299
    },
    {
      "x": -9.663414001464844,
      "y": -0.33379876613616943,
      "z": 2.197209358215332,
      "time_usec": 8413665550
    },
    {
      "x": -9.66819953918457,
      "y": -0.3290131092071533,
      "z": 2.1589243412017822,
      "time_usec": 8413667816
    },
    {
      "x": -9.662816047668457,
      "y": -0.3439682424068451,
      "z": 2.1158533096313477,
      "time_usec": 8413670070
    },
    {
      "x": -9.662816047668457,
      "y": -0.3439682424068451,
      "z": 2.0781664848327637,
      "time_usec": 8413672336
    },
    {
      "x": -9.648459434509277,
      "y": -0.33918261528015137,
      "z": 2.035095691680908,
      "time_usec": 8413674591
    },
    {
      "x": -9.629316329956055,
      "y": -0.3248256742954254,
      "z": 2.025524377822876,
      "time_usec": 8413676848
    },
    {
      "x": -9.605388641357422,
      "y": -0.3248256742954254,
      "z": 1.9920248985290527,
      "time_usec": 8413679100
    },
    {
      "x": -9.595218658447266,
      "y": -0.2919243574142456,
      "z": 1.9304096698760986,
      "time_usec": 8413681362
    },
    {
      "x": -9.57188892364502,
      "y": -0.2967100143432617,
      "z": 1.9399809837341309,
      "time_usec": 8413683620
    },
    {
      "x": -9.556933403015137,
      "y": -0.2584248483181,
      "z": 1.877767562866211,
      "time_usec": 8413685877
    },
    {
      "x": -9.55214786529541,
      "y": -0.2632105052471161,
      "z": 1.8394824266433716,
      "time_usec": 8413688128
    },
    {
      "x": -9.533005714416504,
      "y": -0.2350948303937912,
      "z": 1.7874385118484497,
      "time_usec": 8413690393
    },
    {
      "x": -9.54197883605957,
      "y": -0.20099709928035736,
      "z": 1.7587246894836426,
      "time_usec": 8413692651
    },
    {
      "x": -9.54197883605957,
      "y": -0.20159530639648438,
      "z": 1.7395820617675781,
      "time_usec": 8413694909
    },
    {
      "x": -9.541379928588867,
      "y": -0.1824527233839035,
      "z": 1.710868239402771,
      "time_usec": 8413697164
    },
    {
      "x": -9.546165466308594,
      "y": -0.14356936514377594,
      "z": 1.710868239402771,
      "time_usec": 8413699417
    },
    {
      "x": -9.56052303314209,
      "y": -0.11006984114646912,
      "z": 1.7156537771224976,
      "time_usec": 8413701680
    },
    {
      "x": -9.569496154785156,
      "y": -0.10049854964017868,
      "z": 1.7252250909805298,
      "time_usec": 8413703937
    },
    {
      "x": -9.550951957702637,
      "y": -0.08614161610603333,
      "z": 1.7443677186965942,
      "time_usec": 8413706195
    },
    {
      "x": -9.55513858795166,
      "y": -0.02871387079358101,
      "z": 1.7635103464126587,
      "time_usec": 8413708444
    },
    {
      "x": -9.607781410217285,
      "y": -0.01375873014330864,
      "z": 1.8011972904205322,
      "time_usec": 8413710699
    },
    {
      "x": -9.612566947937012,
      "y": -0.008973085321485996,
      "z": 1.7868403196334839,
      "time_usec": 8413712967
    },
    {
      "x": -9.621540069580078,
      "y": 0.029312077909708023,
      "z": 1.7868403196334839,
      "time_usec": 8413715226
    },
    {
      "x": -9.611968994140625,
      "y": 0.05802594870328903,
      "z": 1.7772690057754517,
      "time_usec": 8413717484
    },
    {
      "x": -9.640682220458984,
      "y": 0.06759724020957947,
      "z": 1.7772690057754517,
      "time_usec": 8413719735
    },
    {
      "x": -9.659226417541504,
      "y": 0.09152546525001526,
      "z": 1.7437695264816284,
      "time_usec": 8413721997
    },
    {
      "x": -9.683155059814453,
      "y": 0.1010967567563057,
      "z": 1.7623138427734375,
      "time_usec": 8413724255
    },
    {
      "x": -9.701699256896973,
      "y": 0.13040883839130402,
      "z": 1.7718851566314697,
      "time_usec": 8413726511
    },
    {
      "x": -9.716055870056152,
      "y": 0.15912270545959473,
      "z": 1.7527425289154053,
      "time_usec": 8413728759
    },
    {
      "x": -9.725028991699219,
      "y": 0.1543370634317398,
      "z": 1.7336000204086304,
      "time_usec": 8413731016
    },
    {
      "x": -9.758528709411621,
      "y": 0.1543370634317398,
      "z": 1.7288143634796143,
      "time_usec": 8413733286
    },
    {
      "x": -9.78664493560791,
      "y": 0.1495514214038849,
      "z": 1.7001005411148071,
      "time_usec": 8413735544
    },
    {
      "x": -9.791430473327637,
      "y": 0.16869398951530457,
      "z": 1.7001005411148071,
      "time_usec": 8413737801
    },
    {
      "x": -9.80100154876709,
      "y": 0.19262222945690155,
      "z": 1.6761722564697266,
      "time_usec": 8413740051
    },
    {
      "x": -9.795618057250977,
      "y": 0.21176479756832123,
      "z": 1.6618152856826782,
      "time_usec": 8413742315
    },
    {
      "x": -9.767501831054688,
      "y": 0.2356930375099182,
      "z": 1.6809579133987427,
      "time_usec": 8413744569
    },
    {
      "x": -9.767501831054688,
      "y": 0.25004997849464417,
      "z": 1.7048860788345337,
      "time_usec": 8413746818
    },
    {
      "x": -9.762716293334961,
      "y": 0.259621262550354,
      "z": 1.7431713342666626,
      "time_usec": 8413749082
    },
    {
      "x": -9.743574142456055,
      "y": 0.2883351147174835,
      "z": 1.7718851566314697,
      "time_usec": 8413751342
    },
    {
      "x": -9.748957633972168,
      "y": 0.26919254660606384,
      "z": 1.810170292854309,
      "time_usec": 8413753594
    },
    {
      "x": -9.748957633972168,
      "y": 0.26440688967704773,
      "z": 1.8293129205703735,
      "time_usec": 8413755860
    },
    {
      "x": -9.720243453979492,
      "y": 0.26440688967704773,
      "z": 1.8293129205703735,
      "time_usec": 8413758112
    },
    {
      "x": -9.744172096252441,
      "y": 0.24526432156562805,
      "z": 1.8340985774993896,
      "time_usec": 8413760377
    },
    {
      "x": -9.729815483093262,
      "y": 0.2548356056213379,
      "z": 1.8005990982055664,
      "time_usec": 8413762632
    },
    {
      "x": -9.710672378540039,
      "y": 0.2356930375099182,
      "z": 1.7766708135604858,
      "time_usec": 8413764891
    },
    {
      "x": -9.701101303100586,
      "y": 0.2356930375099182,
      "z": 1.7431713342666626,
      "time_usec": 8413767145
    },
    {
      "x": -9.691530227661133,
      "y": 0.24466611444950104,
      "z": 1.6959130764007568,
      "time_usec": 8413769399
    },
    {
      "x": -9.695717811584473,
      "y": 0.24945175647735596,
      "z": 1.6767704486846924,
      "time_usec": 8413771662
    },
    {
      "x": -9.67657470703125,
      "y": 0.24945175647735596,
      "z": 1.6289139986038208,
      "time_usec": 8413773919
    },
    {
      "x": -9.671789169311523,
      "y": 0.24945175647735596,
      "z": 1.6049858331680298,
      "time_usec": 8413776176
    },
    {
      "x": -9.66221809387207,
      "y": 0.2350948303937912,
      "z": 1.5858432054519653,
      "time_usec": 8413778429
    },
    {
      "x": -9.671789169311523,
      "y": 0.23030917346477509,
      "z": 1.5858432054519653,
      "time_usec": 8413780693
    },
    {
      "x": -9.638289451599121,
