{
  "accelerations": [
    {
      "x": 9.404989242553711,
      "y": 0.3601198196411133,
      "z": 2.513660192489624,
      "time_usec": 12456130781
    },
    {
      "x": 9.381659507751465,
      "y": 0.364905446767807,
      "z": 2.504088878631592,
      "time_usec": 12456133038
    },
    {
      "x": 9.357730865478516,
      "y": 0.35533416271209717,
      "z": 2.5082762241363525,
      "time_usec": 12456135292
    },
    {
      "x": 9.32423210144043,
      "y": 0.3415754437446594,
      "z": 2.4987051486968994,
      "time_usec": 12456137550
    },
    {
      "x": 9.32423210144043,
      "y": 0.3320041298866272,
      "z": 2.5082762241363525,
      "time_usec": 12456139798
    },
    {
      "x": 9.305686950683594,
      "y": 0.3128615617752075,
      "z": 2.4843480587005615,
      "time_usec": 12456142069
    },
    {
      "x": 9.305088996887207,
      "y": 0.29850462079048157,
      "z": 2.479562520980835,
      "time_usec": 12456144326
    },
    {
      "x": 9.290732383728027,
      "y": 0.26500511169433594,
      "z": 2.465205430984497,
      "time_usec": 12456146589
    },
    {
      "x": 9.319445610046387,
      "y": 0.27397820353507996,
      "z": 2.4699912071228027,
      "time_usec": 12456148841
    },
    {
      "x": 9.352347373962402,
      "y": 0.24047867953777313,
      "z": 2.479562520980835,
      "time_usec": 12456151095
    },
    {
      "x": 9.376275062561035,
      "y": 0.2548356056213379,
      "z": 2.4993033409118652,
      "time_usec": 12456153341
    },
    {
      "x": 9.400203704833984,
      "y": 0.27397820353507996,
      "z": 2.5423741340637207,
      "time_usec": 12456155611
    },
    {
      "x": 9.428318977355957,
      "y": 0.2883351147174835,
      "z": 2.561516523361206,
      "time_usec": 12456157864
    },
    {
      "x": 9.461220741271973,
      "y": 0.2883351147174835,
      "z": 2.599801778793335,
      "time_usec": 12456160130
    },
    {
      "x": 9.489934921264648,
      "y": 0.3403790295124054,
      "z": 2.6285157203674316,
      "time_usec": 12456162385
    },
    {
      "x": 9.533005714416504,
      "y": 0.3355933725833893,
      "z": 2.624328136444092,
      "time_usec": 12456164644
    },
    {
      "x": 9.537193298339844,
      "y": 0.3451646566390991,
      "z": 2.6572296619415283,
      "time_usec": 12456166899
    },
    {
      "x": 9.57069206237793,
      "y": 0.34995031356811523,
      "z": 2.672184705734253,
      "time_usec": 12456169157
    },
    {
      "x": 9.551549911499023,
      "y": 0.3595215976238251,
      "z": 2.672184705734253,
      "time_usec": 12456171414
    },
    {
      "x": 9.561120986938477,
      "y": 0.34995031356811523,
      "z": 2.710469961166382,
      "time_usec": 12456173668
    },
    {
      "x": 9.55633544921875,
      "y": 0.35473597049713135,
      "z": 2.696112871170044,
      "time_usec": 12456175916
    },
    {
      "x": 9.565906524658203,
      "y": 0.3451646566390991,
      "z": 2.705684185028076,
      "time_usec": 12456178186
    },
    {
      "x": 9.57487964630127,
      "y": 0.34995031356811523,
      "z": 2.7152554988861084,
      "time_usec": 12456180445
    },
    {
      "x": 9.584450721740723,
      "y": 0.34995031356811523,
      "z": 2.6913273334503174,
      "time_usec": 12456182710
    },
    {
      "x": 9.594620704650879,
      "y": 0.3643072545528412,
      "z": 2.6769702434539795,
      "time_usec": 12456184954
    },
    {
      "x": 9.608977317810059,
      "y": 0.3643072545528412,
      "z": 2.6530420780181885,
      "time_usec": 12456187216
    },
    {
      "x": 9.599406242370605,
      "y": 0.3595215976238251,
      "z": 2.633899450302124,
      "time_usec": 12456189470
    },
    {
      "x": 9.617950439453125,
      "y": 0.35892340540885925,
      "z": 2.648256540298462,
      "time_usec": 12456191726
    },
    {
      "x": 9.627521514892578,
      "y": 0.35413774847984314,
      "z": 2.648256540298462,
      "time_usec": 12456193983
    },
    {
      "x": 9.637093544006348,
      "y": 0.38285163044929504,
      "z": 2.6673989295959473,
      "time_usec": 12456196246
    },
    {
      "x": 9.651450157165527,
      "y": 0.37806597352027893,
      "z": 2.6769702434539795,
      "time_usec": 12456198504
    },
    {
      "x": 9.656235694885254,
      "y": 0.35892340540885925,
      "z": 2.6392834186553955,
      "time_usec": 12456200760
    },
    {
      "x": 9.5802640914917,
      "y": 0.34995031356811523,
      "z": 2.6386852264404297,
      "time_usec": 12456203005
    },
    {
      "x": 9.613762855529785,
      "y": 0.3732803463935852,
      "z": 2.600399971008301,
      "time_usec": 12456205274
    },
    {
      "x": 9.68494987487793,
      "y": 0.397208571434021,
      "z": 2.6153552532196045,
      "time_usec": 12456207532
    },
    {
      "x": 9.717850685119629,
      "y": 0.397208571434021,
      "z": 2.6488547325134277,
      "time_usec": 12456209792
    },
    {
      "x": 9.736993789672852,
      "y": 0.3774677813053131,
      "z": 2.682354211807251,
      "time_usec": 12456212041
    },
    {
      "x": 9.732208251953125,
      "y": 0.38285163044929504,
      "z": 2.682354211807251,
      "time_usec": 12456214300
    },
    {
      "x": 9.68913745880127,
      "y": 0.35413774847984314,
      "z": 2.65842604637146,
      "time_usec": 12456216559
    },
    {
      "x": 9.670592308044434,
      "y": 0.3445664644241333,
      "z": 2.6057839393615723,
      "time_usec": 12456218808
    },
    {
      "x": 9.623334884643555,
      "y": 0.33499518036842346,
      "z": 2.600399971008301,
      "time_usec": 12456221071
    },
    {
      "x": 9.599406242370605,
      "y": 0.3206382393836975,
      "z": 2.5812573432922363,
      "time_usec": 12456223330
    },
    {
      "x": 9.571290969848633,
      "y": 0.32542386651039124,
      "z": 2.5573291778564453,
      "time_usec": 12456225595
    },
    {
      "x": 9.561718940734863,
      "y": 0.32602208852767944,
      "z": 2.562114953994751,
      "time_usec": 12456227851
    },
    {
      "x": 9.556933403015137,
      "y": 0.33080771565437317,
      "z": 2.5812573432922363,
      "time_usec": 12456230107
    },
    {
      "x": 9.547362327575684,
      "y": 0.33080771565437317,
      "z": 2.5908286571502686,
      "time_usec": 12456232363
    },
    {
      "x": 9.53779125213623,
      "y": 0.3164508044719696,
      "z": 2.595614433288574,
      "time_usec": 12456234617
    },
    {
      "x": 9.509077072143555,
      "y": 0.3116651475429535,
      "z": 2.599801778793335,
      "time_usec": 12456236879
    },
    {
      "x": 9.509077072143555,
      "y": 0.2925225794315338,
      "z": 2.6045875549316406,
      "time_usec": 12456239134
    },
    {
      "x": 9.513862609863281,
      "y": 0.2829512655735016,
      "z": 2.6141586303710938,
      "time_usec": 12456241394
    },
    {
      "x": 9.504291534423828,
      "y": 0.2829512655735016,
      "z": 2.6189444065093994,
      "time_usec": 12456243646
    },
    {
      "x": 9.513264656066895,
      "y": 0.27337998151779175,
      "z": 2.6572296619415283,
      "time_usec": 12456245909
    },
    {
      "x": 9.508479118347168,
      "y": 0.27816563844680786,
      "z": 2.6811578273773193,
      "time_usec": 12456248166
    },
    {
      "x": 9.527023315429688,
      "y": 0.25423741340637207,
      "z": 2.695514678955078,
      "time_usec": 12456250425
    },
    {
      "x": 9.522835731506348,
      "y": 0.25423741340637207,
      "z": 2.6907291412353516,
      "time_usec": 12456252679
    },
    {
      "x": 9.513264656066895,
      "y": 0.23988047242164612,
      "z": 2.700300455093384,
      "time_usec": 12456254930
    },
    {
      "x": 9.517452239990234,
      "y": 0.2350948303937912,
      "z": 2.695514678955078,
      "time_usec": 12456257196
    },
    {
      "x": 9.517452239990234,
      "y": 0.23030917346477509,
      "z": 2.6907291412353516,
      "time_usec": 12456259452
    },
    {
      "x": 9.517452239990234,
      "y": 0.22552353143692017,
      "z": 2.6907291412353516,
      "time_usec": 12456261707
    },
    {
      "x": 9.488738059997559,
      "y": 0.21176479756832123,
      "z": 2.719442844390869,
      "time_usec": 12456263961
    },
    {
      "x": 9.494122505187988,
      "y": 0.22073788940906525,
      "z": 2.709871530532837,
      "time_usec": 12456266225
    },
    {
      "x": 9.512666702270508,
      "y": 0.21595224738121033,
      "z": 2.7146573066711426,
      "time_usec": 12456268482
    },
    {
      "x": 9.522237777709961,
      "y": 0.17288143932819366,
      "z": 2.685943365097046,
      "time_usec": 12456270734
    },
    {
      "x": 9.517452239990234,
      "y": 0.19202402234077454,
      "z": 2.7050859928131104,
      "time_usec": 12456272985
    },
    {
      "x": 9.508479118347168,
      "y": 0.19202402234077454,
      "z": 2.623729944229126,
      "time_usec": 12456275247
    },
    {
      "x": 9.512666702270508,
      "y": 0.17288143932819366,
      "z": 2.700300455093384,
      "time_usec": 12456277500
    },
    {
      "x": 9.503693580627441,
      "y": 0.16331014037132263,
      "z": 2.585444927215576,
      "time_usec": 12456279772
    },
    {
      "x": 9.503693580627441,
      "y": 0.18723836541175842,
      "z": 2.6045875549316406,
      "time_usec": 12456282024
    },
    {
      "x": 9.494122505187988,
      "y": 0.17766708135604858,
      "z": 2.5710878372192383,
      "time_usec": 12456284282
    },
    {
      "x": 9.480961799621582,
      "y": 0.20159530639648438,
      "z": 2.4233310222625732,
      "time_usec": 12456286541
    },
    {
      "x": 9.499505996704102,
      "y": 0.18723836541175842,
      "z": 2.523829698562622,
      "time_usec": 12456288800
    },
    {
      "x": 9.471988677978516,
      "y": 0.21595224738121033,
      "z": 2.3467607498168945,
      "time_usec": 12456291057
    },
    {
      "x": 9.500103950500488,
      "y": 0.2392822653055191,
      "z": 2.3611178398132324,
      "time_usec": 12456293309
    },
    {
      "x": 9.495916366577148,
      "y": 0.25363919138908386,
      "z": 2.32761812210083,
      "time_usec": 12456295573
    },
    {
      "x": 9.486943244934082,
      "y": 0.27756741642951965,
      "z": 2.2372891902923584,
      "time_usec": 12456297828
    },
    {
      "x": 9.472586631774902,
      "y": 0.2679961323738098,
      "z": 2.2749760150909424,
      "time_usec": 12456300088
    },
    {
      "x": 9.453444480895996,
      "y": 0.27337998151779175,
      "z": 2.2271196842193604,
      "time_usec": 12456302343
    },
    {
      "x": 9.449256896972656,
      "y": 0.28235307335853577,
      "z": 2.184048891067505,
      "time_usec": 12456304596
    },
    {
      "x": 9.439684867858887,
      "y": 0.2871387302875519,
      "z": 2.160120725631714,
      "time_usec": 12456306859
    },
    {
      "x": 9.44028377532959,
      "y": 0.31106695532798767,
      "z": 2.1128623485565186,
      "time_usec": 12456309116
    },
    {
      "x": 9.402596473693848,
      "y": 0.33080771565437317,
      "z": 2.0787646770477295,
      "time_usec": 12456311373
    },
    {
      "x": 9.4121675491333,
      "y": 0.32542386651039124,
      "z": 2.03629207611084,
      "time_usec": 12456313624
    },
    {
      "x": 9.398408889770508,
      "y": 0.33499518036842346,
      "z": 1.9980069398880005,
      "time_usec": 12456315882
    },
    {
      "x": 9.388837814331055,
      "y": 0.3158525824546814,
      "z": 1.9597218036651611,
      "time_usec": 12456318145
    },
    {
      "x": 9.398408889770508,
      "y": 0.33020952343940735,
      "z": 1.9405791759490967,
      "time_usec": 12456320404
    },
    {
      "x": 9.384052276611328,
      "y": 0.3158525824546814,
      "z": 1.9597218036651611,
      "time_usec": 12456322660
    },
    {
      "x": 9.355338096618652,
      "y": 0.3116651475429535,
      "z": 1.9782661199569702,
      "time_usec": 12456324913
    },
    {
      "x": 9.364909172058105,
      "y": 0.3116651475429535,
      "z": 2.002194404602051,
      "time_usec": 12456327176
    },
    {
      "x": 9.383454322814941,
      "y": 0.2925225794315338,
      "z": 2.026122570037842,
      "time_usec": 12456329433
    },
    {
      "x": 9.373882293701172,
      "y": 0.27337998151779175,
      "z": 2.059622049331665,
      "time_usec": 12456331690
    },
    {
      "x": 9.373882293701172,
      "y": 0.2590230405330658,
      "z": 2.0787646770477295,
      "time_usec": 12456333942
    },
    {
      "x": 9.369096755981445,
      "y": 0.268594354391098,
      "z": 2.097907304763794,
      "time_usec": 12456336203
    },
    {
      "x": 9.373284339904785,
      "y": 0.24466611444950104,
      "z": 2.1266210079193115,
      "time_usec": 12456338455
    },
    {
      "x": 9.378069877624512,
      "y": 0.24466611444950104,
      "z": 2.1266210079193115,
      "time_usec": 12456340707
    },
    {
      "x": 9.368498802185059,
      "y": 0.24945175647735596,
      "z": 2.1409780979156494,
      "time_usec": 12456342971
    },
    {
      "x": 9.382855415344238,
      "y": 0.25423741340637207,
      "z": 2.1361923217773438,
      "time_usec": 12456345231
    },
    {
      "x": 9.401998519897461,
      "y": 0.268594354391098,
      "z": 2.1649062633514404,
      "time_usec": 12456347495
    },
    {
      "x": 9.410971641540527,
      "y": 0.2638086974620819,
      "z": 2.169692039489746,
      "time_usec": 12456349749
    },
    {
      "x": 9.42054271697998,
      "y": 0.25423741340637207,
      "z": 2.193620204925537,
      "time_usec": 12456351993
    },
    {
      "x": 9.439684867858887,
      "y": 0.27816563844680786,
      "z": 2.207977056503296,
      "time_usec": 12456354258
    },
    {
      "x": 9.458230018615723,
      "y": 0.24406790733337402,
      "z": 2.207977056503296,
      "time_usec": 12456356515
    },
    {
      "x": 9.453444480895996,
      "y": 0.2153540402650833,
      "z": 2.207977056503296,
      "time_usec": 12456358768
    },
    {
      "x": 9.471988677978516,
      "y": 0.20099709928035736,
      "z": 2.255833625793457,
      "time_usec": 12456361030
    },
    {
      "x": 9.471988677978516,
      "y": 0.16749759018421173,
      "z": 2.3084757328033447,
      "time_usec": 12456363289
    },
    {
      "x": 9.504889488220215,
      "y": 0.16749759018421173,
      "z": 2.341975212097168,
      "time_usec": 12456365554
    },
    {
      "x": 9.489934921264648,
      "y": 0.11964113265275955,
      "z": 2.375474691390991,
      "time_usec": 12456367811
    },
    {
      "x": 9.480362892150879,
      "y": 0.0771685317158699,
      "z": 2.4185454845428467,
      "time_usec": 12456370063
    },
    {
      "x": 9.498908042907715,
      "y": 0.02392822690308094,
      "z": 2.437688112258911,
      "time_usec": 12456372309
    },
    {
      "x": 9.470193862915039,
      "y": 5.982056609354913E-4,
      "z": 2.4233310222625732,
      "time_usec": 12456374574
    },
    {
      "x": 9.45583724975586,
      "y": -0.008973085321485996,
      "z": 2.4370899200439453,
      "time_usec": 12456376835
    },
    {
      "x": 9.44626522064209,
      "y": -0.018544375896453857,
      "z": 2.4227328300476074,
      "time_usec": 12456379099
    },
    {
      "x": 9.442078590393066,
      "y": -0.023330021649599075,
      "z": 2.39401912689209,
      "time_usec": 12456381354
    },
    {
      "x": 9.437292098999023,
      "y": -0.052043892443180084,
      "z": 2.3844478130340576,
      "time_usec": 12456383606
    },
    {
      "x": 9.451051712036133,
      "y": -0.0568295381963253,
      "z": 2.3994028568267822,
      "time_usec": 12456385867
    },
    {
      "x": 9.44626522064209,
      "y": -0.04247260093688965,
      "z": 2.4083759784698486,
      "time_usec": 12456388125
    },
    {
      "x": 9.43190860748291,
      "y": -0.04247260093688965,
      "z": 2.427518606185913,
      "time_usec": 12456390384
    },
    {
      "x": 9.41755199432373,
      "y": -0.052043892443180084,
      "z": 2.4227328300476074,
      "time_usec": 12456392636
    },
    {
      "x": 9.422337532043457,
      "y": -0.08075776696205139,
      "z": 2.39401912689209,
      "time_usec": 12456394884
    },
    {
      "x": 9.389435768127441,
      "y": -0.09032905846834183,
      "z": 2.4131617546081543,
      "time_usec": 12456397155
    },
    {
      "x": 9.351150512695312,
      "y": -0.12861421704292297,
      "z": 2.4323041439056396,
      "time_usec": 12456399413
    },
    {
      "x": 9.336793899536133,
      "y": -0.1423729509115219,
      "z": 2.4364917278289795,
      "time_usec": 12456401670
    },
    {
      "x": 9.317651748657227,
      "y": -0.15194423496723175,
      "z": 2.455634355545044,
      "time_usec": 12456403917
    },
    {
      "x": 9.3457670211792,
      "y": -0.1663011759519577,
      "z": 2.4604198932647705,
      "time_usec": 12456406184
    },
    {
      "x": 9.3457670211792,
      "y": -0.17587246000766754,
      "z": 2.5082762241363525,
      "time_usec": 12456408442
    },
    {
      "x": 9.350552558898926,
      "y": -0.17587246000766754,
      "z": 2.4987051486968994,
      "time_usec": 12456410702
    },
    {
      "x": 9.355338096618652,
      "y": -0.1860419660806656,
      "z": 2.4939193725585938,
      "time_usec": 12456412949
    },
    {
      "x": 9.369695663452148,
      "y": -0.1860419660806656,
      "z": 2.4562325477600098,
      "time_usec": 12456415208
    },
    {
      "x": 9.360123634338379,
      "y": -0.17647066712379456,
      "z": 2.441875457763672,
      "time_usec": 12456417468
    },
    {
      "x": 9.355338096618652,
      "y": -0.16689938306808472,
      "z": 2.441875457763672,
      "time_usec": 12456419714
    },
    {
      "x": 9.364909172058105,
      "y": -0.1621137410402298,
      "z": 2.427518606185913,
      "time_usec": 12456421974
    },
    {
      "x": 9.350552558898926,
      "y": -0.17168502509593964,
      "z": 2.441875457763672,
      "time_usec": 12456424238
    },
    {
      "x": 9.360123634338379,
      "y": -0.17647066712379456,
      "z": 2.4747767448425293,
      "time_usec": 12456426504
    },
    {
      "x": 9.373882293701172,
      "y": -0.18125630915164948,
      "z": 2.5082762241363525,
      "time_usec": 12456428761
    },
    {
      "x": 9.393025398254395,
      "y": -0.1860419660806656,
      "z": 2.5561327934265137,
      "time_usec": 12456431014
    },
    {
      "x": 9.421140670776367,
      "y": -0.18125630915164948,
      "z": 2.5902304649353027,
      "time_usec": 12456433268
    },
    {
      "x": 9.439684867858887,
      "y": -0.19561325013637543,
      "z": 2.6285157203674316,
      "time_usec": 12456435532
    },
    {
      "x": 9.296713829040527,
      "y": -0.2667997181415558,
      "z": 2.6464617252349854,
      "time_usec": 12456437790
    },
    {
      "x": 9.567103385925293,
      "y": -0.2392822653055191,
      "z": 2.7146573066711426,
      "time_usec": 12456440055
    },
    {
      "x": 9.5533447265625,
      "y": -0.24885354936122894,
      "z": 2.6763720512390137,
      "time_usec": 12456442301
    },
    {
      "x": 9.377471923828125,
      "y": -0.3002992272377014,
      "z": 2.6709883213043213,
      "time_usec": 12456444554
    },
    {
      "x": 9.434301376342773,
      "y": -0.28175488114356995,
      "z": 2.6805596351623535,
      "time_usec": 12456446815
    },
    {
      "x": 9.472586631774902,
      "y": -0.243469700217247,
      "z": 2.6285157203674316,
      "time_usec": 12456449075
    },
    {
      "x": 9.401998519897461,
      "y": -0.2386840581893921,
      "z": 2.599203586578369,
      "time_usec": 12456451332
    },
    {
      "x": 9.373284339904785,
      "y": -0.22911277413368225,
      "z": 2.565704107284546,
      "time_usec": 12456453586
    },
    {
      "x": 9.41635513305664,
      "y": -0.20997019112110138,
      "z": 2.5471596717834473,
      "time_usec": 12456455847
    },
    {
      "x": 9.393025398254395,
      "y": -0.1860419660806656,
      "z": 2.489732027053833,
      "time_usec": 12456458101
    },
    {
      "x": 9.340981483459473,
      "y": -0.17168502509593964,
      "z": 2.4364917278289795,
      "time_usec": 12456460351
    },
    {
      "x": 9.336793899536133,
      "y": -0.16689938306808472,
      "z": 2.3988046646118164,
      "time_usec": 12456462618
    },
    {
      "x": 9.32722282409668,
      "y": -0.15254244208335876,
      "z": 2.3605196475982666,
      "time_usec": 12456464870
    },
    {
      "x": 9.30867862701416,
      "y": -0.15672987699508667,
      "z": 2.345564365386963,
      "time_usec": 12456467133
    },
    {
      "x": 9.318249702453613,
      "y": -0.14775680005550385,
      "z": 2.33180570602417,
      "time_usec": 12456469393
    },
    {
      "x": 9.279964447021484,
      "y": -0.12801600992679596,
      "z": 2.316850423812866,
      "time_usec": 12456471647
    },
    {
      "x": 9.266205787658691,
      "y": -0.0849452018737793,
      "z": 2.3120648860931396,
      "time_usec": 12456473901
    },
    {
      "x": 9.266205787658691,
      "y": -0.07537391036748886,
      "z": 2.307279348373413,
      "time_usec": 12456476164
    },
    {
      "x": 9.261420249938965,
      "y": -0.05623133108019829,
      "z": 2.307279348373413,
      "time_usec": 12456478417
    },
    {
      "x": 9.266803741455078,
      "y": -0.037088751792907715,
      "z": 2.2737796306610107,
      "time_usec": 12456480665
    },
    {
      "x": 9.271589279174805,
      "y": -0.013160524889826775,
      "z": 2.245065927505493,
      "time_usec": 12456482929
    },
    {
      "x": 9.271589279174805,
      "y": 0.015553346835076809,
      "z": 2.2408783435821533,
      "time_usec": 12456485188
    },
    {
      "x": 9.30030345916748,
      "y": 0.014955141581594944,
      "z": 2.197807550430298,
      "time_usec": 12456487454
    },
    {
      "x": 9.315258979797363,
      "y": 0.03888336941599846,
      "z": 2.1786649227142334,
      "time_usec": 12456489709
    },
    {
      "x": 9.324830055236816,
      "y": 0.053240302950143814,
      "z": 2.1547367572784424,
      "time_usec": 12456491965
    },
    {
      "x": 9.362516403198242,
      "y": 0.08673982322216034,
      "z": 2.1744775772094727,
      "time_usec": 12456494217
    },
    {
      "x": 9.376873970031738,
      "y": 0.08673982322216034,
      "z": 2.2031915187835693,
      "time_usec": 12456496478
    },
    {
      "x": 9.381659507751465,
      "y": 0.09631111472845078,
      "z": 2.222334146499634,
      "time_usec": 12456498733
    },
    {
      "x": 9.404989242553711,
      "y": 0.08673982322216034,
      "z": 2.217548370361328,
      "time_usec": 12456500995
    },
    {
      "x": 9.409774780273438,
      "y": 0.08673982322216034,
      "z": 2.217548370361328,
      "time_usec": 12456503248
    },
    {
      "x": 9.448060035705566,
      "y": 0.07657032459974289,
      "z": 2.2127628326416016,
      "time_usec": 12456505511
    },
    {
      "x": 9.457033157348633,
      "y": 0.03349951654672623,
      "z": 2.2127628326416016,
      "time_usec": 12456507768
    },
    {
      "x": 9.457033157348633,
      "y": 0.038285162299871445,
      "z": 2.2510478496551514,
      "time_usec": 12456510024
    },
    {
      "x": 9.466604232788086,
      "y": 0.019142581149935722,
      "z": 2.2654049396514893,
      "time_usec": 12456512282
    },
    {
      "x": 9.485149383544922,
      "y": -0.019142581149935722,
      "z": 2.2893331050872803,
      "time_usec": 12456514531
    },
    {
      "x": 9.498908042907715,
      "y": -0.02392822690308094,
      "z": 2.3563320636749268,
      "time_usec": 12456516786
    },
    {
      "x": 9.518050193786621,
      "y": -0.019142581149935722,
      "z": 2.3611178398132324,
      "time_usec": 12456519056
    },
    {
      "x": 9.513264656066895,
      "y": -0.02392822690308094,
      "z": 2.41375994682312,
      "time_usec": 12456521312
    },
    {
      "x": 9.518050193786621,
      "y": -0.03349951654672623,
      "z": 2.4185454845428467,
      "time_usec": 12456523567
    },
    {
      "x": 9.489336013793945,
      "y": -0.04307080805301666,
      "z": 2.404188632965088,
      "time_usec": 12456525827
    },
    {
      "x": 9.494122505187988,
      "y": -0.04785645380616188,
      "z": 2.365903377532959,
      "time_usec": 12456528084
    },
    {
      "x": 9.499505996704102,
      "y": -0.03349951654672623,
      "z": 2.32761812210083,
      "time_usec": 12456530343
    },
    {
      "x": 9.489934921264648,
      "y": -0.04785645380616188,
      "z": 2.255833625793457,
      "time_usec": 12456532597
    },
    {
      "x": 9.513862609863281,
      "y": -0.06759724020957947,
      "z": 2.1846470832824707,
      "time_usec": 12456534850
    },
    {
      "x": 9.552745819091797,
      "y": -0.1495514214038849,
      "z": 2.008176326751709,
      "time_usec": 12456537108
    },
    {
      "x": 9.591031074523926,
      "y": -0.06819544732570648,
      "z": 1.9226330518722534,
      "time_usec": 12456539371
    },
    {
      "x": 9.525827407836914,
      "y": 0.17647066712379456,
      "z": 1.9124635457992554,
      "time_usec": 12456541628
    },
    {
      "x": 9.440881729125977,
      "y": 0.37806597352027893,
      "z": 2.007578134536743,
      "time_usec": 12456543882
    },
    {
      "x": 9.369695663452148,
      "y": 0.48873403668403625,
      "z": 2.1649062633514404,
      "time_usec": 12456546143
    },
    {
      "x": 9.312267303466797,
      "y": 0.48454657196998596,
      "z": 2.3030917644500732,
      "time_usec": 12456548401
    },
    {
      "x": 9.273384094238281,
      "y": 0.4085744619369507,
      "z": 2.3886351585388184,
      "time_usec": 12456550658
    },
    {
      "x": 9.253045082092285,
      "y": 0.26979073882102966,
      "z": 2.4460630416870117,
      "time_usec": 12456552909
    },
    {
      "x": 9.252447128295898,
      "y": 0.15493527054786682,
      "z": 2.4747767448425293,
      "time_usec": 12456555167
    },
    {
      "x": 9.261420249938965,
      "y": 0.02512463741004467,
      "z": 2.4843480587005615,
      "time_usec": 12456557430
    },
    {
      "x": 9.284749984741211,
      "y": -0.07058826833963394,
      "z": 2.4747767448425293,
      "time_usec": 12456559689
    },
    {
      "x": 9.312865257263184,
      "y": -0.15194423496723175,
      "z": 2.503490686416626,
      "time_usec": 12456561946
    },
    {
      "x": 9.378668785095215,
      "y": -0.19561325013637543,
      "z": 2.5322046279907227,
      "time_usec": 12456564197
    },
    {
      "x": 9.430712699890137,
      "y": -0.22432711720466614,
      "z": 2.5663022994995117,
      "time_usec": 12456566459
    },
    {
      "x": 9.45882797241211,
      "y": -0.20997019112110138,
      "z": 2.6189444065093994,
      "time_usec": 12456568713
    },
    {
      "x": 9.506684303283691,
      "y": -0.15254244208335876,
      "z": 2.6763720512390137,
      "time_usec": 12456570975
    },
    {
      "x": 9.435498237609863,
      "y": -0.08075776696205139,
      "z": 2.7044878005981445,
      "time_usec": 12456573227
    },
    {
      "x": 9.464211463928223,
      "y": 0.005383851006627083,
      "z": 2.7529425621032715,
      "time_usec": 12456575492
    },
    {
      "x": 9.478569030761719,
      "y": 0.09631111472845078,
      "z": 2.748156785964966,
      "time_usec": 12456577749
    },
    {
      "x": 9.44626522064209,
      "y": 0.15912270545959473,
      "z": 2.695514678955078,
      "time_usec": 12456579993
    },
    {
      "x": 9.442078590393066,
      "y": 0.2069791555404663,
      "z": 2.6524438858032227,
      "time_usec": 12456582256
    },
    {
      "x": 9.45164966583252,
      "y": 0.24466611444950104,
      "z": 2.5902304649353027,
      "time_usec": 12456584513
    },
    {
      "x": 9.437891006469727,
      "y": 0.24945175647735596,
      "z": 2.5328028202056885,
      "time_usec": 12456586774
    },
    {
      "x": 9.42891788482666,
      "y": 0.2638086974620819,
      "z": 2.489732027053833,
      "time_usec": 12456589031
    },
    {
      "x": 9.509675025939941,
      "y": 0.2638086974620819,
      "z": 2.4472594261169434,
      "time_usec": 12456591291
    },
    {
      "x": 9.538389205932617,
      "y": 0.24406790733337402,
      "z": 2.3994028568267822,
      "time_usec": 12456593543
    },
    {
      "x": 9.538389205932617,
      "y": 0.1866401731967926,
      "z": 2.376072883605957,
      "time_usec": 12456595799
    },
    {
      "x": 9.495318412780762,
      "y": 0.14835500717163086,
      "z": 2.38983154296875,
      "time_usec": 12456598061
    },
    {
      "x": 9.489934921264648,
      "y": 0.1052841991186142,
      "z": 2.404188632965088,
      "time_usec": 12456600322
    },
    {
      "x": 9.461220741271973,
      "y": 0.06281159073114395,
      "z": 2.428116798400879,
      "time_usec": 12456602579
    },
    {
      "x": 9.45164966583252,
      "y": 0.05802594870328903,
      "z": 2.4233310222625732,
      "time_usec": 12456604830
    },
    {
      "x": 9.456435203552246,
      "y": 0.03409772366285324,
      "z": 2.4233310222625732,
      "time_usec": 12456607088
    },
    {
      "x": 9.442078590393066,
      "y": 0.03888336941599846,
      "z": 2.3946173191070557,
      "time_usec": 12456609350
    },
    {
      "x": 9.461220741271973,
      "y": 0.04307080805301666,
      "z": 2.375474691390991,
      "time_usec": 12456611608
    },
    {
      "x": 9.4660062789917,
      "y": 0.0526420995593071,
      "z": 2.3706889152526855,
      "time_usec": 12456613858
    },
    {
      "x": 9.489934921264648,
      "y": 0.07178468257188797,
      "z": 2.365903377532959,
      "time_usec": 12456616111
    },
    {
      "x": 9.513862609863281,
      "y": 0.10049854964017868,
      "z": 2.375474691390991,
      "time_usec": 12456618380
    },
    {
      "x": 9.546764373779297,
      "y": 0.1052841991186142,
      "z": 2.404188632965088,
      "time_usec": 12456620638
    },
    {
      "x": 9.561120986938477,
      "y": 0.11006984114646912,
      "z": 2.414358139038086,
      "time_usec": 12456622893
    },
    {
      "x": 9.5802640914917,
      "y": 0.12442677468061447,
      "z": 2.4287149906158447,
      "time_usec": 12456625147
    },
    {
      "x": 9.575477600097656,
      "y": 0.13878370821475983,
      "z": 2.447857618331909,
      "time_usec": 12456627410
    },
    {
      "x": 9.5802640914917,
      "y": 0.11964113265275955,
      "z": 2.4717857837677,
      "time_usec": 12456629668
    },
    {
      "x": 9.565906524658203,
      "y": 0.14356936514377594,
      "z": 2.485544443130493,
      "time_usec": 12456631925
    },
    {
      "x": 9.565906524658203,
      "y": 0.11964113265275955,
      "z": 2.475973129272461,
      "time_usec": 12456634177
    },
    {
      "x": 9.551549911499023,
      "y": 0.13878370821475983,
      "z": 2.485544443130493,
      "time_usec": 12456636436
    },
    {
      "x": 9.537193298339844,
      "y": 0.16749759018421173,
      "z": 2.490330219268799,
      "time_usec": 12456638698
    },
    {
      "x": 9.528220176696777,
      "y": 0.1866401731967926,
      "z": 2.5046870708465576,
      "time_usec": 12456640953
    },
    {
      "x": 9.513862609863281,
      "y": 0.21595224738121033,
      "z": 2.4951157569885254,
      "time_usec": 12456643203
    },
    {
      "x": 9.513862609863281,
      "y": 0.25423741340637207,
      "z": 2.5046870708465576,
      "time_usec": 12456645467
    },
    {
      "x": 9.509675025939941,
      "y": 0.27337998151779175,
      "z": 2.499901533126831,
      "time_usec": 12456647722
    },
    {
      "x": 9.518648147583008,
      "y": 0.25423741340637207,
      "z": 2.5046870708465576,
      "time_usec": 12456649986
    },
    {
      "x": 9.513862609863281,
      "y": 0.19202402234077454,
      "z": 2.499901533126831,
      "time_usec": 12456652241
    },
    {
      "x": 9.494122505187988,
      "y": 0.12502498924732208,
      "z": 2.499901533126831,
      "time_usec": 12456654494
    },
    {
      "x": 9.513264656066895,
      "y": 0.08135596662759781,
      "z": 2.5190439224243164,
      "time_usec": 12456656756
    },
    {
      "x": 9.518050193786621,
      "y": 0.10049854964017868,
      "z": 2.5334010124206543,
      "time_usec": 12456659018
    },
    {
      "x": 9.518050193786621,
      "y": 0.19680966436862946,
      "z": 2.5573291778564453,
      "time_usec": 12456661271
    },
    {
      "x": 9.542576789855957,
      "y": 0.268594354391098,
      "z": 2.562114953994751,
      "time_usec": 12456663523
    },
    {
      "x": 9.514460563659668,
      "y": 0.35473597049713135,
      "z": 2.5286152362823486,
      "time_usec": 12456665787
    },
    {
      "x": 9.476774215698242,
      "y": 0.37866419553756714,
      "z": 2.4951157569885254,
      "time_usec": 12456668052
    },
    {
      "x": 9.4390869140625,
      "y": 0.373878538608551,
      "z": 2.465803623199463,
      "time_usec": 12456670303
    },
    {
      "x": 9.396016120910645,
      "y": 0.3409772217273712,
      "z": 2.465803623199463,
      "time_usec": 12456672555
    },
    {
      "x": 9.357730865478516,
      "y": 0.26440688967704773,
      "z": 2.4562325477600098,
      "time_usec": 12456674800
    },
    {
      "x": 9.357132911682129,
      "y": 0.19262222945690155,
      "z": 2.475374937057495,
      "time_usec": 12456677069
    },
    {
      "x": 9.366106033325195,
      "y": 0.1495514214038849,
      "z": 2.489732027053833,
      "time_usec": 12456679317
    },
    {
      "x": 9.399605751037598,
      "y": 0.129810631275177,
      "z": 2.4945175647735596,
      "time_usec": 12456681589
    },
    {
      "x": 9.42772102355957,
      "y": 0.12502498924732208,
      "z": 2.4849462509155273,
      "time_usec": 12456683840
    },
    {
      "x": 9.461220741271973,
      "y": 0.12502498924732208,
      "z": 2.4945175647735596,
      "time_usec": 12456686105
    },
    {
      "x": 9.494720458984375,
      "y": 0.14416755735874176,
      "z": 2.490330219268799,
      "time_usec": 12456688361
    },
    {
      "x": 9.504291534423828,
      "y": 0.1585244983434677,
      "z": 2.475973129272461,
      "time_usec": 12456690619
    },
    {
      "x": 9.504291534423828,
      "y": 0.18723836541175842,
      "z": 2.4807589054107666,
      "time_usec": 12456692877
    },
    {
      "x": 9.504291534423828,
      "y": 0.1824527233839035,
      "z": 2.475973129272461,
      "time_usec": 12456695126
    },
    {
      "x": 9.475577354431152,
      "y": 0.17288143932819366,
      "z": 2.466402053833008,
      "time_usec": 12456697389
    },
    {
      "x": 9.437891006469727,
      "y": 0.17766708135604858,
      "z": 2.4466612339019775,
      "time_usec": 12456699646
    },
    {
      "x": 9.43310546875,
      "y": 0.16809579730033875,
      "z": 2.4466612339019775,
      "time_usec": 12456701904
    },
    {
      "x": 9.433703422546387,
      "y": 0.20159530639648438,
      "z": 2.417947292327881,
      "time_usec": 12456704156
    },
    {
      "x": 9.424132347106934,
      "y": 0.22073788940906525,
      "z": 2.379662036895752,
      "time_usec": 12456706420
    },
    {
      "x": 9.434301376342773,
      "y": 0.23030917346477509,
      "z": 2.3132612705230713,
      "time_usec": 12456708676
    },
    {
      "x": 9.458230018615723,
      "y": 0.22492532432079315,
      "z": 2.2127628326416016,
      "time_usec": 12456710934
    },
    {
      "x": 9.477970123291016,
      "y": 0.22013968229293823,
      "z": 2.1128623485565186,
      "time_usec": 12456713186
    },
    {
      "x": 9.501898765563965,
      "y": 0.20997019112110138,
      "z": 1.9980069398880005,
      "time_usec": 12456715450
    },
    {
      "x": 9.506684303283691,
      "y": 0.1908276081085205,
      "z": 1.9555343389511108,
      "time_usec": 12456717710
    },
    {
      "x": 9.53061294555664,
      "y": 0.17168502509593964,
      "z": 1.922034740447998,
      "time_usec": 12456719965
    },
    {
      "x": 9.506684303283691,
      "y": 0.1621137410402298,
      "z": 1.9363917112350464,
      "time_usec": 12456722219
    },
    {
      "x": 9.497113227844238,
      "y": 0.17168502509593964,
      "z": 1.965105652809143,
      "time_usec": 12456724471
    },
    {
      "x": 9.501898765563965,
      "y": 0.1908276081085205,
      "z": 2.0267207622528076,
      "time_usec": 12456726727
    },
    {
      "x": 9.468399047851562,
      "y": 0.22971096634864807,
      "z": 2.0745773315429688,
      "time_usec": 12456728994
    },
    {
      "x": 9.42054271697998,
      "y": 0.24945175647735596,
      "z": 2.1361923217773438,
      "time_usec": 12456731250
    },
    {
      "x": 9.401998519897461,
      "y": 0.2829512655735016,
      "z": 2.179263114929199,
      "time_usec": 12456733505
    },
    {
      "x": 9.378069877624512,
      "y": 0.3164508044719696,
      "z": 2.155334949493408,
      "time_usec": 12456735764
    },
    {
      "x": 9.392427444458008,
      "y": 0.32602208852767944,
      "z": 2.1266210079193115,
      "time_usec": 12456738020
    },
    {
      "x": 9.4121675491333,
      "y": 0.3451646566390991,
      "z": 2.073979139328003,
      "time_usec": 12456740278
    },
    {
      "x": 9.426525115966797,
      "y": 0.349352091550827,
      "z": 2.069791555404663,
      "time_usec": 12456742524
    },
    {
      "x": 9.431310653686523,
      "y": 0.363709032535553,
      "z": 2.0889341831207275,
      "time_usec": 12456744789
    },
    {
      "x": 9.464211463928223,
      "y": 0.37806597352027893,
      "z": 2.1128623485565186,
      "time_usec": 12456747050
    },
    {
      "x": 9.483354568481445,
      "y": 0.3924229145050049,
      "z": 2.1032910346984863,
      "time_usec": 12456749312
    },
    {
      "x": 9.507282257080078,
      "y": 0.38285163044929504,
      "z": 2.0554347038269043,
      "time_usec": 12456751567
    },
    {
      "x": 9.521639823913574,
      "y": 0.3924229145050049,
      "z": 2.045863389968872,
      "time_usec": 12456753820
    },
    {
      "x": 9.531210899353027,
      "y": 0.4211367964744568,
      "z": 2.117648124694824,
      "time_usec": 12456756082
    },
    {
      "x": 9.512067794799805,
      "y": 0.4498506486415863,
      "z": 2.1511476039886475,
      "time_usec": 12456758339
    },
    {
      "x": 9.502496719360352,
      "y": 0.4785645306110382,
      "z": 2.2133610248565674,
      "time_usec": 12456760599
    },
    {
      "x": 9.512067794799805,
      "y": 0.49292147159576416,
      "z": 2.2085752487182617,
      "time_usec": 12456762853
    },
    {
      "x": 9.521639823913574,
      "y": 0.4307080805301666,
      "z": 2.1367905139923096,
      "time_usec": 12456765106
    },
    {
      "x": 9.5264253616333,
      "y": 0.397208571434021,
      "z": 2.069791555404663,
      "time_usec": 12456767368
    },
    {
      "x": 9.54496955871582,
      "y": 0.3678964674472809,
      "z": 2.0751755237579346,
      "time_usec": 12456769626
    },
    {
      "x": 9.56889820098877,
      "y": 0.3200400173664093,
      "z": 2.0608184337615967,
      "time_usec": 12456771884
    },
    {
      "x": 9.605986595153809,
      "y": 0.28654050827026367,
      "z": 2.11824631690979,
      "time_usec": 12456774136
    },
    {
      "x": 9.65803050994873,
      "y": 0.28654050827026367,
      "z": 2.166102647781372,
      "time_usec": 12456776397
    },
    {
      "x": 9.677172660827637,
      "y": 0.3002992272377014,
      "z": 2.190030813217163,
      "time_usec": 12456778646
    },
    {
      "x": 9.67238712310791,
      "y": 0.2961117923259735,
      "z": 2.204387903213501,
      "time_usec": 12456780900
    },
    {
      "x": 9.681958198547363,
      "y": 0.3152543902397156,
      "z": 2.237887382507324,
      "time_usec": 12456783165
    },
    {
      "x": 9.65803050994873,
      "y": 0.2913261651992798,
      "z": 2.204387903213501,
      "time_usec": 12456785430
    },
    {
      "x": 9.667601585388184,
      "y": 0.2961117923259735,
      "z": 2.2235305309295654,
      "time_usec": 12456787689
    },
    {
      "x": 9.653244972229004,
      "y": 0.3008974492549896,
      "z": 2.237887382507324,
      "time_usec": 12456789944
    },
    {
      "x": 9.652647018432617,
      "y": 0.2626122832298279,
      "z": 2.2618155479431152,
      "time_usec": 12456792199
    },
    {
      "x": 9.671789169311523,
      "y": 0.25304099917411804,
      "z": 2.2857437133789062,
      "time_usec": 12456794452
    },
    {
      "x": 9.671191215515137,
      "y": 0.2386840581893921,
      "z": 2.3431715965270996,
      "time_usec": 12456796712
    },
    {
      "x": 9.671191215515137,
      "y": 0.2147558331489563,
      "z": 2.376671075820923,
      "time_usec": 12456798972
    },
    {
      "x": 9.647262573242188,
      "y": 0.19561325013637543,
      "z": 2.3712873458862305,
      "time_usec": 12456801231
    },
    {
      "x": 9.613762855529785,
      "y": 0.19561325013637543,
      "z": 2.3952155113220215,
      "time_usec": 12456803482
    },
    {
      "x": 9.594620704650879,
      "y": 0.16749759018421173,
      "z": 2.4191436767578125,
      "time_usec": 12456805741
    },
    {
      "x": 9.585049629211426,
      "y": 0.12442677468061447,
      "z": 2.4430718421936035,
      "time_usec": 12456808003
    },
    {
      "x": 9.570094108581543,
      "y": 0.10049854964017868,
      "z": 2.4711875915527344,
      "time_usec": 12456810261
    },
    {
      "x": 9.550951957702637,
      "y": 0.05742774158716202,
      "z": 2.485544443130493,
      "time_usec": 12456812517
    },
    {
      "x": 9.541379928588867,
      "y": 0.03349951654672623,
      "z": 2.4951157569885254,
      "time_usec": 12456814771
    },
    {
      "x": 9.56471061706543,
      "y": 0.019142581149935722,
      "z": 2.523829698562622,
      "time_usec": 12456817040
    },
    {
      "x": 9.541379928588867,
      "y": 0.019142581149935722,
      "z": 2.5334010124206543,
      "time_usec": 12456819279
    },
    {
      "x": 9.541379928588867,
      "y": 0.014356935396790504,
      "z": 2.523829698562622,
      "time_usec": 12456821546
    },
    {
      "x": 9.541379928588867,
      "y": 0.009571290574967861,
      "z": 2.5190439224243164,
      "time_usec": 12456823796
    },
    {
      "x": 9.531808853149414,
      "y": 0.019142581149935722,
      "z": 2.5094728469848633,
      "time_usec": 12456826063
    },
    {
      "x": 9.517452239990234,
      "y": 0.038285162299871445,
      "z": 2.5046870708465576,
      "time_usec": 12456828319
    },
    {
      "x": 9.518050193786621,
      "y": 0.0526420995593071,
      "z": 2.490330219268799,
      "time_usec": 12456830578
    },
    {
      "x": 9.498908042907715,
      "y": 0.0526420995593071,
      "z": 2.461616277694702,
      "time_usec": 12456832833
    },
    {
      "x": 9.494122505187988,
      "y": 0.0771685317158699,
      "z": 2.461616277694702,
      "time_usec": 12456835086
    },
    {
      "x": 9.4660062789917,
      "y": 0.08195417374372482,
      "z": 2.465803623199463,
      "time_usec": 12456837348
    },
    {
      "x": 9.432506561279297,
      "y": 0.09152546525001526,
      "z": 2.451446771621704,
      "time_usec": 12456839602
    },
    {
      "x": 9.413962364196777,
      "y": 0.1010967567563057,
      "z": 2.451446771621704,
      "time_usec": 12456841851
    },
    {
      "x": 9.41336441040039,
      "y": 0.09152546525001526,
      "z": 2.4610180854797363,
      "time_usec": 12456844115
    },
    {
      "x": 9.40917682647705,
      "y": 0.10588239878416061,
      "z": 2.4466612339019775,
      "time_usec": 12456846378
    },
    {
      "x": 9.404391288757324,
      "y": 0.12502498924732208,
      "z": 2.4131617546081543,
      "time_usec": 12456848639
    },
    {
      "x": 9.390632629394531,
      "y": 0.13459627330303192,
      "z": 2.403590440750122,
      "time_usec": 12456850894
    },
    {
      "x": 9.404391288757324,
      "y": 0.129810631275177,
      "z": 2.3988046646118164,
      "time_usec": 12456853145
    },
    {
      "x": 9.400203704833984,
      "y": 0.11545369029045105,
      "z": 2.341377019882202,
      "time_usec": 12456855407
    },
    {
      "x": 9.376275062561035,
      "y": 0.14416755735874176,
      "z": 2.341377019882202,
      "time_usec": 12456857665
    },
    {
      "x": 9.333803176879883,
      "y": 0.13519448041915894,
      "z": 2.33180570602417,
      "time_usec": 12456859924
    },
    {
      "x": 9.329017639160156,
      "y": 0.13519448041915894,
      "z": 2.307877540588379,
      "time_usec": 12456862178
    },
    {
      "x": 9.300901412963867,
      "y": 0.12083754688501358,
      "z": 2.26959228515625,
      "time_usec": 12456864431
    },
    {
      "x": 9.32004451751709,
      "y": 0.12083754688501358,
      "z": 2.255235433578491,
      "time_usec": 12456866691
    },
    {
      "x": 9.329017639160156,
      "y": 0.10588239878416061,
      "z": 2.2504496574401855,
      "time_usec": 12456868953
    },
    {
      "x": 9.372088432312012,
      "y": 0.11066804826259613,
      "z": 2.255235433578491,
      "time_usec": 12456871209
    },
    {
      "x": 9.41037368774414,
      "y": 0.09631111472845078,
      "z": 2.241476535797119,
      "time_usec": 12456873462
    },
    {
      "x": 9.448060035705566,
      "y": 0.08614161610603333,
      "z": 2.2366909980773926,
      "time_usec": 12456875719
    },
    {
      "x": 9.476774215698242,
      "y": 0.08614161610603333,
      "z": 2.246262311935425,
      "time_usec": 12456877981
    },
    {
      "x": 9.500103950500488,
      "y": 0.07657032459974289,
      "z": 2.251646041870117,
      "time_usec": 12456880240
    },
    {
      "x": 9.55214786529541,
      "y": 0.052043892443180084,
      "z": 2.2995026111602783,
      "time_usec": 12456882496
    },
    {
      "x": 9.57069206237793,
      "y": 0.0568295381963253,
      "z": 2.337787628173828,
      "time_usec": 12456884751
    },
    {
      "x": 9.608379364013672,
      "y": 0.03768695518374443,
      "z": 2.3808584213256836,
      "time_usec": 12456887019
    },
    {
      "x": 9.641879081726074,
      "y": 0.0568295381963253,
      "z": 2.414358139038086,
      "time_usec": 12456889269
    },
    {
      "x": 9.641280174255371,
      "y": 0.047258246690034866,
      "z": 2.4813570976257324,
      "time_usec": 12456891526
    },
    {
      "x": 9.655637741088867,
      "y": 0.052043892443180084,
      "z": 2.5148565769195557,
      "time_usec": 12456893774
    },
    {
      "x": 9.68375301361084,
      "y": 0.052043892443180084,
      "z": 2.5292134284973145,
      "time_usec": 12456896029
    },
    {
      "x": 9.674181938171387,
      "y": 0.028115665540099144,
      "z": 2.548356056213379,
      "time_usec": 12456898298
    },
    {
      "x": 9.66939640045166,
      "y": 0.01375873014330864,
      "z": 2.524427890777588,
      "time_usec": 12456900557
    },
    {
      "x": 9.678967475891113,
      "y": -5.982056609354913E-4,
      "z": 2.53399920463562,
      "time_usec": 12456902816
    },
    {
      "x": 9.678967475891113,
      "y": -0.010169495828449726,
      "z": 2.5148565769195557,
      "time_usec": 12456905066
    },
    {
      "x": 9.68375301361084,
      "y": -0.014955141581594944,
      "z": 2.4909284114837646,
      "time_usec": 12456907328
    },
    {
      "x": 9.688538551330566,
      "y": -0.014955141581594944,
      "z": 2.5052852630615234,
      "time_usec": 12456909585
    },
    {
      "x": 9.66939640045166,
      "y": -0.029312077909708023,
      "z": 2.5196423530578613,
      "time_usec": 12456911843
    },
    {
      "x": 9.678369522094727,
      "y": -0.048454657196998596,
      "z": 2.524427890777588,
      "time_usec": 12456914097
    },
    {
      "x": 9.659825325012207,
      "y": -0.04366901144385338,
      "z": 2.5435705184936523,
      "time_usec": 12456916357
    },
    {
      "x": 9.631111145019531,
      "y": -0.029312077909708023,
      "z": 2.572284460067749,
      "time_usec": 12456918615
    },
    {
      "x": 9.621540069580078,
      "y": -0.04366901144385338,
      "z": 2.572284460067749,
      "time_usec": 12456920872
    },
    {
      "x": 9.616754531860352,
      "y": -0.05802594870328903,
      "z": 2.562713146209717,
      "time_usec": 12456923126
    },
    {
      "x": 9.592825889587402,
      "y": -0.05742774158716202,
      "z": 2.571686029434204,
      "time_usec": 12456925387
    },
    {
      "x": 9.58325481414795,
      "y": -0.0526420995593071,
      "z": 2.5812573432922363,
      "time_usec": 12456927644
    },
    {
      "x": 9.578469276428223,
      "y": -0.05742774158716202,
      "z": 2.5573291778564453,
      "time_usec": 12456929903
    },
    {
      "x": 9.569496154785156,
      "y": -0.04785645380616188,
      "z": 2.5286152362823486,
      "time_usec": 12456932158
    },
    {
      "x": 9.559925079345703,
      "y": -0.062213387340307236,
      "z": 2.5286152362823486,
      "time_usec": 12456934408
    },
    {
      "x": 9.583852767944336,
      "y": -0.048454657196998596,
      "z": 2.5046870708465576,
      "time_usec": 12456936662
    },
    {
      "x": 9.588638305664062,
      "y": -0.024526432156562805,
      "z": 2.4670002460479736,
      "time_usec": 12456938932
    },
    {
      "x": 9.594022750854492,
      "y": -0.010169495828449726,
      "z": 2.4430718421936035,
      "time_usec": 12456941188
    },
    {
      "x": 9.655637741088867,
      "y": 0.023330021649599075,
      "z": 2.4191436767578125,
      "time_usec": 12456943438
    },
    {
      "x": 9.6466646194458,
      "y": 0.023330021649599075,
      "z": 2.4047868251800537,
      "time_usec": 12456945711
    },
    {
      "x": 9.665806770324707,
      "y": 0.03290131315588951,
      "z": 2.3910279273986816,
      "time_usec": 12456947961
    },
    {
      "x": 9.680164337158203,
      "y": 0.05623133108019829,
      "z": 2.386242389678955,
      "time_usec": 12456950219
    },
    {
      "x": 9.680164337158203,
      "y": 0.061016976833343506,
      "z": 2.3910279273986816,
      "time_usec": 12456952460
    },
    {
      "x": 9.693922996520996,
      "y": 0.061016976833343506,
      "z": 2.3958137035369873,
      "time_usec": 12456954730
    },
    {
      "x": 9.68913745880127,
      "y": 0.05623133108019829,
      "z": 2.386242389678955,
      "time_usec": 12456956991
    },
    {
      "x": 9.684351921081543,
      "y": 0.05623133108019829,
      "z": 2.386242389678955,
      "time_usec": 12456959253
    },
    {
      "x": 9.68913745880127,
      "y": 0.05144568532705307,
      "z": 2.400599241256714,
      "time_usec": 12456961505
    },
    {
      "x": 9.68913745880127,
      "y": 0.05623133108019829,
      "z": 2.3910279273986816,
      "time_usec": 12456963757
    },
    {
      "x": 9.694520950317383,
      "y": 0.05144568532705307,
      "z": 2.347957134246826,
      "time_usec": 12456966016
    },
    {
      "x": 9.689735412597656,
      "y": 0.05623133108019829,
      "z": 2.2809581756591797,
      "time_usec": 12456968278
    },
    {
      "x": 9.69511890411377,
      "y": 0.10887342691421509,
      "z": 2.2570300102233887,
      "time_usec": 12456970536
    },
    {
      "x": 9.671191215515137,
      "y": 0.12801600992679596,
      "z": 2.266601324081421,
      "time_usec": 12456972792
    },
    {
      "x": 9.671191215515137,
      "y": 0.12801600992679596,
      "z": 2.2857437133789062,
      "time_usec": 12456975042
    },
    {
      "x": 9.661619186401367,
      "y": 0.1663011759519577,
      "z": 2.290529489517212,
      "time_usec": 12456977305
    },
    {
      "x": 9.657432556152344,
      "y": 0.18125630915164948,
      "z": 2.300100803375244,
      "time_usec": 12456979552
    },
    {
      "x": 9.628718376159668,
      "y": 0.1621137410402298,
      "z": 2.2953150272369385,
      "time_usec": 12456981823
    },
    {
      "x": 9.580862045288086,
      "y": 0.15254244208335876,
      "z": 2.3090739250183105,
      "time_usec": 12456984074
    },
    {
      "x": 9.556933403015137,
      "y": 0.1579262912273407,
      "z": 2.352144718170166,
      "time_usec": 12456986340
    },
    {
      "x": 9.53779125213623,
      "y": 0.11964113265275955,
      "z": 2.366501569747925,
      "time_usec": 12456988595
    },
    {
      "x": 9.533005714416504,
      "y": 0.11964113265275955,
      "z": 2.3946173191070557,
      "time_usec": 12456990850
    },
    {
      "x": 9.509077072143555,
      "y": 0.08135596662759781,
      "z": 2.404188632965088,
      "time_usec": 12456993097
    },
    {
      "x": 9.489934921264648,
      "y": 0.09092725813388824,
      "z": 2.45204496383667,
      "time_usec": 12456995368
    },
    {
      "x": 9.513264656066895,
      "y": 0.08614161610603333,
      "z": 2.4472594261169434,
      "time_usec": 12456997624
    },
    {
      "x": 9.494720458984375,
      "y": 0.07657032459974289,
      "z": 2.45204496383667,
      "time_usec": 12456999885
    },
    {
      "x": 9.518050193786621,
      "y": 0.062213387340307236,
      "z": 2.4568307399749756,
      "time_usec": 12457002137
    },
    {
      "x": 9.513264656066895,
      "y": 0.07657032459974289,
      "z": 2.4568307399749756,
      "time_usec": 12457004390
    },
    {
      "x": 9.522835731506348,
      "y": 0.08135596662759781,
      "z": 2.466402053833008,
      "time_usec": 12457006650
    },
    {
      "x": 9.527621269226074,
      "y": 0.09092725813388824,
      "z": 2.4329023361206055,
      "time_usec": 12457008911
    },
    {
      "x": 9.55633544921875,
      "y": 0.11485548317432404,
      "z": 2.4472594261169434,
      "time_usec": 12457011168
    },
    {
      "x": 9.561120986938477,
      "y": 0.11006984114646912,
      "z": 2.4191436767578125,
      "time_usec": 12457013415
    },
    {
      "x": 9.575477600097656,
      "y": 0.1052841991186142,
      "z": 2.447857618331909,
      "time_usec": 12457015671
    },
    {
      "x": 9.589237213134766,
      "y": 0.12921242415905,
      "z": 2.4574289321899414,
      "time_usec": 12457017942
    },
    {
      "x": 9.561120986938477,
      "y": 0.1339980661869049,
      "z": 2.437688112258911,
      "time_usec": 12457020201
    },
    {
      "x": 9.561120986938477,
      "y": 0.12921242415905,
      "z": 2.466402053833008,
      "time_usec": 12457022455
    },
    {
      "x": 9.55633544921875,
      "y": 0.13878370821475983,
      "z": 2.4233310222625732,
      "time_usec": 12457024700
    },
    {
      "x": 9.55214786529541,
      "y": 0.13878370821475983,
      "z": 2.390429735183716,
      "time_usec": 12457026970
    },
    {
      "x": 9.523433685302734,
      "y": 0.16271193325519562,
      "z": 2.3611178398132324,
      "time_usec": 12457029228
    },
    {
      "x": 9.528818130493164,
      "y": 0.17228323221206665,
      "z": 2.3467607498168945,
      "time_usec": 12457031486
    },
    {
      "x": 9.519247055053711,
      "y": 0.1579262912273407,
      "z": 2.32761812210083,
      "time_usec": 12457033727
    },
    {
      "x": 9.509675025939941,
      "y": 0.17228323221206665,
      "z": 2.3228325843811035,
      "time_usec": 12457035987
    },
    {
      "x": 9.495318412780762,
      "y": 0.1579262912273407,
      "z": 2.3132612705230713,
      "time_usec": 12457038257
    },
    {
      "x": 9.481559753417969,
      "y": 0.17228323221206665,
      "z": 2.303689956665039,
      "time_usec": 12457040518
    },
    {
      "x": 9.448060035705566,
      "y": 0.16331014037132263,
      "z": 2.318047046661377,
      "time_usec": 12457042774
    },
    {
      "x": 9.442676544189453,
      "y": 0.14416755735874176,
      "z": 2.341975212097168,
      "time_usec": 12457045018
    },
    {
      "x": 9.419346809387207,
      "y": 0.13459627330303192,
      "z": 2.3605196475982666,
      "time_usec": 12457047279
    },
    {
      "x": 9.418747901916504,
      "y": 0.12502498924732208,
      "z": 2.39401912689209,
      "time_usec": 12457049529
    },
    {
      "x": 9.42353343963623,
      "y": 0.129810631275177,
      "z": 2.4227328300476074,
      "time_usec": 12457051789
    },
    {
      "x": 9.42353343963623,
      "y": 0.12023933976888657,
      "z": 2.441875457763672,
      "time_usec": 12457054047
    },
    {
      "x": 9.418747901916504,
      "y": 0.1010967567563057,
      "z": 2.441875457763672,
      "time_usec": 12457056320
    },
    {
      "x": 9.42353343963623,
      "y": 0.1010967567563057,
      "z": 2.427518606185913,
      "time_usec": 12457058576
    },
    {
      "x": 9.418747901916504,
      "y": 0.10588239878416061,
      "z": 2.389233350753784,
      "time_usec": 12457060821
    },
    {
      "x": 9.428318977355957,
      "y": 0.129810631275177,
      "z": 2.3748764991760254,
      "time_usec": 12457063083
    },
    {
      "x": 9.44746208190918,
      "y": 0.12502498924732208,
      "z": 2.365903377532959,
      "time_usec": 12457065330
    },
    {
      "x": 9.457033157348633,
      "y": 0.13459627330303192,
      "z": 2.3515465259552,
      "time_usec": 12457067595
    },
    {
      "x": 9.500103950500488,
      "y": 0.14835500717163086,
      "z": 2.3467607498168945,
      "time_usec": 12457069859
    },
    {
      "x": 9.500103950500488,
      "y": 0.17228323221206665,
      "z": 2.3228325843811035,
      "time_usec": 12457072106
    },
    {
      "x": 9.519247055053711,
      "y": 0.1818545162677765,
      "z": 2.341975212097168,
      "time_usec": 12457074366
    },
    {
      "x": 9.528818130493164,
      "y": 0.19142581522464752,
      "z": 2.365903377532959,
      "time_usec": 12457076626
    },
    {
      "x": 9.533005714416504,
      "y": 0.19621145725250244,
      "z": 2.3706889152526855,
      "time_usec": 12457078881
    },
    {
      "x": 9.509675025939941,
      "y": 0.20099709928035736,
      "z": 2.38983154296875,
      "time_usec": 12457081145
    },
    {
      "x": 9.495318412780762,
      "y": 0.20159530639648438,
      "z": 2.3994028568267822,
      "time_usec": 12457083394
    },
    {
      "x": 9.504291534423828,
      "y": 0.19202402234077454,
      "z": 2.4233310222625732,
      "time_usec": 12457085664
    },
    {
      "x": 9.485149383544922,
      "y": 0.17288143932819366,
      "z": 2.4568307399749756,
      "time_usec": 12457087909
    },
    {
      "x": 9.485149383544922,
      "y": 0.17766708135604858,
      "z": 2.461616277694702,
      "time_usec": 12457090179
    },
    {
      "x": 9.499505996704102,
      "y": 0.17288143932819366,
      "z": 2.4711875915527344,
      "time_usec": 12457092421
    },
    {
      "x": 9.475577354431152,
      "y": 0.1585244983434677,
      "z": 2.461616277694702,
      "time_usec": 12457094688
    },
    {
      "x": 9.480362892150879,
      "y": 0.13459627330303192,
      "z": 2.461616277694702,
      "time_usec": 12457096934
    },
    {
      "x": 9.470791816711426,
      "y": 0.14416755735874176,
      "z": 2.4424736499786377,
      "time_usec": 12457099198
    },
    {
      "x": 9.471389770507812,
      "y": 0.13938191533088684,
      "z": 2.4089741706848145,
      "time_usec": 12457101463
    },
    {
      "x": 9.471389770507812,
      "y": 0.129810631275177,
      "z": 2.3946173191070557,
      "time_usec": 12457103710
    },
    {
      "x": 9.452247619628906,
      "y": 0.129810631275177,
      "z": 2.341975212097168,
      "time_usec": 12457105967
    },
    {
      "x": 9.428318977355957,
      "y": 0.12502498924732208,
      "z": 2.3844478130340576,
      "time_usec": 12457108221
    },
    {
      "x": 9.428318977355957,
      "y": 0.12023933976888657,
      "z": 2.39401912689209,
      "time_usec": 12457110482
    },
    {
      "x": 9.40917682647705,
      "y": 0.10588239878416061,
      "z": 2.4131617546081543,
      "time_usec": 12457112740
    },
    {
      "x": 9.40917682647705,
      "y": 0.08673982322216034,
      "z": 2.475374937057495,
      "time_usec": 12457115002
    },
    {
      "x": 9.399007797241211,
      "y": 0.06759724020957947,
      "z": 2.528017044067383,
      "time_usec": 12457117262
    },
    {
      "x": 9.408578872680664,
      "y": 0.048454657196998596,
      "z": 2.5567309856414795,
      "time_usec": 12457119515
    },
    {
      "x": 9.399007797241211,
      "y": 0.024526432156562805,
      "z": 2.551945447921753,
      "time_usec": 12457121782
    },
    {
