{
  "accelerations": [
    {
      "x": -9.662816047668457,
      "y": -0.18783657252788544,
      "z": 1.1647064685821533,
      "time_usec": 4572614210
    },
    {
      "x": -9.67238712310791,
      "y": -0.2315055876970291,
      "z": 1.1312068700790405,
      "time_usec": 4572616480
    },
    {
      "x": -9.686744689941406,
      "y": -0.28893333673477173,
      "z": 1.083350419998169,
      "time_usec": 4572618737
    },
    {
      "x": -9.701699256896973,
      "y": -0.3320041298866272,
      "z": 1.1120643615722656,
      "time_usec": 4572620998
    },
    {
      "x": -9.730413436889648,
      "y": -0.3696911036968231,
      "z": 1.1593226194381714,
      "time_usec": 4572623253
    },
    {
      "x": -9.739984512329102,
      "y": -0.3840480446815491,
      "z": 1.207179069519043,
      "time_usec": 4572625510
    },
    {
      "x": -9.764511108398438,
      "y": -0.3643072545528412,
      "z": 1.311864972114563,
      "time_usec": 4572627766
    },
    {
      "x": -9.759725570678711,
      "y": -0.3451646566390991,
      "z": 1.40279221534729,
      "time_usec": 4572630023
    },
    {
      "x": -9.760323524475098,
      "y": -0.30209386348724365,
      "z": 1.4985052347183228,
      "time_usec": 4572632281
    },
    {
      "x": -9.731609344482422,
      "y": -0.25423741340637207,
      "z": 1.5750755071640015,
      "time_usec": 4572634538
    },
    {
      "x": -9.684351921081543,
      "y": -0.22073788940906525,
      "z": 1.6372889280319214,
      "time_usec": 4572636796
    },
    {
      "x": -9.641879081726074,
      "y": -0.1585244983434677,
      "z": 1.6947166919708252,
      "time_usec": 4572639053
    },
    {
      "x": -9.594022750854492,
      "y": -0.11066804826259613,
      "z": 1.689931035041809,
      "time_usec": 4572641308
    },
    {
      "x": -9.570094108581543,
      "y": -0.058624155819416046,
      "z": 1.7048860788345337,
      "time_usec": 4572643558
    },
    {
      "x": -9.53659439086914,
      "y": -0.015553346835076809,
      "z": 1.7096717357635498,
      "time_usec": 4572645824
    },
    {
      "x": -9.531808853149414,
      "y": 0.04187439754605293,
      "z": 1.7623138427734375,
      "time_usec": 4572648081
    },
    {
      "x": -9.518050193786621,
      "y": 0.06161518394947052,
      "z": 1.810170292854309,
      "time_usec": 4572650341
    },
    {
      "x": -9.518050193786621,
      "y": 0.06161518394947052,
      "z": 1.848455548286438,
      "time_usec": 4572652596
    },
    {
      "x": -9.503693580627441,
      "y": 0.07118647545576096,
      "z": 1.867598056793213,
      "time_usec": 4572654853
    },
    {
      "x": -9.503693580627441,
      "y": 0.0568295381963253,
      "z": 1.867598056793213,
      "time_usec": 4572657107
    },
    {
      "x": -9.508479118347168,
      "y": -0.0011964113218709826,
      "z": 1.8340985774993896,
      "time_usec": 4572659368
    },
    {
      "x": -9.513862609863281,
      "y": -0.029910283163189888,
      "z": 1.8245272636413574,
      "time_usec": 4572661626
    },
    {
      "x": -9.499505996704102,
      "y": -0.10648060590028763,
      "z": 1.810170292854309,
      "time_usec": 4572663883
    },
    {
      "x": -9.499505996704102,
      "y": -0.1495514214038849,
      "z": 1.7958134412765503,
      "time_usec": 4572666141
    },
    {
      "x": -9.480961799621582,
      "y": -0.17347964644432068,
      "z": 1.7958134412765503,
      "time_usec": 4572668390
    },
    {
      "x": -9.490532875061035,
      "y": -0.19262222945690155,
      "z": 1.8245272636413574,
      "time_usec": 4572670649
    },
    {
      "x": -9.486345291137695,
      "y": -0.22133609652519226,
      "z": 1.8388842344284058,
      "time_usec": 4572672910
    },
    {
      "x": -9.495916366577148,
      "y": -0.21655045449733734,
      "z": 1.8771693706512451,
      "time_usec": 4572675165
    },
    {
      "x": -9.505488395690918,
      "y": -0.21655045449733734,
      "z": 1.9435701370239258,
      "time_usec": 4572677422
    },
    {
      "x": -9.519845008850098,
      "y": -0.21595224738121033,
      "z": 1.9722840785980225,
      "time_usec": 4572679679
    },
    {
      "x": -9.495916366577148,
      "y": -0.19740787148475647,
      "z": 1.9866410493850708,
      "time_usec": 4572681938
    },
    {
      "x": -9.496515274047852,
      "y": -0.19262222945690155,
      "z": 2.0057835578918457,
      "time_usec": 4572684186
    },
    {
      "x": -9.491728782653809,
      "y": -0.18723836541175842,
      "z": 2.039283037185669,
      "time_usec": 4572686452
    },
    {
      "x": -9.491728782653809,
      "y": -0.1824527233839035,
      "z": 2.0584256649017334,
      "time_usec": 4572688707
    },
    {
      "x": -9.486943244934082,
      "y": -0.17288143932819366,
      "z": 2.0679969787597656,
      "time_usec": 4572690974
    },
    {
      "x": -9.477372169494629,
      "y": -0.16809579730033875,
      "z": 2.111067771911621,
      "time_usec": 4572693227
    },
    {
      "x": -9.491728782653809,
      "y": -0.17766708135604858,
      "z": 2.101496458053589,
      "time_usec": 4572695484
    },
    {
      "x": -9.501300811767578,
      "y": -0.16809579730033875,
      "z": 2.1158533096313477,
      "time_usec": 4572697741
    },
    {
      "x": -9.496515274047852,
      "y": -0.16809579730033875,
      "z": 2.101496458053589,
      "time_usec": 4572699992
    },
    {
      "x": -9.501300811767578,
      "y": -0.16331014037132263,
      "z": 2.1062822341918945,
      "time_usec": 4572702248
    },
    {
      "x": -9.515657424926758,
      "y": -0.17288143932819366,
      "z": 2.077568292617798,
      "time_usec": 4572704513
    },
    {
      "x": -9.491728782653809,
      "y": -0.18723836541175842,
      "z": 2.0584256649017334,
      "time_usec": 4572706772
    },
    {
      "x": -9.501300811767578,
      "y": -0.17766708135604858,
      "z": 2.0297117233276367,
      "time_usec": 4572709028
    },
    {
      "x": -9.495916366577148,
      "y": -0.17347964644432068,
      "z": 2.0057835578918457,
      "time_usec": 4572711282
    },
    {
      "x": -9.458230018615723,
      "y": -0.18305093050003052,
      "z": 1.95852530002594,
      "time_usec": 4572713530
    },
    {
      "x": -9.448060035705566,
      "y": -0.16390834748744965,
      "z": 1.939382791519165,
      "time_usec": 4572715802
    },
    {
      "x": -9.438488960266113,
      "y": -0.16390834748744965,
      "z": 1.8819550275802612,
      "time_usec": 4572718056
    },
    {
      "x": -9.448060035705566,
      "y": -0.18305093050003052,
      "z": 1.8628123998641968,
      "time_usec": 4572720313
    },
    {
      "x": -9.452845573425293,
      "y": -0.19262222945690155,
      "z": 1.8245272636413574,
      "time_usec": 4572722572
    },
    {
      "x": -9.452845573425293,
      "y": -0.21236300468444824,
      "z": 1.810170292854309,
      "time_usec": 4572724826
    },
    {
      "x": -9.471389770507812,
      "y": -0.23629122972488403,
      "z": 1.7527425289154053,
      "time_usec": 4572727074
    },
    {
      "x": -9.485747337341309,
      "y": -0.2315055876970291,
      "z": 1.7048860788345337,
      "time_usec": 4572729339
    },
    {
      "x": -9.485149383544922,
      "y": -0.2315055876970291,
      "z": 1.6719847917556763,
      "time_usec": 4572731598
    },
    {
      "x": -9.499505996704102,
      "y": -0.2554338276386261,
      "z": 1.6522440910339355,
      "time_usec": 4572733850
    },
    {
      "x": -9.523433685302734,
      "y": -0.25004997849464417,
      "z": 1.6378871202468872,
      "time_usec": 4572736116
    },
    {
      "x": -9.546764373779297,
      "y": -0.24047867953777313,
      "z": 1.6426727771759033,
      "time_usec": 4572738367
    },
    {
      "x": -9.55633544921875,
      "y": -0.2309073805809021,
      "z": 1.628315806388855,
      "time_usec": 4572740628
    },
    {
      "x": -9.561120986938477,
      "y": -0.2309073805809021,
      "z": 1.6139588356018066,
      "time_usec": 4572742884
    },
    {
      "x": -9.565308570861816,
      "y": -0.2069791555404663,
      "z": 1.5708880424499512,
      "time_usec": 4572745135
    },
    {
      "x": -9.593423843383789,
      "y": -0.18305093050003052,
      "z": 1.5469598770141602,
      "time_usec": 4572747403
    },
    {
      "x": -9.622138023376465,
      "y": -0.2069791555404663,
      "z": 1.5278172492980957,
      "time_usec": 4572749655
    },
    {
      "x": -9.641280174255371,
      "y": -0.2021935135126114,
      "z": 1.4943177700042725,
      "time_usec": 4572751918
    },
    {
      "x": -9.640682220458984,
      "y": -0.21176479756832123,
      "z": 1.4799607992172241,
      "time_usec": 4572754161
    },
    {
      "x": -9.659825325012207,
      "y": -0.21176479756832123,
      "z": 1.4464613199234009,
      "time_usec": 4572756432
    },
    {
      "x": -9.66939640045166,
      "y": -0.2309073805809021,
      "z": 1.451246976852417,
      "time_usec": 4572758683
    },
    {
      "x": -9.664610862731934,
      "y": -0.19740787148475647,
      "z": 1.4177473783493042,
      "time_usec": 4572760946
    },
    {
      "x": -9.660423278808594,
      "y": -0.21176479756832123,
      "z": 1.5176477432250977,
      "time_usec": 4572763190
    },
    {
      "x": -9.668798446655273,
      "y": -0.18305093050003052,
      "z": 1.4416756629943848,
      "time_usec": 4572765459
    },
    {
      "x": -9.659825325012207,
      "y": -0.17288143932819366,
      "z": 1.555932879447937,
      "time_usec": 4572767718
    },
    {
      "x": -9.65503978729248,
      "y": -0.13938191533088684,
      "z": 1.5607185363769531,
      "time_usec": 4572769974
    },
    {
      "x": -9.66939640045166,
      "y": -0.13459627330303192,
      "z": 1.5655041933059692,
      "time_usec": 4572772233
    },
    {
      "x": -9.632308006286621,
      "y": -0.16809579730033875,
      "z": 1.6755740642547607,
      "time_usec": 4572774489
    },
    {
      "x": -9.636494636535645,
      "y": -0.13938191533088684,
      "z": 1.6133606433868408,
      "time_usec": 4572776747
    },
    {
      "x": -9.603593826293945,
      "y": -0.17288143932819366,
      "z": 1.7138592004776,
      "time_usec": 4572778999
    },
    {
      "x": -9.618548393249512,
      "y": -0.1824527233839035,
      "z": 1.7330018281936646,
      "time_usec": 4572781258
    },
    {
      "x": -9.599406242370605,
      "y": -0.18723836541175842,
      "z": 1.7330018281936646,
      "time_usec": 4572783506
    },
    {
      "x": -9.585647583007812,
      "y": -0.21655045449733734,
      "z": 1.771286964416504,
      "time_usec": 4572785778
    },
    {
      "x": -9.571290969848633,
      "y": -0.21655045449733734,
      "z": 1.771286964416504,
      "time_usec": 4572788033
    },
    {
      "x": -9.57607650756836,
      "y": -0.21176479756832123,
      "z": 1.800000786781311,
      "time_usec": 4572790289
    },
    {
      "x": -9.580862045288086,
      "y": -0.22552353143692017,
      "z": 1.8143577575683594,
      "time_usec": 4572792548
    },
    {
      "x": -9.590433120727539,
      "y": -0.2063809484243393,
      "z": 1.8287147283554077,
      "time_usec": 4572794804
    },
    {
      "x": -9.590433120727539,
      "y": -0.2063809484243393,
      "z": 1.8526428937911987,
      "time_usec": 4572797059
    },
    {
      "x": -9.604789733886719,
      "y": -0.18723836541175842,
      "z": 1.8574285507202148,
      "time_usec": 4572799315
    },
    {
      "x": -9.595218658447266,
      "y": -0.16809579730033875,
      "z": 1.8861424922943115,
      "time_usec": 4572801574
    },
    {
      "x": -9.614361763000488,
      "y": -0.17288143932819366,
      "z": 1.9004993438720703,
      "time_usec": 4572803823
    },
    {
      "x": -9.623932838439941,
      "y": -0.1585244983434677,
      "z": 1.9573289155960083,
      "time_usec": 4572806093
    },
    {
      "x": -9.628718376159668,
      "y": -0.1339980661869049,
      "z": 2.00518536567688,
      "time_usec": 4572808343
    },
    {
      "x": -9.614959716796875,
      "y": -0.15314064919948578,
      "z": 2.0673987865448,
      "time_usec": 4572810601
    },
    {
      "x": -9.624530792236328,
      "y": -0.15314064919948578,
      "z": 2.100898265838623,
      "time_usec": 4572812847
    },
    {
      "x": -9.638887405395508,
      "y": -0.1579262912273407,
      "z": 2.1439690589904785,
      "time_usec": 4572815107
    },
    {
      "x": -9.658628463745117,
      "y": -0.16749759018421173,
      "z": 2.186441659927368,
      "time_usec": 4572817369
    },
    {
      "x": -9.663414001464844,
      "y": -0.17647066712379456,
      "z": 2.210369825363159,
      "time_usec": 4572819627
    },
    {
      "x": -9.66819953918457,
      "y": -0.17168502509593964,
      "z": 2.2534406185150146,
      "time_usec": 4572821894
    },
    {
      "x": -9.67777156829834,
      "y": -0.18125630915164948,
      "z": 2.2438695430755615,
      "time_usec": 4572824139
    },
    {
      "x": -9.701101303100586,
      "y": -0.17168502509593964,
      "z": 2.2342982292175293,
      "time_usec": 4572826397
    },
    {
      "x": -9.696913719177246,
      "y": -0.1621137410402298,
      "z": 2.239083766937256,
      "time_usec": 4572828659
    },
    {
      "x": -9.701699256896973,
      "y": -0.20039889216423035,
      "z": 2.2295124530792236,
      "time_usec": 4572830925
    },
    {
      "x": -9.7064847946167,
      "y": -0.20997019112110138,
      "z": 2.215155601501465,
      "time_usec": 4572833187
    },
    {
      "x": -9.701699256896973,
      "y": -0.2147558331489563,
      "z": 2.2295124530792236,
      "time_usec": 4572835436
    },
    {
      "x": -9.711270332336426,
      "y": -0.20997019112110138,
      "z": 2.2055842876434326,
      "time_usec": 4572837682
    },
    {
      "x": -9.701699256896973,
      "y": -0.24825534224510193,
      "z": 2.186441659927368,
      "time_usec": 4572839946
    },
    {
      "x": -9.701699256896973,
      "y": -0.25782662630081177,
      "z": 2.152942180633545,
      "time_usec": 4572842208
    },
    {
      "x": -9.67777156829834,
      "y": -0.2679961323738098,
      "z": 2.138585329055786,
      "time_usec": 4572844465
    },
    {
      "x": -9.69212818145752,
      "y": -0.2727817893028259,
      "z": 2.1194427013397217,
      "time_usec": 4572846722
    },
    {
      "x": -9.691530227661133,
      "y": -0.2632105052471161,
      "z": 2.0811574459075928,
      "time_usec": 4572848975
    },
    {
      "x": -9.65803050994873,
      "y": -0.2679961323738098,
      "z": 2.043470621109009,
      "time_usec": 4572851236
    },
    {
      "x": -9.663414001464844,
      "y": -0.30149564146995544,
      "z": 2.0578274726867676,
      "time_usec": 4572853487
    },
    {
      "x": -9.66819953918457,
      "y": -0.31106695532798767,
      "z": 2.076371908187866,
      "time_usec": 4572855753
    },
    {
      "x": -9.682557106018066,
      "y": -0.35413774847984314,
      "z": 2.052443504333496,
      "time_usec": 4572858008
    },
    {
      "x": -9.663414001464844,
      "y": -0.38763725757598877,
      "z": 2.038684844970703,
      "time_usec": 4572860263
    },
    {
      "x": -9.644271850585938,
      "y": -0.4169493317604065,
      "z": 2.00518536567688,
      "time_usec": 4572862519
    },
    {
      "x": -9.625727653503418,
      "y": -0.43609192967414856,
      "z": 1.9621145725250244,
      "time_usec": 4572864780
    },
    {
      "x": -9.597013473510742,
      "y": -0.4408775866031647,
      "z": 1.9148563146591187,
      "time_usec": 4572867035
    },
    {
      "x": -9.572486877441406,
      "y": -0.45583271980285645,
      "z": 1.8526428937911987,
      "time_usec": 4572869292
    },
    {
      "x": -9.58205795288086,
      "y": -0.4462614357471466,
      "z": 1.8047864437103271,
      "time_usec": 4572871550
    },
    {
      "x": -9.610174179077148,
      "y": -0.42711883783340454,
      "z": 1.7617156505584717,
      "time_usec": 4572873798
    },
    {
      "x": -9.595816612243652,
      "y": -0.43190449476242065,
      "z": 1.7473586797714233,
      "time_usec": 4572876068
    },
    {
      "x": -9.581459999084473,
      "y": -0.40319061279296875,
      "z": 1.7138592004776,
      "time_usec": 4572878320
    },
    {
      "x": -9.576674461364746,
      "y": -0.3696911036968231,
      "z": 1.7240287065505981,
      "time_usec": 4572880577
    },
    {
      "x": -9.552745819091797,
      "y": -0.3409772217273712,
      "z": 1.7240287065505981,
      "time_usec": 4572882826
    },
    {
      "x": -9.538389205932617,
      "y": -0.32183465361595154,
      "z": 1.7240287065505981,
      "time_usec": 4572885098
    },
    {
      "x": -9.524032592773438,
      "y": -0.32662028074264526,
      "z": 1.7527425289154053,
      "time_usec": 4572887354
    },
    {
      "x": -9.53360366821289,
      "y": -0.3409772217273712,
      "z": 1.7527425289154053,
      "time_usec": 4572889610
    },
    {
      "x": -9.52941608428955,
      "y": -0.35533416271209717,
      "z": 1.7718851566314697,
      "time_usec": 4572891865
    },
    {
      "x": -9.538987159729004,
      "y": -0.364905446767807,
      "z": 1.805384635925293,
      "time_usec": 4572894113
    },
    {
      "x": -9.562317848205566,
      "y": -0.3601198196411133,
      "z": 1.8047864437103271,
      "time_usec": 4572896384
    },
    {
      "x": -9.567103385925293,
      "y": -0.34576287865638733,
      "z": 1.8191434144973755,
      "time_usec": 4572898636
    },
    {
      "x": -9.505488395690918,
      "y": -0.32183465361595154,
      "z": 1.8293129205703735,
      "time_usec": 4572900901
    },
    {
      "x": -9.681360244750977,
      "y": -0.3930211067199707,
      "z": 1.832902193069458,
      "time_usec": 4572903147
    },
    {
      "x": -9.757930755615234,
      "y": -0.38763725757598877,
      "z": 1.8610178232192993,
      "time_usec": 4572905401
    },
    {
      "x": -9.55753231048584,
      "y": -0.29312077164649963,
      "z": 1.8478572368621826,
      "time_usec": 4572907668
    },
    {
      "x": -9.595816612243652,
      "y": -0.2829512655735016,
      "z": 1.8861424922943115,
      "time_usec": 4572909923
    },
    {
      "x": -9.648459434509277,
      "y": -0.27816563844680786,
      "z": 1.9286150932312012,
      "time_usec": 4572912190
    },
    {
      "x": -9.58205795288086,
      "y": -0.22552353143692017,
      "z": 1.9770697355270386,
      "time_usec": 4572914448
    },
    {
      "x": -9.577272415161133,
      "y": -0.21595224738121033,
      "z": 1.9914265871047974,
      "time_usec": 4572916699
    },
    {
      "x": -9.605388641357422,
      "y": -0.23030917346477509,
      "z": 1.9812572002410889,
      "time_usec": 4572918948
    },
    {
      "x": -9.605388641357422,
      "y": -0.2111666053533554,
      "z": 2.00518536567688,
      "time_usec": 4572921197
    },
    {
      "x": -9.605388641357422,
      "y": -0.21595224738121033,
      "z": 1.9716858863830566,
      "time_usec": 4572923457
    },
    {
      "x": -9.638887405395508,
      "y": -0.20578274130821228,
      "z": 1.9908283948898315,
      "time_usec": 4572925713
    },
    {
      "x": -9.662816047668457,
      "y": -0.23449662327766418,
      "z": 2.014756679534912,
      "time_usec": 4572927972
    },
    {
      "x": -9.667601585388184,
      "y": -0.25363919138908386,
      "z": 2.029113531112671,
      "time_usec": 4572930231
    },
    {
      "x": -9.67238712310791,
      "y": -0.25363919138908386,
      "z": 2.066800594329834,
      "time_usec": 4572932488
    },
    {
      "x": -9.701101303100586,
      "y": -0.24406790733337402,
      "z": 2.076371908187866,
      "time_usec": 4572934745
    },
    {
      "x": -9.69631576538086,
      "y": -0.24406790733337402,
      "z": 2.076371908187866,
      "time_usec": 4572937002
    },
    {
      "x": -9.710672378540039,
      "y": -0.22432711720466614,
      "z": 2.0859432220458984,
      "time_usec": 4572939261
    },
    {
      "x": -9.691530227661133,
      "y": -0.19621145725250244,
      "z": 2.090728759765625,
      "time_usec": 4572941517
    },
    {
      "x": -9.686744689941406,
      "y": -0.20578274130821228,
      "z": 2.0859432220458984,
      "time_usec": 4572943777
    },
    {
      "x": -9.705288887023926,
      "y": -0.18125630915164948,
      "z": 2.0859432220458984,
      "time_usec": 4572946045
    },
    {
      "x": -9.686145782470703,
      "y": -0.16271193325519562,
      "z": 2.052443504333496,
      "time_usec": 4572948294
    },
    {
      "x": -9.67657470703125,
      "y": -0.12442677468061447,
      "z": 2.0620148181915283,
      "time_usec": 4572950557
    },
    {
      "x": -9.681360244750977,
      "y": -0.11485548317432404,
      "z": 2.0572292804718018,
      "time_usec": 4572952815
    },
    {
      "x": -9.671789169311523,
      "y": -0.1052841991186142,
      "z": 2.0338993072509766,
      "time_usec": 4572955075
    },
    {
      "x": -9.690333366394043,
      "y": -0.09571290761232376,
      "z": 2.0237298011779785,
      "time_usec": 4572957330
    },
    {
      "x": -9.699904441833496,
      "y": -0.08614161610603333,
      "z": 1.9621145725250244,
      "time_usec": 4572959582
    },
    {
      "x": -9.690333366394043,
      "y": -0.09571290761232376,
      "z": 1.9334007501602173,
      "time_usec": 4572961843
    },
    {
      "x": -9.675976753234863,
      "y": -0.11485548317432404,
      "z": 1.8807586431503296,
      "time_usec": 4572964095
    },
    {
      "x": -9.651450157165527,
      "y": -0.12023933976888657,
      "z": 1.8191434144973755,
      "time_usec": 4572966360
    },
    {
      "x": -9.66102123260498,
      "y": -0.14895321428775787,
      "z": 1.771286964416504,
      "time_usec": 4572968612
    },
    {
      "x": -9.69930648803711,
      "y": -0.1818545162677765,
      "z": 1.7563318014144897,
      "time_usec": 4572970876
    },
    {
      "x": -9.708877563476562,
      "y": -0.1866401731967926,
      "z": 1.7324036359786987,
      "time_usec": 4572973134
    },
    {
      "x": -9.704092025756836,
      "y": -0.20578274130821228,
      "z": 1.7419748306274414,
      "time_usec": 4572975389
    },
    {
      "x": -9.708877563476562,
      "y": -0.22971096634864807,
      "z": 1.7467604875564575,
      "time_usec": 4572977644
    },
    {
      "x": -9.704092025756836,
      "y": -0.22971096634864807,
      "z": 1.7611174583435059,
      "time_usec": 4572979897
    },
    {
      "x": -9.69930648803711,
      "y": -0.2392822653055191,
      "z": 1.7994025945663452,
      "time_usec": 4572982160
    },
    {
      "x": -9.699904441833496,
      "y": -0.22013968229293823,
      "z": 1.8233308792114258,
      "time_usec": 4572984419
    },
    {
      "x": -9.661619186401367,
      "y": -0.22552353143692017,
      "z": 1.8376877307891846,
      "time_usec": 4572986676
    },
    {
      "x": -9.647262573242188,
      "y": -0.21595224738121033,
      "z": 1.8472590446472168,
      "time_usec": 4572988927
    },
    {
      "x": -9.637691497802734,
      "y": -0.21595224738121033,
      "z": 1.8478572368621826,
      "time_usec": 4572991190
    },
    {
      "x": -9.619147300720215,
      "y": -0.21595224738121033,
      "z": 1.8574285507202148,
      "time_usec": 4572993445
    },
    {
      "x": -9.609575271606445,
      "y": -0.20159530639648438,
      "z": 1.8335003852844238,
      "time_usec": 4572995693
    },
    {
      "x": -9.628120422363281,
      "y": -0.2063809484243393,
      "z": 1.8287147283554077,
      "time_usec": 4572997961
    },
    {
      "x": -9.618548393249512,
      "y": -0.18723836541175842,
      "z": 1.8095721006393433,
      "time_usec": 4573000210
    },
    {
      "x": -9.637691497802734,
      "y": -0.18723836541175842,
      "z": 1.8239290714263916,
      "time_usec": 4573002465
    },
    {
      "x": -9.65683364868164,
      "y": -0.20159530639648438,
      "z": 1.8376877307891846,
      "time_usec": 4573004726
    },
    {
      "x": -9.690333366394043,
      "y": -0.20578274130821228,
      "z": 1.8233308792114258,
      "time_usec": 4573006990
    },
    {
      "x": -9.671191215515137,
      "y": -0.21595224738121033,
      "z": 1.8376877307891846,
      "time_usec": 4573009246
    },
    {
      "x": -9.671191215515137,
      "y": -0.18723836541175842,
      "z": 1.8472590446472168,
      "time_usec": 4573011505
    },
    {
      "x": -9.647860527038574,
      "y": -0.19680966436862946,
      "z": 1.8855443000793457,
      "time_usec": 4573013756
    },
    {
      "x": -9.600004196166992,
      "y": -0.1824527233839035,
      "z": 1.9387845993041992,
      "time_usec": 4573016021
    },
    {
      "x": -9.576674461364746,
      "y": -0.1824527233839035,
      "z": 1.9770697355270386,
      "time_usec": 4573018276
    },
    {
      "x": -9.55753231048584,
      "y": -0.17766708135604858,
      "z": 1.9866410493850708,
      "time_usec": 4573020531
    },
    {
      "x": -9.548559188842773,
      "y": -0.17288143932819366,
      "z": 2.02492618560791,
      "time_usec": 4573022793
    },
    {
      "x": -9.567103385925293,
      "y": -0.16809579730033875,
      "z": 2.0057835578918457,
      "time_usec": 4573025049
    },
    {
      "x": -9.5862455368042,
      "y": -0.1824527233839035,
      "z": 2.0003998279571533,
      "time_usec": 4573027306
    },
    {
      "x": -9.591031074523926,
      "y": -0.18723836541175842,
      "z": 1.9674984216690063,
      "time_usec": 4573029558
    },
    {
      "x": -9.591031074523926,
      "y": -0.18723836541175842,
      "z": 1.929213285446167,
      "time_usec": 4573031821
    },
    {
      "x": -9.5862455368042,
      "y": -0.2111666053533554,
      "z": 1.9004993438720703,
      "time_usec": 4573034078
    },
    {
      "x": -9.619147300720215,
      "y": -0.19680966436862946,
      "z": 1.862214207649231,
      "time_usec": 4573036335
    },
    {
      "x": -9.55214786529541,
      "y": -0.19740787148475647,
      "z": 1.8239290714263916,
      "time_usec": 4573038588
    },
    {
      "x": -9.53779125213623,
      "y": -0.21655045449733734,
      "z": 1.7527425289154053,
      "time_usec": 4573040851
    },
    {
      "x": -9.55214786529541,
      "y": -0.25004997849464417,
      "z": 1.7336000204086304,
      "time_usec": 4573043107
    },
    {
      "x": -9.556933403015137,
      "y": -0.26919254660606384,
      "z": 1.7048860788345337,
      "time_usec": 4573045366
    },
    {
      "x": -9.57069206237793,
      "y": -0.27397820353507996,
      "z": 1.6809579133987427,
      "time_usec": 4573047620
    },
    {
      "x": -9.55633544921875,
      "y": -0.26919254660606384,
      "z": 1.6474584341049194,
      "time_usec": 4573049875
    },
    {
      "x": -9.533005714416504,
      "y": -0.2793620526790619,
      "z": 1.628315806388855,
      "time_usec": 4573052142
    },
    {
      "x": -9.54197883605957,
      "y": -0.2787638306617737,
      "z": 1.6139588356018066,
      "time_usec": 4573054394
    },
    {
      "x": -9.551549911499023,
      "y": -0.2745763957500458,
      "z": 1.5804593563079834,
      "time_usec": 4573056653
    },
    {
      "x": -9.537193298339844,
      "y": -0.24586252868175507,
      "z": 1.566102385520935,
      "time_usec": 4573058902
    },
    {
      "x": -9.551549911499023,
      "y": -0.2356930375099182,
      "z": 1.5756736993789673,
      "time_usec": 4573061161
    },
    {
      "x": -9.603593826293945,
      "y": -0.24047867953777313,
      "z": 1.5326029062271118,
      "time_usec": 4573063422
    },
    {
      "x": -9.636494636535645,
      "y": -0.2309073805809021,
      "z": 1.5230315923690796,
      "time_usec": 4573065680
    },
    {
      "x": -9.66939640045166,
      "y": -0.21176479756832123,
      "z": 1.4937195777893066,
      "time_usec": 4573067932
    },
    {
      "x": -9.707083702087402,
      "y": -0.20159530639648438,
      "z": 1.4745769500732422,
      "time_usec": 4573070188
    },
    {
      "x": -9.731011390686035,
      "y": -0.18723836541175842,
      "z": 1.4602199792861938,
      "time_usec": 4573072448
    },
    {
      "x": -9.749555587768555,
      "y": -0.16331014037132263,
      "z": 1.4362918138504028,
      "time_usec": 4573074711
    },
    {
      "x": -9.725627899169922,
      "y": -0.129810631275177,
      "z": 1.4123635292053223,
      "time_usec": 4573076968
    },
    {
      "x": -9.725028991699219,
      "y": -0.10588239878416061,
      "z": 1.3597214221954346,
      "time_usec": 4573079220
    },
    {
      "x": -9.753743171691895,
      "y": -0.0771685317158699,
      "z": 1.3357932567596436,
      "time_usec": 4573081481
    },
    {
      "x": -9.743574142456055,
      "y": -0.05802594870328903,
      "z": 1.311864972114563,
      "time_usec": 4573083733
    },
    {
      "x": -9.753145217895508,
      "y": -0.053240302950143814,
      "z": 1.3070793151855469,
      "time_usec": 4573085990
    },
    {
      "x": -9.767501831054688,
      "y": -0.014955141581594944,
      "z": 1.292722463607788,
      "time_usec": 4573088252
    },
    {
      "x": -9.796216011047363,
      "y": -0.03888336941599846,
      "z": 1.3453645706176758,
      "time_usec": 4573090506
    },
    {
      "x": -9.839286804199219,
      "y": -0.04307080805301666,
      "z": 1.3830515146255493,
      "time_usec": 4573092770
    },
    {
      "x": -9.844072341918945,
      "y": -0.09092725813388824,
      "z": 1.4404792785644531,
      "time_usec": 4573095026
    },
    {
      "x": -9.878170013427734,
      "y": -0.09511470049619675,
      "z": 1.526620864868164,
      "time_usec": 4573097282
    },
    {
      "x": -9.887741088867188,
      "y": -0.11904292553663254,
      "z": 1.5978072881698608,
      "time_usec": 4573099534
    },
    {
      "x": -9.893125534057617,
      "y": -0.12382857501506805,
      "z": 1.669592022895813,
      "time_usec": 4573101796
    },
    {
      "x": -9.841081619262695,
      "y": -0.09032905846834183,
      "z": 1.7270197868347168,
      "time_usec": 4573104049
    },
    {
      "x": -9.864411354064941,
      "y": -0.04247260093688965,
      "z": 1.7222341299057007,
      "time_usec": 4573106299
    },
    {
      "x": -9.878767967224121,
      "y": -0.08075776696205139,
      "z": 1.7126628160476685,
      "time_usec": 4573108563
    },
    {
      "x": -9.836296081542969,
      "y": -0.12382857501506805,
      "z": 1.688734531402588,
      "time_usec": 4573110827
    },
    {
      "x": -9.8267240524292,
      "y": -0.1621137410402298,
      "z": 1.6983058452606201,
      "time_usec": 4573113088
    },
    {
      "x": -9.827322959899902,
      "y": -0.19142581522464752,
      "z": 1.6983058452606201,
      "time_usec": 4573115341
    },
    {
      "x": -9.822537422180176,
      "y": -0.22013968229293823,
      "z": 1.731805443763733,
      "time_usec": 4573117591
    },
    {
      "x": -9.812965393066406,
      "y": -0.25363919138908386,
      "z": 1.7222341299057007,
      "time_usec": 4573119850
    },
    {
      "x": -9.770493507385254,
      "y": -0.2584248483181,
      "z": 1.7467604875564575,
      "time_usec": 4573122112
    },
    {
      "x": -9.741779327392578,
      "y": -0.24885354936122894,
      "z": 1.7084753513336182,
      "time_usec": 4573124371
    },
    {
      "x": -9.69930648803711,
      "y": -0.23988047242164612,
      "z": 1.6995022296905518,
      "time_usec": 4573126627
    },
    {
      "x": -9.675378799438477,
      "y": -0.24466611444950104,
      "z": 1.685145378112793,
      "time_usec": 4573128880
    },
    {
      "x": -9.632308006286621,
      "y": -0.24526432156562805,
      "z": 1.6707884073257446,
      "time_usec": 4573131139
    },
    {
      "x": -9.575477600097656,
      "y": -0.24047867953777313,
      "z": 1.6761722564697266,
      "time_usec": 4573133399
    },
    {
      "x": -9.55633544921875,
      "y": -0.21655045449733734,
      "z": 1.657029628753662,
      "time_usec": 4573135657
    },
    {
      "x": -9.518648147583008,
      "y": -0.23629122972488403,
      "z": 1.6618152856826782,
      "time_usec": 4573137911
    },
    {
      "x": -9.513862609863281,
      "y": -0.24107688665390015,
      "z": 1.6857435703277588,
      "time_usec": 4573140155
    },
    {
      "x": -9.499505996704102,
      "y": -0.25064817070961,
      "z": 1.7048860788345337,
      "time_usec": 4573142415
    },
    {
      "x": -9.490532875061035,
      "y": -0.25064817070961,
      "z": 1.7431713342666626,
      "time_usec": 4573144685
    },
    {
      "x": -9.500103950500488,
      "y": -0.27397820353507996,
      "z": 1.7958134412765503,
      "time_usec": 4573146945
    },
    {
      "x": -9.514460563659668,
      "y": -0.2883351147174835,
      "z": 1.8197416067123413,
      "time_usec": 4573149198
    },
    {
      "x": -9.52941608428955,
      "y": -0.3122633695602417,
      "z": 1.8574285507202148,
      "time_usec": 4573151453
    },
    {
      "x": -9.524630546569824,
      "y": -0.32183465361595154,
      "z": 1.9052850008010864,
      "time_usec": 4573153708
    },
    {
      "x": -9.530014038085938,
      "y": -0.32662028074264526,
      "z": 1.9435701370239258,
      "time_usec": 4573155970
    },
    {
      "x": -9.501300811767578,
      "y": -0.3601198196411133,
      "z": 1.9627127647399902,
      "time_usec": 4573158214
    },
    {
      "x": -9.487542152404785,
      "y": -0.34576287865638733,
      "z": 1.9722840785980225,
      "time_usec": 4573160472
    },
    {
      "x": -9.463613510131836,
      "y": -0.3601198196411133,
      "z": 1.9728822708129883,
      "time_usec": 4573162731
    },
    {
      "x": -9.468399047851562,
      "y": -0.34576287865638733,
      "z": 1.9728822708129883,
      "time_usec": 4573165002
    },
    {
      "x": -9.454042434692383,
      "y": -0.3409772217273712,
      "z": 1.9441684484481812,
      "time_usec": 4573167248
    },
    {
      "x": -9.46301555633545,
      "y": -0.3026920557022095,
      "z": 1.9058831930160522,
      "time_usec": 4573169513
    },
    {
      "x": -9.448657989501953,
      "y": -0.29371899366378784,
      "z": 1.8532410860061646,
      "time_usec": 4573171773
    },
    {
      "x": -9.452845573425293,
      "y": -0.29850462079048157,
      "z": 1.810170292854309,
      "time_usec": 4573174033
    },
    {
      "x": -9.452845573425293,
      "y": -0.3032902777194977,
      "z": 1.7766708135604858,
      "time_usec": 4573176288
    },
    {
      "x": -9.480961799621582,
      "y": -0.28893333673477173,
      "z": 1.7670994997024536,
      "time_usec": 4573178540
    },
    {
      "x": -9.500103950500488,
      "y": -0.29371899366378784,
      "z": 1.719243049621582,
      "time_usec": 4573180799
    },
    {
      "x": -9.485747337341309,
      "y": -0.29371899366378784,
      "z": 1.6857435703277588,
      "time_usec": 4573183049
    },
    {
      "x": -9.495916366577148,
      "y": -0.32183465361595154,
      "z": 1.8197416067123413,
      "time_usec": 4573185318
    },
    {
      "x": -9.485747337341309,
      "y": -0.32721850275993347,
      "z": 1.690529227256775,
      "time_usec": 4573187567
    },
    {
      "x": -9.452247619628906,
      "y": -0.33738797903060913,
      "z": 1.6002001762390137,
      "time_usec": 4573189829
    },
    {
      "x": -9.456435203552246,
      "y": -0.3613162338733673,
      "z": 1.5332010984420776,
      "time_usec": 4573192088
    },
    {
      "x": -9.437292098999023,
      "y": -0.3517449200153351,
      "z": 1.490728497505188,
      "time_usec": 4573194347
    },
    {
      "x": -9.446864128112793,
      "y": -0.3326023519039154,
      "z": 1.466800332069397,
      "time_usec": 4573196603
    },
    {
      "x": -9.460622787475586,
      "y": -0.31824541091918945,
      "z": 1.461416482925415,
      "time_usec": 4573198855
    },
    {
      "x": -9.465408325195312,
      "y": -0.32303106784820557,
      "z": 1.4476577043533325,
      "time_usec": 4573201116
    },
    {
      "x": -9.470791816711426,
      "y": -0.33738797903060913,
      "z": 1.48055899143219,
      "time_usec": 4573203363
    },
    {
      "x": -9.465408325195312,
      "y": -0.3086741268634796,
      "z": 1.4709876775741577,
      "time_usec": 4573205633
    },
    {
      "x": -9.446864128112793,
      "y": -0.3038884699344635,
      "z": 1.4859428405761719,
      "time_usec": 4573207888
    },
    {
      "x": -9.45583724975586,
      "y": -0.2991028428077698,
      "z": 1.4757733345031738,
      "time_usec": 4573210142
    },
    {
      "x": -9.451051712036133,
      "y": -0.2991028428077698,
      "z": 1.4524433612823486,
      "time_usec": 4573212389
    },
    {
      "x": -9.460622787475586,
      "y": -0.2847459018230438,
      "z": 1.4524433612823486,
      "time_usec": 4573214649
    },
    {
      "x": -9.44626522064209,
      "y": -0.29431718587875366,
      "z": 1.466800332069397,
      "time_usec": 4573216919
    },
    {
      "x": -9.442078590393066,
      "y": -0.3086741268634796,
      "z": 1.4811571836471558,
      "time_usec": 4573219175
    },
    {
      "x": -9.461220741271973,
      "y": -0.32303106784820557,
      "z": 1.5236297845840454,
      "time_usec": 4573221436
    },
    {
      "x": -9.437292098999023,
      "y": -0.2991028428077698,
      "z": 1.5619150400161743,
      "time_usec": 4573223681
    },
    {
      "x": -9.44746208190918,
      "y": -0.2841476798057556,
      "z": 1.6241283416748047,
      "time_usec": 4573225949
    },
    {
      "x": -9.40917682647705,
      "y": -0.29431718587875366,
      "z": 1.6289139986038208,
      "time_usec": 4573228204
    },
    {
      "x": -9.413962364196777,
      "y": -0.26560330390930176,
      "z": 1.6241283416748047,
      "time_usec": 4573230463
    },
    {
      "x": -9.394820213317871,
      "y": -0.27038896083831787,
      "z": 1.5672988891601562,
      "time_usec": 4573232720
    },
    {
      "x": -9.384650230407715,
      "y": -0.24646073579788208,
      "z": 1.5194423198699951,
      "time_usec": 4573234977
    },
    {
      "x": -9.399007797241211,
      "y": -0.21774685382843018,
      "z": 1.495514154434204,
      "time_usec": 4573237232
    },
    {
      "x": -9.407979965209961,
      "y": -0.1986042857170105,
      "z": 1.4715858697891235,
      "time_usec": 4573239480
    },
    {
      "x": -9.41755199432373,
      "y": -0.17946170270442963,
      "z": 1.4572290182113647,
      "time_usec": 4573241749
    },
    {
      "x": -9.445667266845703,
      "y": -0.1459621787071228,
      "z": 1.466800332069397,
      "time_usec": 4573244007
    },
    {
      "x": -9.479166984558105,
      "y": -0.10229317098855972,
      "z": 1.4949159622192383,
      "time_usec": 4573246265
    },
    {
      "x": -9.498309135437012,
      "y": -0.0975075215101242,
      "z": 1.5236297845840454,
      "time_usec": 4573248514
    },
    {
      "x": -9.535996437072754,
      "y": -0.06819544732570648,
      "z": 1.547558069229126,
      "time_usec": 4573250773
    },
    {
      "x": -9.55513858795166,
      "y": -0.039481572806835175,
      "z": 1.5900306701660156,
      "time_usec": 4573253032
    },
    {
      "x": -9.574281692504883,
      "y": -0.04905286431312561,
      "z": 1.6378871202468872,
      "time_usec": 4573255282
    },
    {
      "x": -9.598209381103516,
      "y": -0.03469592705368996,
      "z": 1.6474584341049194,
      "time_usec": 4573257551
    },
    {
      "x": -9.612566947937012,
      "y": -0.014955141581594944,
      "z": 1.6755740642547607,
      "time_usec": 4573259802
    },
    {
      "x": -9.607781410217285,
      "y": -0.014955141581594944,
      "z": 1.709073543548584,
      "time_usec": 4573262065
    },
    {
      "x": -9.626923561096191,
      "y": -0.010169495828449726,
      "z": 1.7042878866195679,
      "time_usec": 4573264309
    },
    {
      "x": -9.631111145019531,
      "y": -5.982056609354913E-4,
      "z": 1.6612170934677124,
      "time_usec": 4573266579
    },
    {
      "x": -9.631111145019531,
      "y": -5.982056609354913E-4,
      "z": 1.6707884073257446,
      "time_usec": 4573268831
    },
    {
      "x": -9.640682220458984,
      "y": 0.01375873014330864,
      "z": 1.6133606433868408,
      "time_usec": 4573271097
    },
    {
      "x": -9.611968994140625,
      "y": 0.03290131315588951,
      "z": 1.6139588356018066,
      "time_usec": 4573273353
    },
    {
      "x": -9.630513191223145,
      "y": 0.047258246690034866,
      "z": 1.5852450132369995,
      "time_usec": 4573275607
    },
    {
      "x": -9.620942115783691,
      "y": 0.08075776696205139,
      "z": 1.604387640953064,
      "time_usec": 4573277851
    },
    {
      "x": -9.635298728942871,
      "y": 0.08075776696205139,
      "z": 1.5900306701660156,
      "time_usec": 4573280118
    },
    {
      "x": -9.616155624389648,
      "y": 0.11904292553663254,
      "z": 1.5756736993789673,
      "time_usec": 4573282380
    },
    {
      "x": -9.630513191223145,
      "y": 0.1094716340303421,
      "z": 1.5900306701660156,
      "time_usec": 4573284641
    },
    {
      "x": -9.611370086669922,
      "y": 0.1094716340303421,
      "z": 1.566102385520935,
      "time_usec": 4573286895
    },
    {
      "x": -9.606584548950195,
      "y": 0.10408778488636017,
      "z": 1.537388563156128,
      "time_usec": 4573289147
    },
    {
      "x": -9.596415519714355,
      "y": 0.11844471842050552,
      "z": 1.5086746215820312,
      "time_usec": 4573291408
    },
    {
      "x": -9.625128746032715,
      "y": 0.08554340898990631,
      "z": 1.5038890838623047,
      "time_usec": 4573293660
    },
    {
      "x": -9.615557670593262,
      "y": 0.07058826833963394,
      "z": 1.4799607992172241,
      "time_usec": 4573295924
    },
    {
      "x": -9.639486312866211,
      "y": 0.061016976833343506,
      "z": 1.451246976852417,
      "time_usec": 4573298176
    },
    {
      "x": -9.644271850585938,
      "y": 0.04666004329919815,
      "z": 1.4177473783493042,
      "time_usec": 4573300433
    },
    {
      "x": -9.639486312866211,
      "y": 0.02751746028661728,
      "z": 1.384247899055481,
      "time_usec": 4573302683
    },
    {
      "x": -9.638887405395508,
      "y": 0.02273181453347206,
      "z": 1.3363914489746094,
      "time_usec": 4573304954
    },
    {
      "x": -9.653244972229004,
      "y": -0.010767702013254166,
      "z": 1.3076776266098022,
      "time_usec": 4573307210
    },
    {
      "x": -9.619745254516602,
      "y": -0.020338991656899452,
      "z": 1.2699905633926392,
      "time_usec": 4573309464
    },
    {
      "x": -9.595816612243652,
      "y": -0.006580262444913387,
      "z": 1.2221341133117676,
      "time_usec": 4573311726
    },
    {
      "x": -9.576674461364746,
      "y": -0.025722842663526535,
      "z": 1.1982059478759766,
      "time_usec": 4573313983
    },
    {
      "x": -9.5533447265625,
      "y": -0.030508488416671753,
      "z": 1.1892328262329102,
      "time_usec": 4573316240
    },
    {
      "x": -9.519845008850098,
      "y": -0.04546362906694412,
      "z": 1.2083754539489746,
      "time_usec": 4573318493
    },
    {
      "x": -9.538987159729004,
      "y": -0.04486542567610741,
      "z": 1.2131611108779907,
      "time_usec": 4573320761
    },
    {
      "x": -9.538987159729004,
      "y": -0.04007977992296219,
      "z": 1.2610175609588623,
      "time_usec": 4573323011
    },
    {
      "x": -9.515657424926758,
      "y": -0.04007977992296219,
      "z": 1.2849457263946533,
      "time_usec": 4573325270
    },
    {
      "x": -9.539586067199707,
      "y": -0.04486542567610741,
      "z": 1.3369896411895752,
      "time_usec": 4573327523
    },
    {
      "x": -9.530014038085938,
      "y": -0.030508488416671753,
      "z": 1.3513466119766235,
      "time_usec": 4573329779
    },
    {
      "x": -9.525228500366211,
      "y": -0.020937198773026466,
      "z": 1.3848460912704468,
      "time_usec": 4573332040
    },
    {
      "x": -9.534799575805664,
      "y": -0.006580262444913387,
      "z": 1.4039887189865112,
      "time_usec": 4573334295
    },
    {
      "x": -9.53061294555664,
      "y": 0.0029910283628851175,
      "z": 1.4518451690673828,
      "time_usec": 4573336555
    },
    {
      "x": -9.54496955871582,
      "y": 0.008374879136681557,
      "z": 1.4709876775741577,
      "time_usec": 4573338804
    },
    {
      "x": -9.56889820098877,
      "y": -0.010767702013254166,
      "z": 1.4799607992172241,
      "time_usec": 4573341059
    },
    {
      "x": -9.57787036895752,
      "y": -0.005982056725770235,
      "z": 1.4847464561462402,
      "time_usec": 4573343328
    },
    {
      "x": -9.597013473510742,
      "y": -0.010767702013254166,
      "z": 1.5038890838623047,
      "time_usec": 4573345587
    },
    {
      "x": -9.611370086669922,
      "y": 0.003589233849197626,
      "z": 1.470389485359192,
      "time_usec": 4573347844
    },
    {
      "x": -9.616155624389648,
      "y": 0.008374879136681557,
      "z": 1.470389485359192,
      "time_usec": 4573350093
    },
    {
      "x": -9.606584548950195,
      "y": 0.008374879136681557,
      "z": 1.470389485359192,
      "time_usec": 4573352356
    },
    {
      "x": -9.606584548950195,
      "y": 0.02751746028661728,
      "z": 1.4847464561462402,
      "time_usec": 4573354611
    },
    {
      "x": -9.582656860351562,
      "y": 0.0323031060397625,
      "z": 1.5278172492980957,
      "time_usec": 4573356871
    },
    {
      "x": -9.573683738708496,
      "y": 0.05144568532705307,
      "z": 1.5708880424499512,
      "time_usec": 4573359123
    },
    {
      "x": -9.597611427307129,
      "y": 0.08554340898990631,
      "z": 1.6139588356018066,
      "time_usec": 4573361385
    },
    {
      "x": -9.58325481414795,
      "y": 0.10468599200248718,
      "z": 1.695314884185791,
      "time_usec": 4573363637
    },
    {
      "x": -9.602396965026855,
      "y": 0.10468599200248718,
      "z": 1.7473586797714233,
      "time_usec": 4573365888
    },
    {
      "x": -9.635896682739258,
      "y": 0.12921242415905,
      "z": 1.795215129852295,
      "time_usec": 4573368143
    },
    {
      "x": -9.650253295898438,
      "y": 0.13878370821475983,
      "z": 1.8335003852844238,
      "time_usec": 4573370410
    },
    {
      "x": -9.664610862731934,
      "y": 0.16271193325519562,
      "z": 1.852044701576233,
      "time_usec": 4573372675
    },
    {
      "x": -9.698110580444336,
      "y": 0.1579262912273407,
      "z": 1.852044701576233,
      "time_usec": 4573374931
    },
    {
      "x": -9.688538551330566,
      "y": 0.17228323221206665,
      "z": 1.856830358505249,
      "time_usec": 4573377182
    },
    {
      "x": -9.697511672973633,
      "y": 0.1818545162677765,
      "z": 1.8376877307891846,
      "time_usec": 4573379440
    },
    {
      "x": -9.68794059753418,
      "y": 0.1818545162677765,
      "z": 1.832902193069458,
      "time_usec": 4573381701
    },
    {
      "x": -9.707083702087402,
      "y": 0.19142581522464752,
      "z": 1.7994025945663452,
      "time_usec": 4573383961
    },
    {
      "x": -9.716055870056152,
      "y": 0.17706887423992157,
      "z": 1.7563318014144897,
      "time_usec": 4573386214
    },
    {
      "x": -9.739984512329102,
      "y": 0.19621145725250244,
      "z": 1.7084753513336182,
      "time_usec": 4573388460
    },
    {
      "x": -9.744172096252441,
      "y": 0.20099709928035736,
      "z": 1.674975872039795,
      "time_usec": 4573390729
    },
    {
      "x": -9.744172096252441,
      "y": 0.2105683982372284,
      "z": 1.6319050788879395,
      "time_usec": 4573392987
    },
    {
      "x": -9.734601020812988,
      "y": 0.1818545162677765,
      "z": 1.5846468210220337,
      "time_usec": 4573395245
    },
    {
      "x": -9.719645500183105,
      "y": 0.19142581522464752,
      "z": 1.536790370941162,
      "time_usec": 4573397501
    },
    {
      "x": -9.714859962463379,
      "y": 0.17168502509593964,
      "z": 1.4602199792861938,
      "time_usec": 4573399755
    },
    {
      "x": -9.714859962463379,
      "y": 0.15254244208335876,
      "z": 1.4219348430633545,
      "time_usec": 4573402019
    },
    {
      "x": -9.67657470703125,
      "y": 0.1621137410402298,
      "z": 1.3603196144104004,
      "time_usec": 4573404274
    },
    {
      "x": -9.681360244750977,
      "y": 0.15254244208335876,
      "z": 1.3316057920455933,
      "time_usec": 4573406531
    },
    {
      "x": -9.675976753234863,
      "y": 0.15194423496723175,
      "z": 1.2837493419647217,
      "time_usec": 4573408783
    },
    {
      "x": -9.68076229095459,
      "y": 0.16151553392410278,
      "z": 1.2646067142486572,
      "time_usec": 4573411046
    },
    {
      "x": -9.661619186401367,
      "y": 0.17587246000766754,
      "z": 1.2317054271697998,
      "time_usec": 4573413303
    },
    {
      "x": -9.651450157165527,
      "y": 0.1902294009923935,
      "z": 1.1886346340179443,
      "time_usec": 4573415562
    },
    {
      "x": -9.6466646194458,
      "y": 0.20937198400497437,
      "z": 1.1694921255111694,
      "time_usec": 4573417818
    },
    {
      "x": -9.6466646194458,
      "y": 0.2189432680606842,
      "z": 1.150349497795105,
      "time_usec": 4573420068
    },
    {
      "x": -9.66102123260498,
      "y": 0.22372891008853912,
      "z": 1.155135154724121,
      "time_usec": 4573422320
    },
    {
      "x": -9.6466646194458,
      "y": 0.20937198400497437,
      "z": 1.1647064685821533,
      "time_usec": 4573424589
    },
    {
      "x": -9.680164337158203,
      "y": 0.2189432680606842,
      "z": 1.174277663230896,
      "time_usec": 4573426847
    },
    {
      "x": -9.680164337158203,
      "y": 0.22372891008853912,
      "z": 1.231107234954834,
      "time_usec": 4573429102
    },
    {
      "x": -9.723235130310059,
      "y": 0.22432711720466614,
      "z": 1.2646067142486572,
      "time_usec": 4573431362
    },
    {
      "x": -9.723235130310059,
      "y": 0.20039889216423035,
      "z": 1.3028919696807861,
      "time_usec": 4573433619
    },
    {
      "x": -9.751948356628418,
      "y": 0.20997019112110138,
      "z": 1.3405789136886597,
      "time_usec": 4573435880
    },
    {
      "x": -9.77109146118164,
      "y": 0.1866401731967926,
      "z": 1.3884353637695312,
      "time_usec": 4573438141
    },
    {
      "x": -9.776474952697754,
      "y": 0.20578274130821228,
      "z": 1.4506487846374512,
      "time_usec": 4573440385
    },
    {
      "x": -9.762118339538574,
      "y": 0.1818545162677765,
      "z": 1.46500563621521,
      "time_usec": 4573442648
    },
    {
      "x": -9.757332801818848,
      "y": 0.16271193325519562,
      "z": 1.4362918138504028,
      "time_usec": 4573444902
    },
    {
      "x": -9.734002113342285,
      "y": 0.16689938306808472,
      "z": 1.469791293144226,
      "time_usec": 4573447159
    },
    {
      "x": -9.719645500183105,
      "y": 0.1333998590707779,
      "z": 1.469791293144226,
      "time_usec": 4573449415
    },
    {
      "x": -9.705288887023926,
      "y": 0.11425728350877762,
      "z": 1.441077470779419,
      "time_usec": 4573451677
    },
    {
      "x": -9.677172660827637,
      "y": 0.09990034252405167,
      "z": 1.4321043491363525,
      "time_usec": 4573453936
    },
    {
      "x": -9.662816047668457,
      "y": 0.08973085135221481,
      "z": 1.3986048698425293,
      "time_usec": 4573456193
    },
    {
      "x": -9.638887405395508,
      "y": 0.05623133108019829,
      "z": 1.4081761837005615,
      "time_usec": 4573458445
    },
    {
      "x": -9.620343208312988,
      "y": 0.061016976833343506,
      "z": 1.3986048698425293,
      "time_usec": 4573460704
    },
    {
      "x": -9.620343208312988,
      "y": 0.04666004329919815,
      "z": 1.412961721420288,
      "time_usec": 4573462964
    },
    {
      "x": -9.610772132873535,
      "y": 0.05623133108019829,
      "z": 1.4177473783493042,
      "time_usec": 4573465219
    },
    {
      "x": -9.601201057434082,
      "y": 0.061016976833343506,
      "z": 1.3992030620574951,
      "time_usec": 4573467465
    },
    {
      "x": -9.610772132873535,
      "y": 0.0323031060397625,
      "z": 1.384247899055481,
      "time_usec": 4573469730
    },
    {
      "x": -9.605986595153809,
      "y": 0.037088751792907715,
      "z": 1.3704891204833984,
      "time_usec": 4573471990
    },
    {
      "x": -9.586843490600586,
      "y": 0.061016976833343506,
      "z": 1.3752747774124146,
      "time_usec": 4573474242
    },
    {
      "x": -9.577272415161133,
      "y": 0.061016976833343506,
      "z": 1.389631748199463,
      "time_usec": 4573476508
    },
    {
      "x": -9.572486877441406,
      "y": 0.07537391036748886,
      "z": 1.3800604343414307,
      "time_usec": 4573478759
    },
    {
      "x": -9.562915802001953,
      "y": 0.07477571070194244,
      "z": 1.3848460912704468,
      "time_usec": 4573481025
    },
    {
      "x": -9.577272415161133,
      "y": 0.07058826833963394,
      "z": 1.41834557056427,
      "time_usec": 4573483279
    },
    {
      "x": -9.601201057434082,
      "y": 0.10408778488636017,
      "z": 1.4416756629943848,
      "time_usec": 4573485538
    },
    {
      "x": -9.605986595153809,
      "y": 0.09930214285850525,
      "z": 1.456032633781433,
      "time_usec": 4573487793
    },
    {
      "x": -9.620343208312988,
      "y": 0.08973085135221481,
      "z": 1.4943177700042725,
      "time_usec": 4573490048
    },
    {
      "x": -9.644271850585938,
      "y": 0.09990034252405167,
      "z": 1.5038890838623047,
      "time_usec": 4573492310
    },
    {
      "x": -9.66819953918457,
      "y": 0.08554340898990631,
      "z": 1.5463616847991943,
      "time_usec": 4573494566
    },
    {
      "x": -9.696913719177246,
      "y": 0.07597211748361588,
      "z": 1.5750755071640015,
      "time_usec": 4573496823
    },
    {
      "x": -9.711270332336426,
      "y": 0.06699903309345245,
      "z": 1.6133606433868408,
      "time_usec": 4573499075
    },
    {
      "x": -9.735198974609375,
      "y": 0.09571290761232376,
      "z": 1.6845471858978271,
      "time_usec": 4573501338
    },
    {
      "x": -9.754341125488281,
      "y": 0.08135596662759781,
      "z": 1.7084753513336182,
      "time_usec": 4573503592
    },
    {
      "x": -9.79262638092041,
      "y": 0.08195417374372482,
      "z": 1.7371892929077148,
      "time_usec": 4573505838
    },
    {
      "x": -9.77826976776123,
      "y": 0.11066804826259613,
      "z": 1.7515461444854736,
      "time_usec": 4573508096
    },
    {
      "x": -9.783055305480957,
      "y": 0.11545369029045105,
      "z": 1.770688772201538,
      "time_usec": 4573510360
    },
    {
      "x": -9.768698692321777,
      "y": 0.10588239878416061,
      "z": 1.765903115272522,
      "time_usec": 4573512615
    },
    {
      "x": -9.731011390686035,
      "y": 0.11964113265275955,
      "z": 1.7515461444854736,
      "time_usec": 4573514882
    },
    {
      "x": -9.730413436889648,
      "y": 0.11485548317432404,
      "z": 1.6941183805465698,
      "time_usec": 4573517124
    },
    {
      "x": -9.720842361450195,
      "y": 0.11964113265275955,
      "z": 1.6612170934677124,
      "time_usec": 4573519383
    },
    {
      "x": -9.711270332336426,
      "y": 0.09571290761232376,
      "z": 1.6277176141738892,
      "time_usec": 4573521638
    },
    {
      "x": -9.716055870056152,
      "y": 0.09571290761232376,
      "z": 1.6085749864578247,
      "time_usec": 4573523898
    },
    {
      "x": -9.711270332336426,
      "y": 0.07118647545576096,
      "z": 1.5798611640930176,
      "time_usec": 4573526158
    },
    {
      "x": -9.725028991699219,
      "y": 0.1052841991186142,
      "z": 1.551147222518921,
      "time_usec": 4573528423
    },
    {
      "x": -9.730413436889648,
      "y": 0.047258246690034866,
      "z": 1.551147222518921,
      "time_usec": 4573530681
    },
    {
      "x": -9.729815483093262,
      "y": 0.052043892443180084,
      "z": 1.5463616847991943,
      "time_usec": 4573532940
    },
    {
      "x": -9.730413436889648,
      "y": 0.008973085321485996,
      "z": 1.5702898502349854,
      "time_usec": 4573535186
    },
    {
      "x": -9.735198974609375,
      "y": -0.004785645287483931,
      "z": 1.6037893295288086,
      "time_usec": 4573537453
    },
    {
      "x": -9.731011390686035,
      "y": -0.014356935396790504,
      "z": 1.6277176141738892,
      "time_usec": 4573539696
    },
    {
      "x": -9.716654777526855,
      "y": -0.048454657196998596,
      "z": 1.6372889280319214,
      "time_usec": 4573541956
    },
    {
      "x": -9.702896118164062,
      "y": -0.07238288223743439,
      "z": 1.6803597211837769,
      "time_usec": 4573544214
    },
    {
      "x": -9.693324089050293,
      "y": -0.0771685317158699,
      "z": 1.6660027503967285,
      "time_usec": 4573546484
    },
    {
      "x": -9.678967475891113,
      "y": -0.08195417374372482,
      "z": 1.6660027503967285,
      "time_usec": 4573548736
    },
    {
      "x": -9.678967475891113,
      "y": -0.1010967567563057,
      "z": 1.6325032711029053,
      "time_usec": 4573550985
    },
    {
      "x": -9.678967475891113,
      "y": -0.1010967567563057,
      "z": 1.6277176141738892,
      "time_usec": 4573553240
    },
    {
      "x": -9.678967475891113,
      "y": -0.11066804826259613,
      "z": 1.6372889280319214,
      "time_usec": 4573555499
    },
    {
      "x": -9.66939640045166,
      "y": -0.11545369029045105,
      "z": 1.622931957244873,
      "time_usec": 4573557762
    },
    {
      "x": -9.674181938171387,
      "y": -0.11066804826259613,
      "z": 1.6277176141738892,
      "time_usec": 4573560023
    },
    {
      "x": -9.688538551330566,
      "y": -0.10588239878416061,
      "z": 1.6133606433868408,
      "time_usec": 4573562277
    },
    {
      "x": -9.674181938171387,
      "y": -0.10588239878416061,
      "z": 1.622931957244873,
      "time_usec": 4573564542
    },
    {
      "x": -9.678967475891113,
      "y": -0.14895321428775787,
      "z": 1.6277176141738892,
      "time_usec": 4573566787
    },
    {
      "x": -9.702896118164062,
      "y": -0.1537388563156128,
      "z": 1.6277176141738892,
      "time_usec": 4573569047
    },
    {
      "x": -9.707681655883789,
      "y": -0.16809579730033875,
      "z": 1.6372889280319214,
      "time_usec": 4573571314
    },
    {
      "x": -9.712467193603516,
      "y": -0.16809579730033875,
      "z": 1.622931957244873,
      "time_usec": 4573573570
    },
    {
      "x": -9.712467193603516,
      "y": -0.1824527233839035,
      "z": 1.6133606433868408,
      "time_usec": 4573575819
    },
    {
      "x": -9.702896118164062,
      "y": -0.16809579730033875,
      "z": 1.6277176141738892,
      "time_usec": 4573578084
    },
    {
      "x": -9.68375301361084,
      "y": -0.17288143932819366,
      "z": 1.622931957244873,
      "time_usec": 4573580335
    },
    {
      "x": -9.664610862731934,
      "y": -0.16809579730033875,
      "z": 1.5846468210220337,
      "time_usec": 4573582603
    },
    {
      "x": -9.664610862731934,
      "y": -0.16390834748744965,
      "z": 1.551147222518921,
      "time_usec": 4573584845
    },
    {
      "x": -9.65503978729248,
      "y": -0.15912270545959473,
      "z": 1.4943177700042725,
      "time_usec": 4573587104
    },
    {
      "x": -9.645467758178711,
      "y": -0.1495514214038849,
      "z": 1.4847464561462402,
      "time_usec": 4573589366
    },
    {
      "x": -9.635298728942871,
      "y": -0.1495514214038849,
      "z": 1.451246976852417,
      "time_usec": 4573591625
    },
    {
      "x": -9.611968994140625,
      "y": -0.15912270545959473,
      "z": 1.4464613199234009,
      "time_usec": 4573593874
    },
    {
      "x": -9.631111145019531,
      "y": -0.18305093050003052,
      "z": 1.4943177700042725,
      "time_usec": 4573596131
    },
    {
      "x": -9.631709098815918,
      "y": -0.18783657252788544,
      "z": 1.537388563156128,
      "time_usec": 4573598389
    },
    {
      "x": -9.66520881652832,
