{
  "frames": [
    {
      "frame_id": 0,
      "sensor_timestamp": 8413211953640,
      "time_usec": 8413211953
    },
    {
      "frame_id": 1,
      "sensor_timestamp": 8413278446560,
      "time_usec": 8413278446
    },
    {
      "frame_id": 2,
      "sensor_timestamp": 8413311692898,
      "time_usec": 8413311692
    },
    {
      "frame_id": 3,
      "sensor_timestamp": 8413344939236,
      "time_usec": 8413344939
    },
    {
      "frame_id": 4,
      "sensor_timestamp": 8413378185574,
      "time_usec": 8413378185
    },
    {
      "frame_id": 5,
      "sensor_timestamp": 8413411432156,
      "time_usec": 8413411432
    },
    {
      "frame_id": 6,
      "sensor_timestamp": 8413444678493,
      "time_usec": 8413444678
    },
    {
      "frame_id": 7,
      "sensor_timestamp": 8413477924831,
      "time_usec": 8413477924
    },
    {
      "frame_id": 8,
      "sensor_timestamp": 8413511171169,
      "time_usec": 8413511171
    },
    {
      "frame_id": 9,
      "sensor_timestamp": 8413544417751,
      "time_usec": 8413544417
    },
    {
      "frame_id": 10,
      "sensor_timestamp": 8413577664089,
      "time_usec": 8413577664
    },
    {
      "frame_id": 11,
      "sensor_timestamp": 8413610910427,
      "time_usec": 8413610910
    },
    {
      "frame_id": 12,
      "sensor_timestamp": 8413644156765,
      "time_usec": 8413644156
    },
    {
      "frame_id": 13,
      "sensor_timestamp": 8413677403347,
      "time_usec": 8413677403
    },
    {
      "frame_id": 14,
      "sensor_timestamp": 8413710649685,
      "time_usec": 8413710649
    },
    {
      "frame_id": 15,
      "sensor_timestamp": 8413743896023,
      "time_usec": 8413743896
    },
    {
      "frame_id": 16,
      "sensor_timestamp": 8413777142361,
      "time_usec": 8413777142
    },
    {
      "frame_id": 17,
      "sensor_timestamp": 8413810388943,
      "time_usec": 8413810388
    },
    {
      "frame_id": 18,
      "sensor_timestamp": 8413843635281,
      "time_usec": 8413843635
    },
    {
      "frame_id": 19,
      "sensor_timestamp": 8413876881618,
      "time_usec": 8413876881
    },
    {
      "frame_id": 20,
      "sensor_timestamp": 8413910127956,
      "time_usec": 8413910127
    },
    {
      "frame_id": 21,
      "sensor_timestamp": 8413943374538,
      "time_usec": 8413943374
    },
    {
      "frame_id": 22,
      "sensor_timestamp": 8413976620876,
      "time_usec": 8413976620
    },
    {
      "frame_id": 23,
      "sensor_timestamp": 8414009867214,
      "time_usec": 8414009867
    },
    {
      "frame_id": 24,
      "sensor_timestamp": 8414043113552,
      "time_usec": 8414043113
    },
    {
      "frame_id": 25,
      "sensor_timestamp": 8414076360134,
      "time_usec": 8414076360
    },
    {
      "frame_id": 26,
      "sensor_timestamp": 8414109606472,
      "time_usec": 8414109606
    },
    {
      "frame_id": 27,
      "sensor_timestamp": 8414142852810,
      "time_usec": 8414142852
    },
    {
      "frame_id": 28,
      "sensor_timestamp": 8414176099148,
      "time_usec": 8414176099
    },
    {
      "frame_id": 29,
      "sensor_timestamp": 8414209285904,
      "time_usec": 8414209285
    },
    {
      "frame_id": 30,
      "sensor_timestamp": 8414242592068,
      "time_usec": 8414242592
    },
    {
      "frame_id": 31,
      "sensor_timestamp": 8414275838406,
      "time_usec": 8414275838
    },
    {
      "frame_id": 32,
      "sensor_timestamp": 8414309084743,
      "time_usec": 8414309084
    },
    {
      "frame_id": 33,
      "sensor_timestamp": 8414342331081,
      "time_usec": 8414342331
    },
    {
      "frame_id": 34,
      "sensor_timestamp": 8414375577663,
      "time_usec": 8414375577
    },
    {
      "frame_id": 35,
      "sensor_timestamp": 8414408824001,
      "time_usec": 8414408824
    },
    {
      "frame_id": 36,
      "sensor_timestamp": 8414442070339,
      "time_usec": 8414442070
    },
    {
      "frame_id": 37,
      "sensor_timestamp": 8414475316677,
      "time_usec": 8414475316
    },
    {
      "frame_id": 38,
      "sensor_timestamp": 8414508563259,
      "time_usec": 8414508563
    },
    {
      "frame_id": 39,
      "sensor_timestamp": 8414541809597,
      "time_usec": 8414541809
    },
    {
      "frame_id": 40,
      "sensor_timestamp": 8414575055935,
      "time_usec": 8414575055
    },
    {
      "frame_id": 41,
      "sensor_timestamp": 8414608302273,
      "time_usec": 8414608302
    },
    {
      "frame_id": 42,
      "sensor_timestamp": 8414641548855,
      "time_usec": 8414641548
    },
    {
      "frame_id": 43,
      "sensor_timestamp": 8414674795193,
      "time_usec": 8414674795
    },
    {
      "frame_id": 44,
      "sensor_timestamp": 8414708041531,
      "time_usec": 8414708041
    },
    {
      "frame_id": 45,
      "sensor_timestamp": 8414741287868,
      "time_usec": 8414741287
    },
    {
      "frame_id": 46,
      "sensor_timestamp": 8414771753819,
      "time_usec": 8414771753
    },
    {
      "frame_id": 47,
      "sensor_timestamp": 8414805000157,
      "time_usec": 8414805000
    },
    {
      "frame_id": 48,
      "sensor_timestamp": 8414838246495,
      "time_usec": 8414838246
    },
    {
      "frame_id": 49,
      "sensor_timestamp": 8414871492833,
      "time_usec": 8414871492
    },
    {
      "frame_id": 50,
      "sensor_timestamp": 8414904739415,
      "time_usec": 8414904739
    },
    {
      "frame_id": 51,
      "sensor_timestamp": 8414937985753,
      "time_usec": 8414937985
    },
    {
      "frame_id": 52,
      "sensor_timestamp": 8414971232091,
      "time_usec": 8414971232
    },
    {
      "frame_id": 53,
      "sensor_timestamp": 8415004478429,
      "time_usec": 8415004478
    },
    {
      "frame_id": 54,
      "sensor_timestamp": 8415037725011,
      "time_usec": 8415037725
    },
    {
      "frame_id": 55,
      "sensor_timestamp": 8415070971349,
      "time_usec": 8415070971
    },
    {
      "frame_id": 56,
      "sensor_timestamp": 8415104217687,
      "time_usec": 8415104217
    },
    {
      "frame_id": 57,
      "sensor_timestamp": 8415137464025,
      "time_usec": 8415137464
    },
    {
      "frame_id": 58,
      "sensor_timestamp": 8415170710607,
      "time_usec": 8415170710
    },
    {
      "frame_id": 59,
      "sensor_timestamp": 8415203956944,
      "time_usec": 8415203956
    },
    {
      "frame_id": 60,
      "sensor_timestamp": 8415237203282,
      "time_usec": 8415237203
    },
    {
      "frame_id": 61,
      "sensor_timestamp": 8415270449620,
      "time_usec": 8415270449
    },
    {
      "frame_id": 62,
      "sensor_timestamp": 8415303696202,
      "time_usec": 8415303696
    },
    {
      "frame_id": 63,
      "sensor_timestamp": 8415336942540,
      "time_usec": 8415336942
    },
    {
      "frame_id": 64,
      "sensor_timestamp": 8415370188878,
      "time_usec": 8415370188
    },
    {
      "frame_id": 65,
      "sensor_timestamp": 8415403435216,
      "time_usec": 8415403435
    },
    {
      "frame_id": 66,
      "sensor_timestamp": 8415436681798,
      "time_usec": 8415436681
    },
    {
      "frame_id": 67,
      "sensor_timestamp": 8415469928136,
      "time_usec": 8415469928
    },
    {
      "frame_id": 68,
      "sensor_timestamp": 8415503174474,
      "time_usec": 8415503174
    },
    {
      "frame_id": 69,
      "sensor_timestamp": 8415536420812,
      "time_usec": 8415536420
    },
    {
      "frame_id": 70,
      "sensor_timestamp": 8415569667150,
      "time_usec": 8415569667
    },
    {
      "frame_id": 71,
      "sensor_timestamp": 8415602913732,
      "time_usec": 8415602913
    },
    {
      "frame_id": 72,
      "sensor_timestamp": 8415636160069,
      "time_usec": 8415636160
    },
    {
      "frame_id": 73,
      "sensor_timestamp": 8415669406407,
      "time_usec": 8415669406
    },
    {
      "frame_id": 74,
      "sensor_timestamp": 8415702652745,
      "time_usec": 8415702652
    },
    {
      "frame_id": 75,
      "sensor_timestamp": 8415735899327,
      "time_usec": 8415735899
    },
    {
      "frame_id": 76,
      "sensor_timestamp": 8415769145665,
      "time_usec": 8415769145
    },
    {
      "frame_id": 77,
      "sensor_timestamp": 8415802392003,
      "time_usec": 8415802392
    },
    {
      "frame_id": 78,
      "sensor_timestamp": 8415835638341,
      "time_usec": 8415835638
    },
    {
      "frame_id": 79,
      "sensor_timestamp": 8415868884923,
      "time_usec": 8415868884
    },
    {
      "frame_id": 80,
      "sensor_timestamp": 8415902131261,
      "time_usec": 8415902131
    },
    {
      "frame_id": 81,
      "sensor_timestamp": 8415935377599,
      "time_usec": 8415935377
    },
    {
      "frame_id": 82,
      "sensor_timestamp": 8415968623937,
      "time_usec": 8415968623
    },
    {
      "frame_id": 83,
      "sensor_timestamp": 8416001870519,
      "time_usec": 8416001870
    },
    {
      "frame_id": 84,
      "sensor_timestamp": 8416035116857,
      "time_usec": 8416035116
    },
    {
      "frame_id": 85,
      "sensor_timestamp": 8416068363194,
      "time_usec": 8416068363
    },
    {
      "frame_id": 86,
      "sensor_timestamp": 8416101609532,
      "time_usec": 8416101609
    },
    {
      "frame_id": 87,
      "sensor_timestamp": 8416134856114,
      "time_usec": 8416134856
    },
    {
      "frame_id": 88,
      "sensor_timestamp": 8416168102452,
      "time_usec": 8416168102
    },
    {
      "frame_id": 89,
      "sensor_timestamp": 8416201348790,
      "time_usec": 8416201348
    },
    {
      "frame_id": 90,
      "sensor_timestamp": 8416234595128,
      "time_usec": 8416234595
    },
    {
      "frame_id": 91,
      "sensor_timestamp": 8416267841710,
      "time_usec": 8416267841
    },
    {
      "frame_id": 92,
      "sensor_timestamp": 8416301088048,
      "time_usec": 8416301088
    },
    {
      "frame_id": 93,
      "sensor_timestamp": 8416334334386,
      "time_usec": 8416334334
    },
    {
      "frame_id": 94,
      "sensor_timestamp": 8416367580724,
      "time_usec": 8416367580
    },
    {
      "frame_id": 95,
      "sensor_timestamp": 8416400827306,
      "time_usec": 8416400827
    },
    {
      "frame_id": 96,
      "sensor_timestamp": 8416434073644,
      "time_usec": 8416434073
    },
    {
      "frame_id": 97,
      "sensor_timestamp": 8416467319982,
      "time_usec": 8416467319
    },
    {
      "frame_id": 98,
      "sensor_timestamp": 8416500566319,
      "time_usec": 8416500566
    },
    {
      "frame_id": 99,
      "sensor_timestamp": 8416533812902,
      "time_usec": 8416533812
    },
    {
      "frame_id": 100,
      "sensor_timestamp": 8416567059239,
      "time_usec": 8416567059
    },
    {
      "frame_id": 101,
      "sensor_timestamp": 8416600305577,
      "time_usec": 8416600305
    },
    {
      "frame_id": 102,
      "sensor_timestamp": 8416633551915,
      "time_usec": 8416633551
    },
    {
      "frame_id": 103,
      "sensor_timestamp": 8416666798497,
      "time_usec": 8416666798
    },
    {
      "frame_id": 104,
      "sensor_timestamp": 8416700044835,
      "time_usec": 8416700044
    },
    {
      "frame_id": 105,
      "sensor_timestamp": 8416733291173,
      "time_usec": 8416733291
    },
    {
      "frame_id": 106,
      "sensor_timestamp": 8416766537511,
      "time_usec": 8416766537
    },
    {
      "frame_id": 107,
      "sensor_timestamp": 8416799783849,
      "time_usec": 8416799783
    },
    {
      "frame_id": 108,
      "sensor_timestamp": 8416833030431,
      "time_usec": 8416833030
    },
    {
      "frame_id": 109,
      "sensor_timestamp": 8416866276769,
      "time_usec": 8416866276
    },
    {
      "frame_id": 110,
      "sensor_timestamp": 8416899523107,
      "time_usec": 8416899523
    },
    {
      "frame_id": 111,
      "sensor_timestamp": 8416932769444,
      "time_usec": 8416932769
    },
    {
      "frame_id": 112,
      "sensor_timestamp": 8416966016027,
      "time_usec": 8416966016
    },
    {
      "frame_id": 113,
      "sensor_timestamp": 8416999262364,
      "time_usec": 8416999262
    },
    {
      "frame_id": 114,
      "sensor_timestamp": 8417032508702,
      "time_usec": 8417032508
    },
    {
      "frame_id": 115,
      "sensor_timestamp": 8417065755040,
      "time_usec": 8417065755
    },
    {
      "frame_id": 116,
      "sensor_timestamp": 8417099001622,
      "time_usec": 8417099001
    },
    {
      "frame_id": 117,
      "sensor_timestamp": 8417132247960,
      "time_usec": 8417132247
    },
    {
      "frame_id": 118,
      "sensor_timestamp": 8417165494298,
      "time_usec": 8417165494
    },
    {
      "frame_id": 119,
      "sensor_timestamp": 8417198740636,
      "time_usec": 8417198740
    },
    {
      "frame_id": 120,
      "sensor_timestamp": 8417231987218,
      "time_usec": 8417231987
    },
    {
      "frame_id": 121,
      "sensor_timestamp": 8417265233556,
      "time_usec": 8417265233
    },
    {
      "frame_id": 122,
      "sensor_timestamp": 8417298479894,
      "time_usec": 8417298479
    },
    {
      "frame_id": 123,
      "sensor_timestamp": 8417331726232,
      "time_usec": 8417331726
    },
    {
      "frame_id": 124,
      "sensor_timestamp": 8417364972814,
      "time_usec": 8417364972
    },
    {
      "frame_id": 125,
      "sensor_timestamp": 8417398219152,
      "time_usec": 8417398219
    },
    {
      "frame_id": 126,
      "sensor_timestamp": 8417431465489,
      "time_usec": 8417431465
    },
    {
      "frame_id": 127,
      "sensor_timestamp": 8417464711827,
      "time_usec": 8417464711
    },
    {
      "frame_id": 128,
      "sensor_timestamp": 8417497958409,
      "time_usec": 8417497958
    },
    {
      "frame_id": 129,
      "sensor_timestamp": 8417531204747,
      "time_usec": 8417531204
    },
    {
      "frame_id": 130,
      "sensor_timestamp": 8417564451085,
      "time_usec": 8417564451
    },
    {
      "frame_id": 131,
      "sensor_timestamp": 8417597697423,
      "time_usec": 8417597697
    },
    {
      "frame_id": 132,
      "sensor_timestamp": 8417630944005,
      "time_usec": 8417630944
    },
    {
      "frame_id": 133,
      "sensor_timestamp": 8417664190343,
      "time_usec": 8417664190
    },
    {
      "frame_id": 134,
      "sensor_timestamp": 8417697436681,
      "time_usec": 8417697436
    },
    {
      "frame_id": 135,
      "sensor_timestamp": 8417730683019,
      "time_usec": 8417730683
    },
    {
      "frame_id": 136,
      "sensor_timestamp": 8417763929601,
      "time_usec": 8417763929
    },
    {
      "frame_id": 137,
      "sensor_timestamp": 8417797175939,
      "time_usec": 8417797175
    },
    {
      "frame_id": 138,
      "sensor_timestamp": 8417830422277,
      "time_usec": 8417830422
    },
    {
      "frame_id": 139,
      "sensor_timestamp": 8417863668614,
      "time_usec": 8417863668
    },
    {
      "frame_id": 140,
      "sensor_timestamp": 8417896915196,
      "time_usec": 8417896915
    },
    {
      "frame_id": 141,
      "sensor_timestamp": 8417930161534,
      "time_usec": 8417930161
    },
    {
      "frame_id": 142,
      "sensor_timestamp": 8417963407872,
      "time_usec": 8417963407
    },
    {
      "frame_id": 143,
      "sensor_timestamp": 8417996654210,
      "time_usec": 8417996654
    },
    {
      "frame_id": 144,
      "sensor_timestamp": 8418029900548,
      "time_usec": 8418029900
    },
    {
      "frame_id": 145,
      "sensor_timestamp": 8418063147130,
      "time_usec": 8418063147
    },
    {
      "frame_id": 146,
      "sensor_timestamp": 8418096393468,
      "time_usec": 8418096393
    },
    {
      "frame_id": 147,
      "sensor_timestamp": 8418129639806,
      "time_usec": 8418129639
    },
    {
      "frame_id": 148,
      "sensor_timestamp": 8418162886144,
      "time_usec": 8418162886
    },
    {
      "frame_id": 149,
      "sensor_timestamp": 8418196132726,
      "time_usec": 8418196132
    },
    {
      "frame_id": 150,
      "sensor_timestamp": 8418229379064,
      "time_usec": 8418229379
    },
    {
      "frame_id": 151,
      "sensor_timestamp": 8418262625402,
      "time_usec": 8418262625
    },
    {
      "frame_id": 152,
      "sensor_timestamp": 8418295871739,
      "time_usec": 8418295871
    },
    {
      "frame_id": 153,
      "sensor_timestamp": 8418329118321,
      "time_usec": 8418329118
    },
    {
      "frame_id": 154,
      "sensor_timestamp": 8418362364659,
      "time_usec": 8418362364
    },
    {
      "frame_id": 155,
      "sensor_timestamp": 8418395610997,
      "time_usec": 8418395610
    },
    {
      "frame_id": 156,
      "sensor_timestamp": 8418428857335,
      "time_usec": 8418428857
    },
    {
      "frame_id": 157,
      "sensor_timestamp": 8418462103917,
      "time_usec": 8418462103
    },
    {
      "frame_id": 158,
      "sensor_timestamp": 8418495350255,
      "time_usec": 8418495350
    },
    {
      "frame_id": 159,
      "sensor_timestamp": 8418528596593,
      "time_usec": 8418528596
    },
    {
      "frame_id": 160,
      "sensor_timestamp": 8418561842931,
      "time_usec": 8418561842
    },
    {
      "frame_id": 161,
      "sensor_timestamp": 8418595089513,
      "time_usec": 8418595089
    },
    {
      "frame_id": 162,
      "sensor_timestamp": 8418628335851,
      "time_usec": 8418628335
    },
    {
      "frame_id": 163,
      "sensor_timestamp": 8418661582189,
      "time_usec": 8418661582
    },
    {
      "frame_id": 164,
      "sensor_timestamp": 8418694828527,
      "time_usec": 8418694828
    },
    {
      "frame_id": 165,
      "sensor_timestamp": 8418728075109,
      "time_usec": 8418728075
    },
    {
      "frame_id": 166,
      "sensor_timestamp": 8418761321446,
      "time_usec": 8418761321
    },
    {
      "frame_id": 167,
      "sensor_timestamp": 8418794567784,
      "time_usec": 8418794567
    },
    {
      "frame_id": 168,
      "sensor_timestamp": 8418827814122,
      "time_usec": 8418827814
    },
    {
      "frame_id": 169,
      "sensor_timestamp": 8418861060704,
      "time_usec": 8418861060
    },
    {
      "frame_id": 170,
      "sensor_timestamp": 8418894307042,
      "time_usec": 8418894307
    },
    {
      "frame_id": 171,
      "sensor_timestamp": 8418927553380,
      "time_usec": 8418927553
    },
    {
      "frame_id": 172,
      "sensor_timestamp": 8418960799718,
      "time_usec": 8418960799
    },
    {
      "frame_id": 173,
      "sensor_timestamp": 8418994046300,
      "time_usec": 8418994046
    },
    {
      "frame_id": 174,
      "sensor_timestamp": 8419027292638,
      "time_usec": 8419027292
    },
    {
      "frame_id": 175,
      "sensor_timestamp": 8419060538976,
      "time_usec": 8419060538
    },
    {
      "frame_id": 176,
      "sensor_timestamp": 8419093785314,
      "time_usec": 8419093785
    },
    {
      "frame_id": 177,
      "sensor_timestamp": 8419127031896,
      "time_usec": 8419127031
    },
    {
      "frame_id": 178,
      "sensor_timestamp": 8419160278234,
      "time_usec": 8419160278
    },
    {
      "frame_id": 179,
      "sensor_timestamp": 8419193524571,
      "time_usec": 8419193524
    },
    {
      "frame_id": 180,
      "sensor_timestamp": 8419226770909,
      "time_usec": 8419226770
    },
    {
      "frame_id": 181,
      "sensor_timestamp": 8419260017247,
      "time_usec": 8419260017
    },
    {
      "frame_id": 182,
      "sensor_timestamp": 8419293263829,
      "time_usec": 8419293263
    },
    {
      "frame_id": 183,
      "sensor_timestamp": 8419326510167,
      "time_usec": 8419326510
    },
    {
      "frame_id": 184,
      "sensor_timestamp": 8419359756505,
      "time_usec": 8419359756
    },
    {
      "frame_id": 185,
      "sensor_timestamp": 8419393002843,
      "time_usec": 8419393002
    },
    {
      "frame_id": 186,
      "sensor_timestamp": 8419426249425,
      "time_usec": 8419426249
    },
    {
      "frame_id": 187,
      "sensor_timestamp": 8419459495763,
      "time_usec": 8419459495
    },
    {
      "frame_id": 188,
      "sensor_timestamp": 8419492742101,
      "time_usec": 8419492742
    },
    {
      "frame_id": 189,
      "sensor_timestamp": 8419525988439,
      "time_usec": 8419525988
    },
    {
      "frame_id": 190,
      "sensor_timestamp": 8419559235021,
      "time_usec": 8419559235
    },
    {
      "frame_id": 191,
      "sensor_timestamp": 8419592481359,
      "time_usec": 8419592481
    },
    {
      "frame_id": 192,
      "sensor_timestamp": 8419625727696,
      "time_usec": 8419625727
    },
    {
      "frame_id": 193,
      "sensor_timestamp": 8419658974034,
      "time_usec": 8419658974
    },
    {
      "frame_id": 194,
      "sensor_timestamp": 8419692220616,
      "time_usec": 8419692220
    },
    {
      "frame_id": 195,
      "sensor_timestamp": 8419725466954,
      "time_usec": 8419725466
    },
    {
      "frame_id": 196,
      "sensor_timestamp": 8419758713292,
      "time_usec": 8419758713
    },
    {
      "frame_id": 197,
      "sensor_timestamp": 8419791959630,
      "time_usec": 8419791959
    },
    {
      "frame_id": 198,
      "sensor_timestamp": 8419825206212,
      "time_usec": 8419825206
    },
    {
      "frame_id": 199,
      "sensor_timestamp": 8419858452550,
      "time_usec": 8419858452
    },
    {
      "frame_id": 200,
      "sensor_timestamp": 8419891698888,
      "time_usec": 8419891698
    },
    {
      "frame_id": 201,
      "sensor_timestamp": 8419924945226,
      "time_usec": 8419924945
    },
    {
      "frame_id": 202,
      "sensor_timestamp": 8419958191808,
      "time_usec": 8419958191
    },
    {
      "frame_id": 203,
      "sensor_timestamp": 8419991438146,
      "time_usec": 8419991438
    },
    {
      "frame_id": 204,
      "sensor_timestamp": 8420024684484,
      "time_usec": 8420024684
    },
    {
      "frame_id": 205,
      "sensor_timestamp": 8420057930821,
      "time_usec": 8420057930
    },
    {
      "frame_id": 206,
      "sensor_timestamp": 8420091177403,
      "time_usec": 8420091177
    },
    {
      "frame_id": 207,
      "sensor_timestamp": 8420124423741,
      "time_usec": 8420124423
    },
    {
      "frame_id": 208,
      "sensor_timestamp": 8420157670079,
      "time_usec": 8420157670
    },
    {
      "frame_id": 209,
      "sensor_timestamp": 8420190916417,
      "time_usec": 8420190916
    },
    {
      "frame_id": 210,
      "sensor_timestamp": 8420224162999,
      "time_usec": 8420224162
    },
    {
      "frame_id": 211,
      "sensor_timestamp": 8420257409337,
      "time_usec": 8420257409
    },
    {
      "frame_id": 212,
      "sensor_timestamp": 8420290655675,
      "time_usec": 8420290655
    },
    {
      "frame_id": 213,
      "sensor_timestamp": 8420323902013,
      "time_usec": 8420323902
    },
    {
      "frame_id": 214,
      "sensor_timestamp": 8420357148351,
      "time_usec": 8420357148
    },
    {
      "frame_id": 215,
      "sensor_timestamp": 8420390394933,
      "time_usec": 8420390394
    },
    {
      "frame_id": 216,
      "sensor_timestamp": 8420423641271,
      "time_usec": 8420423641
    },
    {
      "frame_id": 217,
      "sensor_timestamp": 8420456887609,
      "time_usec": 8420456887
    },
    {
      "frame_id": 218,
      "sensor_timestamp": 8420490133946,
      "time_usec": 8420490133
    },
    {
      "frame_id": 219,
      "sensor_timestamp": 8420523380528,
      "time_usec": 8420523380
    },
    {
      "frame_id": 220,
      "sensor_timestamp": 8420556626866,
      "time_usec": 8420556626
    },
    {
      "frame_id": 221,
      "sensor_timestamp": 8420589873204,
      "time_usec": 8420589873
    },
    {
      "frame_id": 222,
      "sensor_timestamp": 8420623119542,
      "time_usec": 8420623119
    },
    {
      "frame_id": 223,
      "sensor_timestamp": 8420656366124,
      "time_usec": 8420656366
    },
    {
      "frame_id": 224,
      "sensor_timestamp": 8420689612462,
      "time_usec": 8420689612
    },
    {
      "frame_id": 225,
      "sensor_timestamp": 8420722858800,
      "time_usec": 8420722858
    },
    {
      "frame_id": 226,
      "sensor_timestamp": 8420756105138,
      "time_usec": 8420756105
    },
    {
      "frame_id": 227,
      "sensor_timestamp": 8420789351720,
      "time_usec": 8420789351
    },
    {
      "frame_id": 228,
      "sensor_timestamp": 8420822598058,
      "time_usec": 8420822598
    },
    {
      "frame_id": 229,
      "sensor_timestamp": 8420855785753,
      "time_usec": 8420855785
    },
    {
      "frame_id": 230,
      "sensor_timestamp": 8420889090734,
      "time_usec": 8420889090
    },
    {
      "frame_id": 231,
      "sensor_timestamp": 8420922337316,
      "time_usec": 8420922337
    },
    {
      "frame_id": 232,
      "sensor_timestamp": 8420955583653,
      "time_usec": 8420955583
    },
    {
      "frame_id": 233,
      "sensor_timestamp": 8420988829991,
      "time_usec": 8420988829
    },
    {
      "frame_id": 234,
      "sensor_timestamp": 8421022076329,
      "time_usec": 8421022076
    },
    {
      "frame_id": 235,
      "sensor_timestamp": 8421055322911,
      "time_usec": 8421055322
    },
    {
      "frame_id": 236,
      "sensor_timestamp": 8421088569249,
      "time_usec": 8421088569
    },
    {
      "frame_id": 237,
      "sensor_timestamp": 8421121815587,
      "time_usec": 8421121815
    },
    {
      "frame_id": 238,
      "sensor_timestamp": 8421155061925,
      "time_usec": 8421155061
    },
    {
      "frame_id": 239,
      "sensor_timestamp": 8421188308507,
      "time_usec": 8421188308
    },
    {
      "frame_id": 240,
      "sensor_timestamp": 8421221554845,
      "time_usec": 8421221554
    },
    {
      "frame_id": 241,
      "sensor_timestamp": 8421254801183,
      "time_usec": 8421254801
    },
    {
      "frame_id": 242,
      "sensor_timestamp": 8421288047521,
      "time_usec": 8421288047
    },
    {
      "frame_id": 243,
      "sensor_timestamp": 8421321294103,
      "time_usec": 8421321294
    },
    {
      "frame_id": 244,
      "sensor_timestamp": 8421354540441,
      "time_usec": 8421354540
    },
    {
      "frame_id": 245,
      "sensor_timestamp": 8421387786778,
      "time_usec": 8421387786
    },
    {
      "frame_id": 246,
      "sensor_timestamp": 8421421033116,
      "time_usec": 8421421033
    },
    {
      "frame_id": 247,
      "sensor_timestamp": 8421454279698,
      "time_usec": 8421454279
    },
    {
      "frame_id": 248,
      "sensor_timestamp": 8421487526036,
      "time_usec": 8421487526
    },
    {
      "frame_id": 249,
      "sensor_timestamp": 8421520772374,
      "time_usec": 8421520772
    },
    {
      "frame_id": 250,
      "sensor_timestamp": 8421554018712,
      "time_usec": 8421554018
    },
    {
      "frame_id": 251,
      "sensor_timestamp": 8421587265050,
      "time_usec": 8421587265
    },
    {
      "frame_id": 252,
      "sensor_timestamp": 8421620511632,
      "time_usec": 8421620511
    },
    {
      "frame_id": 253,
      "sensor_timestamp": 8421653757970,
      "time_usec": 8421653757
    },
    {
      "frame_id": 254,
      "sensor_timestamp": 8421687004308,
      "time_usec": 8421687004
    },
    {
      "frame_id": 255,
      "sensor_timestamp": 8421720250646,
      "time_usec": 8421720250
    },
    {
      "frame_id": 256,
      "sensor_timestamp": 8421753497228,
      "time_usec": 8421753497
    },
    {
      "frame_id": 257,
      "sensor_timestamp": 8421786743566,
      "time_usec": 8421786743
    },
    {
      "frame_id": 258,
      "sensor_timestamp": 8421819989903,
      "time_usec": 8421819989
    },
    {
      "frame_id": 259,
      "sensor_timestamp": 8421853236241,
      "time_usec": 8421853236
    },
    {
      "frame_id": 260,
      "sensor_timestamp": 8421886482823,
      "time_usec": 8421886482
    },
    {
      "frame_id": 261,
      "sensor_timestamp": 8421919729161,
      "time_usec": 8421919729
    },
    {
      "frame_id": 262,
      "sensor_timestamp": 8421952975499,
      "time_usec": 8421952975
    },
    {
      "frame_id": 263,
      "sensor_timestamp": 8421986221837,
      "time_usec": 8421986221
    },
    {
      "frame_id": 264,
      "sensor_timestamp": 8422019468419,
      "time_usec": 8422019468
    },
    {
      "frame_id": 265,
      "sensor_timestamp": 8422052714757,
      "time_usec": 8422052714
    },
    {
      "frame_id": 266,
      "sensor_timestamp": 8422085961095,
      "time_usec": 8422085961
    },
    {
      "frame_id": 267,
      "sensor_timestamp": 8422119207433,
      "time_usec": 8422119207
    },
    {
      "frame_id": 268,
      "sensor_timestamp": 8422152454015,
      "time_usec": 8422152454
    },
    {
      "frame_id": 269,
      "sensor_timestamp": 8422185700353,
      "time_usec": 8422185700
    },
    {
      "frame_id": 270,
      "sensor_timestamp": 8422218946691,
      "time_usec": 8422218946
    },
    {
      "frame_id": 271,
      "sensor_timestamp": 8422252193028,
      "time_usec": 8422252193
    },
    {
      "frame_id": 272,
      "sensor_timestamp": 8422285439611,
      "time_usec": 8422285439
    },
    {
      "frame_id": 273,
      "sensor_timestamp": 8422318685948,
      "time_usec": 8422318685
    },
    {
      "frame_id": 274,
      "sensor_timestamp": 8422351932286,
      "time_usec": 8422351932
    },
    {
      "frame_id": 275,
      "sensor_timestamp": 8422385178624,
      "time_usec": 8422385178
    },
    {
      "frame_id": 276,
      "sensor_timestamp": 8422418425206,
      "time_usec": 8422418425
    },
    {
      "frame_id": 277,
      "sensor_timestamp": 8422451671544,
      "time_usec": 8422451671
    },
    {
      "frame_id": 278,
      "sensor_timestamp": 8422484917882,
      "time_usec": 8422484917
    },
    {
      "frame_id": 279,
      "sensor_timestamp": 8422518164220,
      "time_usec": 8422518164
    },
    {
      "frame_id": 280,
      "sensor_timestamp": 8422551410802,
      "time_usec": 8422551410
    },
    {
      "frame_id": 281,
      "sensor_timestamp": 8422584657140,
      "time_usec": 8422584657
    },
    {
      "frame_id": 282,
      "sensor_timestamp": 8422617903478,
      "time_usec": 8422617903
    },
    {
      "frame_id": 283,
      "sensor_timestamp": 8422651149816,
      "time_usec": 8422651149
    },
    {
      "frame_id": 284,
      "sensor_timestamp": 8422684396398,
      "time_usec": 8422684396
    },
    {
      "frame_id": 285,
      "sensor_timestamp": 8422717642736,
      "time_usec": 8422717642
    },
    {
      "frame_id": 286,
      "sensor_timestamp": 8422750889073,
      "time_usec": 8422750889
    },
    {
      "frame_id": 287,
      "sensor_timestamp": 8422784135411,
      "time_usec": 8422784135
    },
    {
      "frame_id": 288,
      "sensor_timestamp": 8422817381749,
      "time_usec": 8422817381
    },
    {
      "frame_id": 289,
      "sensor_timestamp": 8422850628331,
      "time_usec": 8422850628
    },
    {
      "frame_id": 290,
      "sensor_timestamp": 8422883874669,
      "time_usec": 8422883874
    },
    {
      "frame_id": 291,
      "sensor_timestamp": 8422917121007,
      "time_usec": 8422917121
    },
    {
      "frame_id": 292,
      "sensor_timestamp": 8422950367345,
      "time_usec": 8422950367
    },
    {
      "frame_id": 293,
      "sensor_timestamp": 8422983613927,
      "time_usec": 8422983613
    },
    {
      "frame_id": 294,
      "sensor_timestamp": 8423016860265,
      "time_usec": 8423016860
    },
    {
      "frame_id": 295,
      "sensor_timestamp": 8423052887234,
      "time_usec": 8423052887
    },
    {
      "frame_id": 296,
      "sensor_timestamp": 8423086133572,
      "time_usec": 8423086133
    },
    {
      "frame_id": 297,
      "sensor_timestamp": 8423119380154,
      "time_usec": 8423119380
    },
    {
      "frame_id": 298,
      "sensor_timestamp": 8423152626492,
      "time_usec": 8423152626
    },
    {
      "frame_id": 299,
      "sensor_timestamp": 8423185872829,
      "time_usec": 8423185872
    },
    {
      "frame_id": 300,
      "sensor_timestamp": 8423219119167,
      "time_usec": 8423219119
    },
    {
      "frame_id": 301,
      "sensor_timestamp": 8423252365749,
      "time_usec": 8423252365
    },
    {
      "frame_id": 302,
      "sensor_timestamp": 8423285612087,
      "time_usec": 8423285612
    },
    {
      "frame_id": 303,
      "sensor_timestamp": 8423318858425,
      "time_usec": 8423318858
    },
    {
      "frame_id": 304,
      "sensor_timestamp": 8423352104763,
      "time_usec": 8423352104
    },
    {
      "frame_id": 305,
      "sensor_timestamp": 8423385351345,
      "time_usec": 8423385351
    },
    {
      "frame_id": 306,
      "sensor_timestamp": 8423418597683,
      "time_usec": 8423418597
    },
    {
      "frame_id": 307,
      "sensor_timestamp": 8423451844021,
      "time_usec": 8423451844
    },
    {
      "frame_id": 308,
      "sensor_timestamp": 8423485090359,
      "time_usec": 8423485090
    },
    {
      "frame_id": 309,
      "sensor_timestamp": 8423518336941,
      "time_usec": 8423518336
    },
    {
      "frame_id": 310,
      "sensor_timestamp": 8423551583279,
      "time_usec": 8423551583
    },
    {
      "frame_id": 311,
      "sensor_timestamp": 8423584829617,
      "time_usec": 8423584829
    },
    {
      "frame_id": 312,
      "sensor_timestamp": 8423618075954,
      "time_usec": 8423618075
    },
    {
      "frame_id": 313,
      "sensor_timestamp": 8423651322536,
      "time_usec": 8423651322
    },
    {
      "frame_id": 314,
      "sensor_timestamp": 8423684568874,
      "time_usec": 8423684568
    },
    {
      "frame_id": 315,
      "sensor_timestamp": 8423717815212,
      "time_usec": 8423717815
    },
    {
      "frame_id": 316,
      "sensor_timestamp": 8423751061550,
      "time_usec": 8423751061
    },
    {
      "frame_id": 317,
      "sensor_timestamp": 8423784308132,
      "time_usec": 8423784308
    },
    {
      "frame_id": 318,
      "sensor_timestamp": 8423817554470,
      "time_usec": 8423817554
    },
    {
      "frame_id": 319,
      "sensor_timestamp": 8423850800808,
      "time_usec": 8423850800
    },
    {
      "frame_id": 320,
      "sensor_timestamp": 8423884047146,
      "time_usec": 8423884047
    },
    {
      "frame_id": 321,
      "sensor_timestamp": 8423917293728,
      "time_usec": 8423917293
    },
    {
      "frame_id": 322,
      "sensor_timestamp": 8423950540066,
      "time_usec": 8423950540
    },
    {
      "frame_id": 323,
      "sensor_timestamp": 8423983786404,
      "time_usec": 8423983786
    },
    {
      "frame_id": 324,
      "sensor_timestamp": 8424017032742,
      "time_usec": 8424017032
    },
    {
      "frame_id": 325,
      "sensor_timestamp": 8424050279079,
      "time_usec": 8424050279
    },
    {
      "frame_id": 326,
      "sensor_timestamp": 8424083525661,
      "time_usec": 8424083525
    },
    {
      "frame_id": 327,
      "sensor_timestamp": 8424116771999,
      "time_usec": 8424116771
    },
    {
      "frame_id": 328,
      "sensor_timestamp": 8424150018337,
      "time_usec": 8424150018
    },
    {
      "frame_id": 329,
      "sensor_timestamp": 8424183264675,
      "time_usec": 8424183264
    },
    {
      "frame_id": 330,
      "sensor_timestamp": 8424216511257,
      "time_usec": 8424216511
    },
    {
      "frame_id": 331,
      "sensor_timestamp": 8424249757595,
      "time_usec": 8424249757
    },
    {
      "frame_id": 332,
      "sensor_timestamp": 8424283003933,
      "time_usec": 8424283003
    },
    {
      "frame_id": 333,
      "sensor_timestamp": 8424316250271,
      "time_usec": 8424316250
    },
    {
      "frame_id": 334,
      "sensor_timestamp": 8424349496853,
      "time_usec": 8424349496
    },
    {
      "frame_id": 335,
      "sensor_timestamp": 8424382743191,
      "time_usec": 8424382743
    },
    {
      "frame_id": 336,
      "sensor_timestamp": 8424415989529,
      "time_usec": 8424415989
    },
    {
      "frame_id": 337,
      "sensor_timestamp": 8424449235867,
      "time_usec": 8424449235
    },
    {
      "frame_id": 338,
      "sensor_timestamp": 8424482482449,
      "time_usec": 8424482482
    },
    {
      "frame_id": 339,
      "sensor_timestamp": 8424515728786,
      "time_usec": 8424515728
    },
    {
      "frame_id": 340,
      "sensor_timestamp": 8424548975124,
      "time_usec": 8424548975
    },
    {
      "frame_id": 341,
      "sensor_timestamp": 8424582221462,
      "time_usec": 8424582221
    },
    {
      "frame_id": 342,
      "sensor_timestamp": 8424615468044,
      "time_usec": 8424615468
    },
    {
      "frame_id": 343,
      "sensor_timestamp": 8424648714382,
      "time_usec": 8424648714
    },
    {
      "frame_id": 344,
      "sensor_timestamp": 8424681960720,
      "time_usec": 8424681960
    },
    {
      "frame_id": 345,
      "sensor_timestamp": 8424715207058,
      "time_usec": 8424715207
    },
    {
      "frame_id": 346,
      "sensor_timestamp": 8424748453640,
      "time_usec": 8424748453
    },
    {
      "frame_id": 347,
      "sensor_timestamp": 8424781699978,
      "time_usec": 8424781699
    },
    {
      "frame_id": 348,
      "sensor_timestamp": 8424814946316,
      "time_usec": 8424814946
    },
    {
      "frame_id": 349,
      "sensor_timestamp": 8424848192654,
      "time_usec": 8424848192
    },
    {
      "frame_id": 350,
      "sensor_timestamp": 8424881439236,
      "time_usec": 8424881439
    },
    {
      "frame_id": 351,
      "sensor_timestamp": 8424914685574,
      "time_usec": 8424914685
    },
    {
      "frame_id": 352,
      "sensor_timestamp": 8424947931911,
      "time_usec": 8424947931
    },
    {
      "frame_id": 353,
      "sensor_timestamp": 8424981178249,
      "time_usec": 8424981178
    },
    {
      "frame_id": 354,
      "sensor_timestamp": 8425014424831,
      "time_usec": 8425014424
    },
    {
      "frame_id": 355,
      "sensor_timestamp": 8425047671169,
      "time_usec": 8425047671
    },
    {
      "frame_id": 356,
      "sensor_timestamp": 8425080917507,
      "time_usec": 8425080917
    },
    {
      "frame_id": 357,
      "sensor_timestamp": 8425114163845,
      "time_usec": 8425114163
    },
    {
      "frame_id": 358,
      "sensor_timestamp": 8425147410427,
      "time_usec": 8425147410
    },
    {
      "frame_id": 359,
      "sensor_timestamp": 8425180656765,
      "time_usec": 8425180656
    },
    {
      "frame_id": 360,
      "sensor_timestamp": 8425213903103,
      "time_usec": 8425213903
    },
    {
      "frame_id": 361,
      "sensor_timestamp": 8425247149441,
      "time_usec": 8425247149
    },
    {
      "frame_id": 362,
      "sensor_timestamp": 8425280395779,
      "time_usec": 8425280395
    },
    {
      "frame_id": 363,
      "sensor_timestamp": 8425313642361,
      "time_usec": 8425313642
    },
    {
      "frame_id": 364,
      "sensor_timestamp": 8425346888699,
      "time_usec": 8425346888
    },
    {
      "frame_id": 365,
      "sensor_timestamp": 8425380135036,
      "time_usec": 8425380135
    },
    {
      "frame_id": 366,
      "sensor_timestamp": 8425413381374,
      "time_usec": 8425413381
    },
    {
      "frame_id": 367,
      "sensor_timestamp": 8425446627956,
      "time_usec": 8425446627
    },
    {
      "frame_id": 368,
      "sensor_timestamp": 8425479874294,
      "time_usec": 8425479874
    },
    {
      "frame_id": 369,
      "sensor_timestamp": 8425513120632,
      "time_usec": 8425513120
    },
    {
      "frame_id": 370,
      "sensor_timestamp": 8425546366970,
      "time_usec": 8425546366
    },
    {
      "frame_id": 371,
      "sensor_timestamp": 8425579613552,
      "time_usec": 8425579613
    },
    {
      "frame_id": 372,
      "sensor_timestamp": 8425612859890,
      "time_usec": 8425612859
    },
    {
      "frame_id": 373,
      "sensor_timestamp": 8425646106228,
      "time_usec": 8425646106
    },
    {
      "frame_id": 374,
      "sensor_timestamp": 8425679352566,
      "time_usec": 8425679352
    },
    {
      "frame_id": 375,
      "sensor_timestamp": 8425712599148,
      "time_usec": 8425712599
    },
    {
      "frame_id": 376,
      "sensor_timestamp": 8425745845486,
      "time_usec": 8425745845
    },
    {
      "frame_id": 377,
      "sensor_timestamp": 8425779091824,
      "time_usec": 8425779091
    },
    {
      "frame_id": 378,
      "sensor_timestamp": 8425812338161,
      "time_usec": 8425812338
    },
    {
      "frame_id": 379,
      "sensor_timestamp": 8425845584743,
      "time_usec": 8425845584
    },
    {
      "frame_id": 380,
      "sensor_timestamp": 8425878831081,
      "time_usec": 8425878831
    },
    {
      "frame_id": 381,
      "sensor_timestamp": 8425912077419,
      "time_usec": 8425912077
    },
    {
      "frame_id": 382,
      "sensor_timestamp": 8425945323757,
      "time_usec": 8425945323
    },
    {
      "frame_id": 383,
      "sensor_timestamp": 8425978570339,
      "time_usec": 8425978570
    },
    {
      "frame_id": 384,
      "sensor_timestamp": 8426011816677,
      "time_usec": 8426011816
    },
    {
      "frame_id": 385,
      "sensor_timestamp": 8426045063015,
      "time_usec": 8426045063
    },
    {
      "frame_id": 386,
      "sensor_timestamp": 8426078309353,
      "time_usec": 8426078309
    },
    {
      "frame_id": 387,
      "sensor_timestamp": 8426111555935,
      "time_usec": 8426111555
    },
    {
      "frame_id": 388,
      "sensor_timestamp": 8426144802273,
      "time_usec": 8426144802
    },
    {
      "frame_id": 389,
      "sensor_timestamp": 8426178048611,
      "time_usec": 8426178048
    },
    {
      "frame_id": 390,
      "sensor_timestamp": 8426211294949,
      "time_usec": 8426211294
    },
    {
      "frame_id": 391,
      "sensor_timestamp": 8426244541531,
      "time_usec": 8426244541
    },
    {
      "frame_id": 392,
      "sensor_timestamp": 8426277787868,
      "time_usec": 8426277787
    },
    {
      "frame_id": 393,
      "sensor_timestamp": 8426311034206,
      "time_usec": 8426311034
    },
    {
      "frame_id": 394,
      "sensor_timestamp": 8426344280544,
      "time_usec": 8426344280
    },
    {
      "frame_id": 395,
      "sensor_timestamp": 8426377526882,
      "time_usec": 8426377526
    },
    {
      "frame_id": 396,
      "sensor_timestamp": 8426410773464,
      "time_usec": 8426410773
    },
    {
      "frame_id": 397,
      "sensor_timestamp": 8426444019802,
      "time_usec": 8426444019
    },
    {
      "frame_id": 398,
      "sensor_timestamp": 8426477266140,
      "time_usec": 8426477266
    },
    {
      "frame_id": 399,
      "sensor_timestamp": 8426510512478,
      "time_usec": 8426510512
    },
    {
      "frame_id": 400,
      "sensor_timestamp": 8426543759060,
      "time_usec": 8426543759
    },
    {
      "frame_id": 401,
      "sensor_timestamp": 8426577005398,
      "time_usec": 8426577005
    },
    {
      "frame_id": 402,
      "sensor_timestamp": 8426610251736,
      "time_usec": 8426610251
    },
    {
      "frame_id": 403,
      "sensor_timestamp": 8426643498074,
      "time_usec": 8426643498
    },
    {
      "frame_id": 404,
      "sensor_timestamp": 8426676744656,
      "time_usec": 8426676744
    },
    {
      "frame_id": 405,
      "sensor_timestamp": 8426709990993,
      "time_usec": 8426709990
    },
    {
      "frame_id": 406,
      "sensor_timestamp": 8426743237331,
      "time_usec": 8426743237
    },
    {
      "frame_id": 407,
      "sensor_timestamp": 8426776483669,
      "time_usec": 8426776483
    },
    {
      "frame_id": 408,
      "sensor_timestamp": 8426809730251,
      "time_usec": 8426809730
    },
    {
      "frame_id": 409,
      "sensor_timestamp": 8426842976589,
      "time_usec": 8426842976
    },
    {
      "frame_id": 410,
      "sensor_timestamp": 8426876222927,
      "time_usec": 8426876222
    },
    {
      "frame_id": 411,
      "sensor_timestamp": 8426909469265,
      "time_usec": 8426909469
    },
    {
      "frame_id": 412,
      "sensor_timestamp": 8426942715847,
      "time_usec": 8426942715
    },
    {
      "frame_id": 413,
      "sensor_timestamp": 8426975962185,
      "time_usec": 8426975962
    },
    {
      "frame_id": 414,
      "sensor_timestamp": 8427009208523,
      "time_usec": 8427009208
    },
    {
      "frame_id": 415,
      "sensor_timestamp": 8427042454861,
      "time_usec": 8427042454
    },
    {
      "frame_id": 416,
      "sensor_timestamp": 8427075701443,
      "time_usec": 8427075701
    },
    {
      "frame_id": 417,
      "sensor_timestamp": 8427108947781,
      "time_usec": 8427108947
    },
    {
      "frame_id": 418,
      "sensor_timestamp": 8427142194118,
      "time_usec": 8427142194
    },
    {
      "frame_id": 419,
      "sensor_timestamp": 8427175440456,
      "time_usec": 8427175440
    },
    {
      "frame_id": 420,
      "sensor_timestamp": 8427208687038,
      "time_usec": 8427208687
    },
    {
      "frame_id": 421,
      "sensor_timestamp": 8427241933376,
      "time_usec": 8427241933
    },
    {
      "frame_id": 422,
      "sensor_timestamp": 8427275179714,
      "time_usec": 8427275179
    },
    {
      "frame_id": 423,
      "sensor_timestamp": 8427308426052,
      "time_usec": 8427308426
    },
    {
      "frame_id": 424,
      "sensor_timestamp": 8427341672634,
      "time_usec": 8427341672
    },
    {
      "frame_id": 425,
      "sensor_timestamp": 8427374918972,
      "time_usec": 8427374918
    },
    {
      "frame_id": 426,
      "sensor_timestamp": 8427408165310,
      "time_usec": 8427408165
    },
    {
      "frame_id": 427,
      "sensor_timestamp": 8427441411648,
      "time_usec": 8427441411
    },
    {
      "frame_id": 428,
      "sensor_timestamp": 8427474658230,
      "time_usec": 8427474658
    },
    {
      "frame_id": 429,
      "sensor_timestamp": 8427507904568,
      "time_usec": 8427507904
    },
    {
      "frame_id": 430,
      "sensor_timestamp": 8427541150906,
      "time_usec": 8427541150
    },
    {
      "frame_id": 431,
      "sensor_timestamp": 8427574397243,
      "time_usec": 8427574397
    },
    {
      "frame_id": 432,
      "sensor_timestamp": 8427607643581,
      "time_usec": 8427607643
    },
    {
      "frame_id": 433,
      "sensor_timestamp": 8427640890163,
      "time_usec": 8427640890
    },
    {
      "frame_id": 434,
      "sensor_timestamp": 8427674136501,
      "time_usec": 8427674136
    },
    {
      "frame_id": 435,
      "sensor_timestamp": 8427707382839,
      "time_usec": 8427707382
    },
    {
      "frame_id": 436,
      "sensor_timestamp": 8427740629177,
      "time_usec": 8427740629
    },
    {
      "frame_id": 437,
      "sensor_timestamp": 8427773875759,
      "time_usec": 8427773875
    },
    {
      "frame_id": 438,
      "sensor_timestamp": 8427807122097,
      "time_usec": 8427807122
    },
    {
      "frame_id": 439,
      "sensor_timestamp": 8427840368435,
      "time_usec": 8427840368
    },
    {
      "frame_id": 440,
      "sensor_timestamp": 8427873614773,
      "time_usec": 8427873614
    },
    {
      "frame_id": 441,
      "sensor_timestamp": 8427906861355,
      "time_usec": 8427906861
    },
    {
      "frame_id": 442,
      "sensor_timestamp": 8427940107693,
      "time_usec": 8427940107
    },
    {
      "frame_id": 443,
      "sensor_timestamp": 8427970573400,
      "time_usec": 8427970573
    },
    {
      "frame_id": 444,
      "sensor_timestamp": 8428003819737,
      "time_usec": 8428003819
    },
    {
      "frame_id": 445,
      "sensor_timestamp": 8428037066319,
      "time_usec": 8428037066
    },
    {
      "frame_id": 446,
      "sensor_timestamp": 8428070312657,
      "time_usec": 8428070312
    },
    {
      "frame_id": 447,
      "sensor_timestamp": 8428103558995,
      "time_usec": 8428103558
    },
    {
      "frame_id": 448,
      "sensor_timestamp": 8428136805333,
      "time_usec": 8428136805
    },
    {
      "frame_id": 449,
      "sensor_timestamp": 8428170051915,
      "time_usec": 8428170051
    },
    {
      "frame_id": 450,
      "sensor_timestamp": 8428203298253,
      "time_usec": 8428203298
    },
    {
      "frame_id": 451,
      "sensor_timestamp": 8428236544591,
      "time_usec": 8428236544
    },
    {
      "frame_id": 452,
      "sensor_timestamp": 8428269790929,
      "time_usec": 8428269790
    },
    {
      "frame_id": 453,
      "sensor_timestamp": 8428303037511,
      "time_usec": 8428303037
    },
    {
      "frame_id": 454,
      "sensor_timestamp": 8428336283849,
      "time_usec": 8428336283
    },
    {
      "frame_id": 455,
      "sensor_timestamp": 8428369530187,
      "time_usec": 8428369530
    },
    {
      "frame_id": 456,
      "sensor_timestamp": 8428402776525,
      "time_usec": 8428402776
    },
    {
      "frame_id": 457,
      "sensor_timestamp": 8428436023107,
      "time_usec": 8428436023
    },
    {
      "frame_id": 458,
      "sensor_timestamp": 8428469269444,
      "time_usec": 8428469269
    },
    {
      "frame_id": 459,
      "sensor_timestamp": 8428502515782,
      "time_usec": 8428502515
    },
    {
      "frame_id": 460,
      "sensor_timestamp": 8428535762120,
      "time_usec": 8428535762
    },
    {
      "frame_id": 461,
      "sensor_timestamp": 8428569008702,
      "time_usec": 8428569008
    },
    {
      "frame_id": 462,
      "sensor_timestamp": 8428602255040,
      "time_usec": 8428602255
    },
    {
      "frame_id": 463,
      "sensor_timestamp": 8428635501378,
      "time_usec": 8428635501
    },
    {
      "frame_id": 464,
      "sensor_timestamp": 8428668747716,
      "time_usec": 8428668747
    },
    {
      "frame_id": 465,
      "sensor_timestamp": 8428701994298,
      "time_usec": 8428701994
    },
    {
      "frame_id": 466,
      "sensor_timestamp": 8428735240636,
      "time_usec": 8428735240
    },
    {
      "frame_id": 467,
      "sensor_timestamp": 8428768486974,
      "time_usec": 8428768486
    },
    {
      "frame_id": 468,
      "sensor_timestamp": 8428801733312,
      "time_usec": 8428801733
    },
    {
      "frame_id": 469,
      "sensor_timestamp": 8428834979650,
      "time_usec": 8428834979
    },
    {
      "frame_id": 470,
      "sensor_timestamp": 8428868226232,
      "time_usec": 8428868226
    },
    {
      "frame_id": 471,
      "sensor_timestamp": 8428901472569,
      "time_usec": 8428901472
    },
    {
      "frame_id": 472,
      "sensor_timestamp": 8428934718907,
      "time_usec": 8428934718
    },
    {
      "frame_id": 473,
      "sensor_timestamp": 8428967965245,
      "time_usec": 8428967965
    },
    {
      "frame_id": 474,
      "sensor_timestamp": 8429001211827,
      "time_usec": 8429001211
    },
    {
      "frame_id": 475,
      "sensor_timestamp": 8429034458165,
      "time_usec": 8429034458
    },
    {
      "frame_id": 476,
      "sensor_timestamp": 8429067704503,
      "time_usec": 8429067704
    },
    {
      "frame_id": 477,
      "sensor_timestamp": 8429100950841,
      "time_usec": 8429100950
    },
    {
      "frame_id": 478,
      "sensor_timestamp": 8429134197423,
      "time_usec": 8429134197
    },
    {
      "frame_id": 479,
      "sensor_timestamp": 8429167443761,
      "time_usec": 8429167443
    },
    {
      "frame_id": 480,
      "sensor_timestamp": 8429200690099,
      "time_usec": 8429200690
    },
    {
      "frame_id": 481,
      "sensor_timestamp": 8429233936437,
      "time_usec": 8429233936
    },
    {
      "frame_id": 482,
      "sensor_timestamp": 8429267183019,
      "time_usec": 8429267183
    },
    {
      "frame_id": 483,
      "sensor_timestamp": 8429300429357,
      "time_usec": 8429300429
    },
    {
      "frame_id": 484,
      "sensor_timestamp": 8429333675694,
      "time_usec": 8429333675
    },
    {
      "frame_id": 485,
      "sensor_timestamp": 8429366922032,
      "time_usec": 8429366922
    },
    {
      "frame_id": 486,
      "sensor_timestamp": 8429400168614,
      "time_usec": 8429400168
    },
    {
      "frame_id": 487,
      "sensor_timestamp": 8429433414952,
      "time_usec": 8429433414
    },
    {
      "frame_id": 488,
      "sensor_timestamp": 8429466661290,
      "time_usec": 8429466661
    },
    {
      "frame_id": 489,
      "sensor_timestamp": 8429499907628,
      "time_usec": 8429499907
    },
    {
      "frame_id": 490,
      "sensor_timestamp": 8429533154210,
      "time_usec": 8429533154
    },
    {
      "frame_id": 491,
      "sensor_timestamp": 8429566400548,
      "time_usec": 8429566400
    },
    {
      "frame_id": 492,
      "sensor_timestamp": 8429599646886,
      "time_usec": 8429599646
    },
    {
      "frame_id": 493,
      "sensor_timestamp": 8429632893224,
      "time_usec": 8429632893
    },
    {
      "frame_id": 494,
      "sensor_timestamp": 8429666139806,
      "time_usec": 8429666139
    },
    {
      "frame_id": 495,
      "sensor_timestamp": 8429699386144,
      "time_usec": 8429699386
    },
    {
      "frame_id": 496,
      "sensor_timestamp": 8429732632482,
      "time_usec": 8429732632
    },
    {
      "frame_id": 497,
      "sensor_timestamp": 8429765878819,
      "time_usec": 8429765878
    },
    {
      "frame_id": 498,
      "sensor_timestamp": 8429799125402,
      "time_usec": 8429799125
    },
    {
      "frame_id": 499,
      "sensor_timestamp": 8429832371739,
      "time_usec": 8429832371
    },
    {
      "frame_id": 500,
      "sensor_timestamp": 8429865618077,
      "time_usec": 8429865618
    },
    {
      "frame_id": 501,
      "sensor_timestamp": 8429898864415,
      "time_usec": 8429898864
    },
    {
      "frame_id": 502,
      "sensor_timestamp": 8429932110997,
      "time_usec": 8429932110
    },
    {
      "frame_id": 503,
      "sensor_timestamp": 8429965357335,
      "time_usec": 8429965357
    },
    {
      "frame_id": 504,
      "sensor_timestamp": 8429998603673,
      "time_usec": 8429998603
    },
    {
      "frame_id": 505,
      "sensor_timestamp": 8430031850011,
      "time_usec": 8430031850
    },
    {
      "frame_id": 506,
      "sensor_timestamp": 8430065096349,
      "time_usec": 8430065096
    },
    {
      "frame_id": 507,
      "sensor_timestamp": 8430098342931,
      "time_usec": 8430098342
    },
    {
      "frame_id": 508,
      "sensor_timestamp": 8430131589269,
      "time_usec": 8430131589
    },
    {
      "frame_id": 509,
      "sensor_timestamp": 8430164835607,
      "time_usec": 8430164835
    },
    {
      "frame_id": 510,
      "sensor_timestamp": 8430198081944,
      "time_usec": 8430198081
    },
    {
      "frame_id": 511,
      "sensor_timestamp": 8430231328527,
      "time_usec": 8430231328
    },
    {
      "frame_id": 512,
      "sensor_timestamp": 8430264574864,
      "time_usec": 8430264574
    },
    {
      "frame_id": 513,
      "sensor_timestamp": 8430297821202,
      "time_usec": 8430297821
    },
    {
      "frame_id": 514,
      "sensor_timestamp": 8430331067540,
      "time_usec": 8430331067
    },
    {
      "frame_id": 515,
      "sensor_timestamp": 8430364314122,
      "time_usec": 8430364314
    },
    {
      "frame_id": 516,
      "sensor_timestamp": 8430397560460,
      "time_usec": 8430397560
    },
    {
      "frame_id": 517,
      "sensor_timestamp": 8430430806798,
      "time_usec": 8430430806
    },
    {
      "frame_id": 518,
      "sensor_timestamp": 8430464053136,
      "time_usec": 8430464053
    },
    {
      "frame_id": 519,
      "sensor_timestamp": 8430497299718,
      "time_usec": 8430497299
    },
    {
      "frame_id": 520,
      "sensor_timestamp": 8430530546056,
      "time_usec": 8430530546
    },
    {
      "frame_id": 521,
      "sensor_timestamp": 8430563792394,
      "time_usec": 8430563792
    },
    {
      "frame_id": 522,
      "sensor_timestamp": 8430597038732,
      "time_usec": 8430597038
    },
    {
      "frame_id": 523,
      "sensor_timestamp": 8430630285314,
      "time_usec": 8430630285
    },
    {
      "frame_id": 524,
      "sensor_timestamp": 8430663531652,
      "time_usec": 8430663531
    },
    {
      "frame_id": 525,
      "sensor_timestamp": 8430696777989,
      "time_usec": 8430696777
    },
    {
      "frame_id": 526,
      "sensor_timestamp": 8430730024327,
      "time_usec": 8430730024
    },
    {
      "frame_id": 527,
      "sensor_timestamp": 8430763270909,
      "time_usec": 8430763270
    },
    {
      "frame_id": 528,
      "sensor_timestamp": 8430796517247,
      "time_usec": 8430796517
    },
    {
      "frame_id": 529,
      "sensor_timestamp": 8430829763585,
      "time_usec": 8430829763
    },
    {
      "frame_id": 530,
      "sensor_timestamp": 8430863009923,
      "time_usec": 8430863009
    },
    {
      "frame_id": 531,
      "sensor_timestamp": 8430896256505,
      "time_usec": 8430896256
    },
    {
      "frame_id": 532,
      "sensor_timestamp": 8430929502843,
      "time_usec": 8430929502
    },
    {
      "frame_id": 533,
      "sensor_timestamp": 8430962749181,
      "time_usec": 8430962749
    },
    {
      "frame_id": 534,
      "sensor_timestamp": 8430995995519,
      "time_usec": 8430995995
    },
    {
      "frame_id": 535,
      "sensor_timestamp": 8431029242101,
      "time_usec": 8431029242
    },
    {
      "frame_id": 536,
      "sensor_timestamp": 8431062488439,
      "time_usec": 8431062488
    },
    {
      "frame_id": 537,
      "sensor_timestamp": 8431095734777,
      "time_usec": 8431095734
    },
    {
      "frame_id": 538,
      "sensor_timestamp": 8431128981114,
      "time_usec": 8431128981
    },
    {
      "frame_id": 539,
      "sensor_timestamp": 8431162227696,
      "time_usec": 8431162227
    },
    {
      "frame_id": 540,
      "sensor_timestamp": 8431195474034,
      "time_usec": 8431195474
    },
    {
      "frame_id": 541,
      "sensor_timestamp": 8431228720372,
      "time_usec": 8431228720
    },
    {
      "frame_id": 542,
      "sensor_timestamp": 8431261966710,
      "time_usec": 8431261966
    },
    {
      "frame_id": 543,
      "sensor_timestamp": 8431295213048,
      "time_usec": 8431295213
    },
    {
      "frame_id": 544,
      "sensor_timestamp": 8431328459630,
      "time_usec": 8431328459
    },
    {
      "frame_id": 545,
      "sensor_timestamp": 8431361705968,
      "time_usec": 8431361705
    },
    {
      "frame_id": 546,
      "sensor_timestamp": 8431394952306,
      "time_usec": 8431394952
    },
    {
      "frame_id": 547,
      "sensor_timestamp": 8431428198644,
      "time_usec": 8431428198
    },
    {
      "frame_id": 548,
      "sensor_timestamp": 8431461445226,
      "time_usec": 8431461445
    },
    {
      "frame_id": 549,
      "sensor_timestamp": 8431494691564,
      "time_usec": 8431494691
    },
    {
      "frame_id": 550,
      "sensor_timestamp": 8431527937902,
      "time_usec": 8431527937
    },
    {
      "frame_id": 551,
      "sensor_timestamp": 8431561184239,
      "time_usec": 8431561184
    },
    {
      "frame_id": 552,
      "sensor_timestamp": 8431594430821,
      "time_usec": 8431594430
    },
    {
      "frame_id": 553,
      "sensor_timestamp": 8431627677159,
      "time_usec": 8431627677
    },
    {
      "frame_id": 554,
      "sensor_timestamp": 8431660923497,
      "time_usec": 8431660923
    },
    {
      "frame_id": 555,
      "sensor_timestamp": 8431694169835,
      "time_usec": 8431694169
    },
    {
      "frame_id": 556,
      "sensor_timestamp": 8431727416417,
      "time_usec": 8431727416
    },
    {
      "frame_id": 557,
      "sensor_timestamp": 8431760662755,
      "time_usec": 8431760662
    },
    {
      "frame_id": 558,
      "sensor_timestamp": 8431793909093,
      "time_usec": 8431793909
    },
    {
      "frame_id": 559,
      "sensor_timestamp": 8431827155431,
      "time_usec": 8431827155
    },
    {
      "frame_id": 560,
      "sensor_timestamp": 8431860402013,
      "time_usec": 8431860402
    },
    {
      "frame_id": 561,
