{
  "frames": [
    {
      "frame_id": 0,
      "sensor_timestamp": 12456553215847,
      "time_usec": 12456553215
    },
    {
      "frame_id": 1,
      "sensor_timestamp": 12456619708523,
      "time_usec": 12456619708
    },
    {
      "frame_id": 2,
      "sensor_timestamp": 12456652955105,
      "time_usec": 12456652955
    },
    {
      "frame_id": 3,
      "sensor_timestamp": 12456686201443,
      "time_usec": 12456686201
    },
    {
      "frame_id": 4,
      "sensor_timestamp": 12456719447781,
      "time_usec": 12456719447
    },
    {
      "frame_id": 5,
      "sensor_timestamp": 12456752694118,
      "time_usec": 12456752694
    },
    {
      "frame_id": 6,
      "sensor_timestamp": 12456785940700,
      "time_usec": 12456785940
    },
    {
      "frame_id": 7,
      "sensor_timestamp": 12456819187038,
      "time_usec": 12456819187
    },
    {
      "frame_id": 8,
      "sensor_timestamp": 12456852433376,
      "time_usec": 12456852433
    },
    {
      "frame_id": 9,
      "sensor_timestamp": 12456885679714,
      "time_usec": 12456885679
    },
    {
      "frame_id": 10,
      "sensor_timestamp": 12456918926296,
      "time_usec": 12456918926
    },
    {
      "frame_id": 11,
      "sensor_timestamp": 12456952172634,
      "time_usec": 12456952172
    },
    {
      "frame_id": 12,
      "sensor_timestamp": 12456985418972,
      "time_usec": 12456985418
    },
    {
      "frame_id": 13,
      "sensor_timestamp": 12457018665310,
      "time_usec": 12457018665
    },
    {
      "frame_id": 14,
      "sensor_timestamp": 12457051911892,
      "time_usec": 12457051911
    },
    {
      "frame_id": 15,
      "sensor_timestamp": 12457085158230,
      "time_usec": 12457085158
    },
    {
      "frame_id": 16,
      "sensor_timestamp": 12457118404568,
      "time_usec": 12457118404
    },
    {
      "frame_id": 17,
      "sensor_timestamp": 12457151650906,
      "time_usec": 12457151650
    },
    {
      "frame_id": 18,
      "sensor_timestamp": 12457184897488,
      "time_usec": 12457184897
    },
    {
      "frame_id": 19,
      "sensor_timestamp": 12457218143825,
      "time_usec": 12457218143
    },
    {
      "frame_id": 20,
      "sensor_timestamp": 12457251390163,
      "time_usec": 12457251390
    },
    {
      "frame_id": 21,
      "sensor_timestamp": 12457284636501,
      "time_usec": 12457284636
    },
    {
      "frame_id": 22,
      "sensor_timestamp": 12457317883083,
      "time_usec": 12457317883
    },
    {
      "frame_id": 23,
      "sensor_timestamp": 12457351129421,
      "time_usec": 12457351129
    },
    {
      "frame_id": 24,
      "sensor_timestamp": 12457384375759,
      "time_usec": 12457384375
    },
    {
      "frame_id": 25,
      "sensor_timestamp": 12457417622097,
      "time_usec": 12457417622
    },
    {
      "frame_id": 26,
      "sensor_timestamp": 12457450868679,
      "time_usec": 12457450868
    },
    {
      "frame_id": 27,
      "sensor_timestamp": 12457484115017,
      "time_usec": 12457484115
    },
    {
      "frame_id": 28,
      "sensor_timestamp": 12457517361355,
      "time_usec": 12457517361
    },
    {
      "frame_id": 29,
      "sensor_timestamp": 12457550607693,
      "time_usec": 12457550607
    },
    {
      "frame_id": 30,
      "sensor_timestamp": 12457583854031,
      "time_usec": 12457583854
    },
    {
      "frame_id": 31,
      "sensor_timestamp": 12457617100613,
      "time_usec": 12457617100
    },
    {
      "frame_id": 32,
      "sensor_timestamp": 12457650346950,
      "time_usec": 12457650346
    },
    {
      "frame_id": 33,
      "sensor_timestamp": 12457683593288,
      "time_usec": 12457683593
    },
    {
      "frame_id": 34,
      "sensor_timestamp": 12457716839626,
      "time_usec": 12457716839
    },
    {
      "frame_id": 35,
      "sensor_timestamp": 12457750086208,
      "time_usec": 12457750086
    },
    {
      "frame_id": 36,
      "sensor_timestamp": 12457783332546,
      "time_usec": 12457783332
    },
    {
      "frame_id": 37,
      "sensor_timestamp": 12457816578884,
      "time_usec": 12457816578
    },
    {
      "frame_id": 38,
      "sensor_timestamp": 12457849825222,
      "time_usec": 12457849825
    },
    {
      "frame_id": 39,
      "sensor_timestamp": 12457883071804,
      "time_usec": 12457883071
    },
    {
      "frame_id": 40,
      "sensor_timestamp": 12457916318142,
      "time_usec": 12457916318
    },
    {
      "frame_id": 41,
      "sensor_timestamp": 12457949564480,
      "time_usec": 12457949564
    },
    {
      "frame_id": 42,
      "sensor_timestamp": 12457982810818,
      "time_usec": 12457982810
    },
    {
      "frame_id": 43,
      "sensor_timestamp": 12458016057400,
      "time_usec": 12458016057
    },
    {
      "frame_id": 44,
      "sensor_timestamp": 12458049303738,
      "time_usec": 12458049303
    },
    {
      "frame_id": 45,
      "sensor_timestamp": 12458082550075,
      "time_usec": 12458082550
    },
    {
      "frame_id": 46,
      "sensor_timestamp": 12458115796413,
      "time_usec": 12458115796
    },
    {
      "frame_id": 47,
      "sensor_timestamp": 12458149042995,
      "time_usec": 12458149042
    },
    {
      "frame_id": 48,
      "sensor_timestamp": 12458182289333,
      "time_usec": 12458182289
    },
    {
      "frame_id": 49,
      "sensor_timestamp": 12458215535671,
      "time_usec": 12458215535
    },
    {
      "frame_id": 50,
      "sensor_timestamp": 12458248782009,
      "time_usec": 12458248782
    },
    {
      "frame_id": 51,
      "sensor_timestamp": 12458282028591,
      "time_usec": 12458282028
    },
    {
      "frame_id": 52,
      "sensor_timestamp": 12458315274929,
      "time_usec": 12458315274
    },
    {
      "frame_id": 53,
      "sensor_timestamp": 12458348521267,
      "time_usec": 12458348521
    },
    {
      "frame_id": 54,
      "sensor_timestamp": 12458381767605,
      "time_usec": 12458381767
    },
    {
      "frame_id": 55,
      "sensor_timestamp": 12458415014187,
      "time_usec": 12458415014
    },
    {
      "frame_id": 56,
      "sensor_timestamp": 12458448260525,
      "time_usec": 12458448260
    },
    {
      "frame_id": 57,
      "sensor_timestamp": 12458481506863,
      "time_usec": 12458481506
    },
    {
      "frame_id": 58,
      "sensor_timestamp": 12458514753200,
      "time_usec": 12458514753
    },
    {
      "frame_id": 59,
      "sensor_timestamp": 12458547999783,
      "time_usec": 12458547999
    },
    {
      "frame_id": 60,
      "sensor_timestamp": 12458581246120,
      "time_usec": 12458581246
    },
    {
      "frame_id": 61,
      "sensor_timestamp": 12458614492458,
      "time_usec": 12458614492
    },
    {
      "frame_id": 62,
      "sensor_timestamp": 12458647738796,
      "time_usec": 12458647738
    },
    {
      "frame_id": 63,
      "sensor_timestamp": 12458680985378,
      "time_usec": 12458680985
    },
    {
      "frame_id": 64,
      "sensor_timestamp": 12458714231716,
      "time_usec": 12458714231
    },
    {
      "frame_id": 65,
      "sensor_timestamp": 12458747478054,
      "time_usec": 12458747478
    },
    {
      "frame_id": 66,
      "sensor_timestamp": 12458780724392,
      "time_usec": 12458780724
    },
    {
      "frame_id": 67,
      "sensor_timestamp": 12458813970730,
      "time_usec": 12458813970
    },
    {
      "frame_id": 68,
      "sensor_timestamp": 12458847217312,
      "time_usec": 12458847217
    },
    {
      "frame_id": 69,
      "sensor_timestamp": 12458880463650,
      "time_usec": 12458880463
    },
    {
      "frame_id": 70,
      "sensor_timestamp": 12458913804259,
      "time_usec": 12458913804
    },
    {
      "frame_id": 71,
      "sensor_timestamp": 12458946956325,
      "time_usec": 12458946956
    },
    {
      "frame_id": 72,
      "sensor_timestamp": 12458980202908,
      "time_usec": 12458980202
    },
    {
      "frame_id": 73,
      "sensor_timestamp": 12459013449245,
      "time_usec": 12459013449
    },
    {
      "frame_id": 74,
      "sensor_timestamp": 12459046695583,
      "time_usec": 12459046695
    },
    {
      "frame_id": 75,
      "sensor_timestamp": 12459079941921,
      "time_usec": 12459079941
    },
    {
      "frame_id": 76,
      "sensor_timestamp": 12459113188503,
      "time_usec": 12459113188
    },
    {
      "frame_id": 77,
      "sensor_timestamp": 12459146434841,
      "time_usec": 12459146434
    },
    {
      "frame_id": 78,
      "sensor_timestamp": 12459179681179,
      "time_usec": 12459179681
    },
    {
      "frame_id": 79,
      "sensor_timestamp": 12459212927517,
      "time_usec": 12459212927
    },
    {
      "frame_id": 80,
      "sensor_timestamp": 12459246174099,
      "time_usec": 12459246174
    },
    {
      "frame_id": 81,
      "sensor_timestamp": 12459279420437,
      "time_usec": 12459279420
    },
    {
      "frame_id": 82,
      "sensor_timestamp": 12459312666775,
      "time_usec": 12459312666
    },
    {
      "frame_id": 83,
      "sensor_timestamp": 12459345913113,
      "time_usec": 12459345913
    },
    {
      "frame_id": 84,
      "sensor_timestamp": 12459379159695,
      "time_usec": 12459379159
    },
    {
      "frame_id": 85,
      "sensor_timestamp": 12459412406033,
      "time_usec": 12459412406
    },
    {
      "frame_id": 86,
      "sensor_timestamp": 12459445652370,
      "time_usec": 12459445652
    },
    {
      "frame_id": 87,
      "sensor_timestamp": 12459478898708,
      "time_usec": 12459478898
    },
    {
      "frame_id": 88,
      "sensor_timestamp": 12459512145290,
      "time_usec": 12459512145
    },
    {
      "frame_id": 89,
      "sensor_timestamp": 12459545391628,
      "time_usec": 12459545391
    },
    {
      "frame_id": 90,
      "sensor_timestamp": 12459578637966,
      "time_usec": 12459578637
    },
    {
      "frame_id": 91,
      "sensor_timestamp": 12459611884304,
      "time_usec": 12459611884
    },
    {
      "frame_id": 92,
      "sensor_timestamp": 12459645130886,
      "time_usec": 12459645130
    },
    {
      "frame_id": 93,
      "sensor_timestamp": 12459678377224,
      "time_usec": 12459678377
    },
    {
      "frame_id": 94,
      "sensor_timestamp": 12459711623562,
      "time_usec": 12459711623
    },
    {
      "frame_id": 95,
      "sensor_timestamp": 12459744869900,
      "time_usec": 12459744869
    },
    {
      "frame_id": 96,
      "sensor_timestamp": 12459778116482,
      "time_usec": 12459778116
    },
    {
      "frame_id": 97,
      "sensor_timestamp": 12459811362820,
      "time_usec": 12459811362
    },
    {
      "frame_id": 98,
      "sensor_timestamp": 12459844609158,
      "time_usec": 12459844609
    },
    {
      "frame_id": 99,
      "sensor_timestamp": 12459877855495,
      "time_usec": 12459877855
    },
    {
      "frame_id": 100,
      "sensor_timestamp": 12459911102077,
      "time_usec": 12459911102
    },
    {
      "frame_id": 101,
      "sensor_timestamp": 12459944348415,
      "time_usec": 12459944348
    },
    {
      "frame_id": 102,
      "sensor_timestamp": 12459977594753,
      "time_usec": 12459977594
    },
    {
      "frame_id": 103,
      "sensor_timestamp": 12460010841091,
      "time_usec": 12460010841
    },
    {
      "frame_id": 104,
      "sensor_timestamp": 12460044087429,
      "time_usec": 12460044087
    },
    {
      "frame_id": 105,
      "sensor_timestamp": 12460077334011,
      "time_usec": 12460077334
    },
    {
      "frame_id": 106,
      "sensor_timestamp": 12460110580349,
      "time_usec": 12460110580
    },
    {
      "frame_id": 107,
      "sensor_timestamp": 12460143826687,
      "time_usec": 12460143826
    },
    {
      "frame_id": 108,
      "sensor_timestamp": 12460177073025,
      "time_usec": 12460177073
    },
    {
      "frame_id": 109,
      "sensor_timestamp": 12460210319607,
      "time_usec": 12460210319
    },
    {
      "frame_id": 110,
      "sensor_timestamp": 12460243565945,
      "time_usec": 12460243565
    },
    {
      "frame_id": 111,
      "sensor_timestamp": 12460276812283,
      "time_usec": 12460276812
    },
    {
      "frame_id": 112,
      "sensor_timestamp": 12460310058620,
      "time_usec": 12460310058
    },
    {
      "frame_id": 113,
      "sensor_timestamp": 12460343305202,
      "time_usec": 12460343305
    },
    {
      "frame_id": 114,
      "sensor_timestamp": 12460376551540,
      "time_usec": 12460376551
    },
    {
      "frame_id": 115,
      "sensor_timestamp": 12460409797878,
      "time_usec": 12460409797
    },
    {
      "frame_id": 116,
      "sensor_timestamp": 12460443044216,
      "time_usec": 12460443044
    },
    {
      "frame_id": 117,
      "sensor_timestamp": 12460476290798,
      "time_usec": 12460476290
    },
    {
      "frame_id": 118,
      "sensor_timestamp": 12460509537136,
      "time_usec": 12460509537
    },
    {
      "frame_id": 119,
      "sensor_timestamp": 12460542783474,
      "time_usec": 12460542783
    },
    {
      "frame_id": 120,
      "sensor_timestamp": 12460576029812,
      "time_usec": 12460576029
    },
    {
      "frame_id": 121,
      "sensor_timestamp": 12460609276394,
      "time_usec": 12460609276
    },
    {
      "frame_id": 122,
      "sensor_timestamp": 12460642522732,
      "time_usec": 12460642522
    },
    {
      "frame_id": 123,
      "sensor_timestamp": 12460675769070,
      "time_usec": 12460675769
    },
    {
      "frame_id": 124,
      "sensor_timestamp": 12460709015408,
      "time_usec": 12460709015
    },
    {
      "frame_id": 125,
      "sensor_timestamp": 12460742261990,
      "time_usec": 12460742261
    },
    {
      "frame_id": 126,
      "sensor_timestamp": 12460775508327,
      "time_usec": 12460775508
    },
    {
      "frame_id": 127,
      "sensor_timestamp": 12460808754665,
      "time_usec": 12460808754
    },
    {
      "frame_id": 128,
      "sensor_timestamp": 12460842001003,
      "time_usec": 12460842001
    },
    {
      "frame_id": 129,
      "sensor_timestamp": 12460875247585,
      "time_usec": 12460875247
    },
    {
      "frame_id": 130,
      "sensor_timestamp": 12460908493923,
      "time_usec": 12460908493
    },
    {
      "frame_id": 131,
      "sensor_timestamp": 12460941740261,
      "time_usec": 12460941740
    },
    {
      "frame_id": 132,
      "sensor_timestamp": 12460974986599,
      "time_usec": 12460974986
    },
    {
      "frame_id": 133,
      "sensor_timestamp": 12461008233181,
      "time_usec": 12461008233
    },
    {
      "frame_id": 134,
      "sensor_timestamp": 12461041479519,
      "time_usec": 12461041479
    },
    {
      "frame_id": 135,
      "sensor_timestamp": 12461074725857,
      "time_usec": 12461074725
    },
    {
      "frame_id": 136,
      "sensor_timestamp": 12461107972195,
      "time_usec": 12461107972
    },
    {
      "frame_id": 137,
      "sensor_timestamp": 12461138438146,
      "time_usec": 12461138438
    },
    {
      "frame_id": 138,
      "sensor_timestamp": 12461171684484,
      "time_usec": 12461171684
    },
    {
      "frame_id": 139,
      "sensor_timestamp": 12461204930821,
      "time_usec": 12461204930
    },
    {
      "frame_id": 140,
      "sensor_timestamp": 12461238177159,
      "time_usec": 12461238177
    },
    {
      "frame_id": 141,
      "sensor_timestamp": 12461271423497,
      "time_usec": 12461271423
    },
    {
      "frame_id": 142,
      "sensor_timestamp": 12461304670079,
      "time_usec": 12461304670
    },
    {
      "frame_id": 143,
      "sensor_timestamp": 12461337916417,
      "time_usec": 12461337916
    },
    {
      "frame_id": 144,
      "sensor_timestamp": 12461371162755,
      "time_usec": 12461371162
    },
    {
      "frame_id": 145,
      "sensor_timestamp": 12461404409093,
      "time_usec": 12461404409
    },
    {
      "frame_id": 146,
      "sensor_timestamp": 12461437655675,
      "time_usec": 12461437655
    },
    {
      "frame_id": 147,
      "sensor_timestamp": 12461470902013,
      "time_usec": 12461470902
    },
    {
      "frame_id": 148,
      "sensor_timestamp": 12461504148351,
      "time_usec": 12461504148
    },
    {
      "frame_id": 149,
      "sensor_timestamp": 12461537394689,
      "time_usec": 12461537394
    },
    {
      "frame_id": 150,
      "sensor_timestamp": 12461570641271,
      "time_usec": 12461570641
    },
    {
      "frame_id": 151,
      "sensor_timestamp": 12461603887609,
      "time_usec": 12461603887
    },
    {
      "frame_id": 152,
      "sensor_timestamp": 12461637133946,
      "time_usec": 12461637133
    },
    {
      "frame_id": 153,
      "sensor_timestamp": 12461670380284,
      "time_usec": 12461670380
    },
    {
      "frame_id": 154,
      "sensor_timestamp": 12461703626866,
      "time_usec": 12461703626
    },
    {
      "frame_id": 155,
      "sensor_timestamp": 12461736873204,
      "time_usec": 12461736873
    },
    {
      "frame_id": 156,
      "sensor_timestamp": 12461770119542,
      "time_usec": 12461770119
    },
    {
      "frame_id": 157,
      "sensor_timestamp": 12461803365880,
      "time_usec": 12461803365
    },
    {
      "frame_id": 158,
      "sensor_timestamp": 12461836612462,
      "time_usec": 12461836612
    },
    {
      "frame_id": 159,
      "sensor_timestamp": 12461869858800,
      "time_usec": 12461869858
    },
    {
      "frame_id": 160,
      "sensor_timestamp": 12461903105138,
      "time_usec": 12461903105
    },
    {
      "frame_id": 161,
      "sensor_timestamp": 12461936351476,
      "time_usec": 12461936351
    },
    {
      "frame_id": 162,
      "sensor_timestamp": 12461969598058,
      "time_usec": 12461969598
    },
    {
      "frame_id": 163,
      "sensor_timestamp": 12462002844396,
      "time_usec": 12462002844
    },
    {
      "frame_id": 164,
      "sensor_timestamp": 12462036090734,
      "time_usec": 12462036090
    },
    {
      "frame_id": 165,
      "sensor_timestamp": 12462069337071,
      "time_usec": 12462069337
    },
    {
      "frame_id": 166,
      "sensor_timestamp": 12462102583653,
      "time_usec": 12462102583
    },
    {
      "frame_id": 167,
      "sensor_timestamp": 12462135829991,
      "time_usec": 12462135829
    },
    {
      "frame_id": 168,
      "sensor_timestamp": 12462169076329,
      "time_usec": 12462169076
    },
    {
      "frame_id": 169,
      "sensor_timestamp": 12462205103298,
      "time_usec": 12462205103
    },
    {
      "frame_id": 170,
      "sensor_timestamp": 12462238349880,
      "time_usec": 12462238349
    },
    {
      "frame_id": 171,
      "sensor_timestamp": 12462271596218,
      "time_usec": 12462271596
    },
    {
      "frame_id": 172,
      "sensor_timestamp": 12462304842556,
      "time_usec": 12462304842
    },
    {
      "frame_id": 173,
      "sensor_timestamp": 12462338088894,
      "time_usec": 12462338088
    },
    {
      "frame_id": 174,
      "sensor_timestamp": 12462371335232,
      "time_usec": 12462371335
    },
    {
      "frame_id": 175,
      "sensor_timestamp": 12462404581814,
      "time_usec": 12462404581
    },
    {
      "frame_id": 176,
      "sensor_timestamp": 12462437828152,
      "time_usec": 12462437828
    },
    {
      "frame_id": 177,
      "sensor_timestamp": 12462471074490,
      "time_usec": 12462471074
    },
    {
      "frame_id": 178,
      "sensor_timestamp": 12462504320827,
      "time_usec": 12462504320
    },
    {
      "frame_id": 179,
      "sensor_timestamp": 12462537567409,
      "time_usec": 12462537567
    },
    {
      "frame_id": 180,
      "sensor_timestamp": 12462570813747,
      "time_usec": 12462570813
    },
    {
      "frame_id": 181,
      "sensor_timestamp": 12462604060085,
      "time_usec": 12462604060
    },
    {
      "frame_id": 182,
      "sensor_timestamp": 12462637306423,
      "time_usec": 12462637306
    },
    {
      "frame_id": 183,
      "sensor_timestamp": 12462670553005,
      "time_usec": 12462670553
    },
    {
      "frame_id": 184,
      "sensor_timestamp": 12462703799343,
      "time_usec": 12462703799
    },
    {
      "frame_id": 185,
      "sensor_timestamp": 12462737045681,
      "time_usec": 12462737045
    },
    {
      "frame_id": 186,
      "sensor_timestamp": 12462770292019,
      "time_usec": 12462770292
    },
    {
      "frame_id": 187,
      "sensor_timestamp": 12462803538601,
      "time_usec": 12462803538
    },
    {
      "frame_id": 188,
      "sensor_timestamp": 12462836784939,
      "time_usec": 12462836784
    },
    {
      "frame_id": 189,
      "sensor_timestamp": 12462870031277,
      "time_usec": 12462870031
    },
    {
      "frame_id": 190,
      "sensor_timestamp": 12462903277615,
      "time_usec": 12462903277
    },
    {
      "frame_id": 191,
      "sensor_timestamp": 12462936524197,
      "time_usec": 12462936524
    },
    {
      "frame_id": 192,
      "sensor_timestamp": 12462969770534,
      "time_usec": 12462969770
    },
    {
      "frame_id": 193,
      "sensor_timestamp": 12463003016872,
      "time_usec": 12463003016
    },
    {
      "frame_id": 194,
      "sensor_timestamp": 12463036263210,
      "time_usec": 12463036263
    },
    {
      "frame_id": 195,
      "sensor_timestamp": 12463069509792,
      "time_usec": 12463069509
    },
    {
      "frame_id": 196,
      "sensor_timestamp": 12463102756130,
      "time_usec": 12463102756
    },
    {
      "frame_id": 197,
      "sensor_timestamp": 12463136002468,
      "time_usec": 12463136002
    },
    {
      "frame_id": 198,
      "sensor_timestamp": 12463169248806,
      "time_usec": 12463169248
    },
    {
      "frame_id": 199,
      "sensor_timestamp": 12463202495388,
      "time_usec": 12463202495
    },
    {
      "frame_id": 200,
      "sensor_timestamp": 12463235741726,
      "time_usec": 12463235741
    },
    {
      "frame_id": 201,
      "sensor_timestamp": 12463268988064,
      "time_usec": 12463268988
    },
    {
      "frame_id": 202,
      "sensor_timestamp": 12463302234402,
      "time_usec": 12463302234
    },
    {
      "frame_id": 203,
      "sensor_timestamp": 12463335480984,
      "time_usec": 12463335480
    },
    {
      "frame_id": 204,
      "sensor_timestamp": 12463368727322,
      "time_usec": 12463368727
    },
    {
      "frame_id": 205,
      "sensor_timestamp": 12463401973659,
      "time_usec": 12463401973
    },
    {
      "frame_id": 206,
      "sensor_timestamp": 12463435219997,
      "time_usec": 12463435219
    },
    {
      "frame_id": 207,
      "sensor_timestamp": 12463468466579,
      "time_usec": 12463468466
    },
    {
      "frame_id": 208,
      "sensor_timestamp": 12463501712917,
      "time_usec": 12463501712
    },
    {
      "frame_id": 209,
      "sensor_timestamp": 12463534959255,
      "time_usec": 12463534959
    },
    {
      "frame_id": 210,
      "sensor_timestamp": 12463568205593,
      "time_usec": 12463568205
    },
    {
      "frame_id": 211,
      "sensor_timestamp": 12463601451931,
      "time_usec": 12463601451
    },
    {
      "frame_id": 212,
      "sensor_timestamp": 12463634698513,
      "time_usec": 12463634698
    },
    {
      "frame_id": 213,
      "sensor_timestamp": 12463667944851,
      "time_usec": 12463667944
    },
    {
      "frame_id": 214,
      "sensor_timestamp": 12463701191189,
      "time_usec": 12463701191
    },
    {
      "frame_id": 215,
      "sensor_timestamp": 12463734437527,
      "time_usec": 12463734437
    },
    {
      "frame_id": 216,
      "sensor_timestamp": 12463767684109,
      "time_usec": 12463767684
    },
    {
      "frame_id": 217,
      "sensor_timestamp": 12463800930447,
      "time_usec": 12463800930
    },
    {
      "frame_id": 218,
      "sensor_timestamp": 12463834176784,
      "time_usec": 12463834176
    },
    {
      "frame_id": 219,
      "sensor_timestamp": 12463867423122,
      "time_usec": 12463867423
    },
    {
      "frame_id": 220,
      "sensor_timestamp": 12463900669704,
      "time_usec": 12463900669
    },
    {
      "frame_id": 221,
      "sensor_timestamp": 12463933916042,
      "time_usec": 12463933916
    },
    {
      "frame_id": 222,
      "sensor_timestamp": 12463967162380,
      "time_usec": 12463967162
    },
    {
      "frame_id": 223,
      "sensor_timestamp": 12464000408718,
      "time_usec": 12464000408
    },
    {
      "frame_id": 224,
      "sensor_timestamp": 12464033655300,
      "time_usec": 12464033655
    },
    {
      "frame_id": 225,
      "sensor_timestamp": 12464066901638,
      "time_usec": 12464066901
    },
    {
      "frame_id": 226,
      "sensor_timestamp": 12464100147976,
      "time_usec": 12464100147
    },
    {
      "frame_id": 227,
      "sensor_timestamp": 12464133394314,
      "time_usec": 12464133394
    },
    {
      "frame_id": 228,
      "sensor_timestamp": 12464166640896,
      "time_usec": 12464166640
    },
    {
      "frame_id": 229,
      "sensor_timestamp": 12464199887234,
      "time_usec": 12464199887
    },
    {
      "frame_id": 230,
      "sensor_timestamp": 12464233133572,
      "time_usec": 12464233133
    },
    {
      "frame_id": 231,
      "sensor_timestamp": 12464266379909,
      "time_usec": 12464266379
    },
    {
      "frame_id": 232,
      "sensor_timestamp": 12464299626492,
      "time_usec": 12464299626
    },
    {
      "frame_id": 233,
      "sensor_timestamp": 12464332872829,
      "time_usec": 12464332872
    },
    {
      "frame_id": 234,
      "sensor_timestamp": 12464366119167,
      "time_usec": 12464366119
    },
    {
      "frame_id": 235,
      "sensor_timestamp": 12464399365505,
      "time_usec": 12464399365
    },
    {
      "frame_id": 236,
      "sensor_timestamp": 12464432612087,
      "time_usec": 12464432612
    },
    {
      "frame_id": 237,
      "sensor_timestamp": 12464465858425,
      "time_usec": 12464465858
    },
    {
      "frame_id": 238,
      "sensor_timestamp": 12464499104763,
      "time_usec": 12464499104
    },
    {
      "frame_id": 239,
      "sensor_timestamp": 12464532351101,
      "time_usec": 12464532351
    },
    {
      "frame_id": 240,
      "sensor_timestamp": 12464565597683,
      "time_usec": 12464565597
    },
    {
      "frame_id": 241,
      "sensor_timestamp": 12464598844021,
      "time_usec": 12464598844
    },
    {
      "frame_id": 242,
      "sensor_timestamp": 12464632090359,
      "time_usec": 12464632090
    },
    {
      "frame_id": 243,
      "sensor_timestamp": 12464665336697,
      "time_usec": 12464665336
    },
    {
      "frame_id": 244,
      "sensor_timestamp": 12464698583279,
      "time_usec": 12464698583
    },
    {
      "frame_id": 245,
      "sensor_timestamp": 12464731829617,
      "time_usec": 12464731829
    },
    {
      "frame_id": 246,
      "sensor_timestamp": 12464765075954,
      "time_usec": 12464765075
    },
    {
      "frame_id": 247,
      "sensor_timestamp": 12464798322292,
      "time_usec": 12464798322
    },
    {
      "frame_id": 248,
      "sensor_timestamp": 12464831568630,
      "time_usec": 12464831568
    },
    {
      "frame_id": 249,
      "sensor_timestamp": 12464864815212,
      "time_usec": 12464864815
    },
    {
      "frame_id": 250,
      "sensor_timestamp": 12464898061550,
      "time_usec": 12464898061
    },
    {
      "frame_id": 251,
      "sensor_timestamp": 12464931307888,
      "time_usec": 12464931307
    },
    {
      "frame_id": 252,
      "sensor_timestamp": 12464964554226,
      "time_usec": 12464964554
    },
    {
      "frame_id": 253,
      "sensor_timestamp": 12464997800808,
      "time_usec": 12464997800
    },
    {
      "frame_id": 254,
      "sensor_timestamp": 12465031047146,
      "time_usec": 12465031047
    },
    {
      "frame_id": 255,
      "sensor_timestamp": 12465064293484,
      "time_usec": 12465064293
    },
    {
      "frame_id": 256,
      "sensor_timestamp": 12465097539822,
      "time_usec": 12465097539
    },
    {
      "frame_id": 257,
      "sensor_timestamp": 12465130786404,
      "time_usec": 12465130786
    },
    {
      "frame_id": 258,
      "sensor_timestamp": 12465164032742,
      "time_usec": 12465164032
    },
    {
      "frame_id": 259,
      "sensor_timestamp": 12465197279079,
      "time_usec": 12465197279
    },
    {
      "frame_id": 260,
      "sensor_timestamp": 12465230525417,
      "time_usec": 12465230525
    },
    {
      "frame_id": 261,
      "sensor_timestamp": 12465263771999,
      "time_usec": 12465263771
    },
    {
      "frame_id": 262,
      "sensor_timestamp": 12465297018337,
      "time_usec": 12465297018
    },
    {
      "frame_id": 263,
      "sensor_timestamp": 12465330264675,
      "time_usec": 12465330264
    },
    {
      "frame_id": 264,
      "sensor_timestamp": 12465363511013,
      "time_usec": 12465363511
    },
    {
      "frame_id": 265,
      "sensor_timestamp": 12465396757595,
      "time_usec": 12465396757
    },
    {
      "frame_id": 266,
      "sensor_timestamp": 12465430003933,
      "time_usec": 12465430003
    },
    {
      "frame_id": 267,
      "sensor_timestamp": 12465463250271,
      "time_usec": 12465463250
    },
    {
      "frame_id": 268,
      "sensor_timestamp": 12465496496609,
      "time_usec": 12465496496
    },
    {
      "frame_id": 269,
      "sensor_timestamp": 12465529743191,
      "time_usec": 12465529743
    },
    {
      "frame_id": 270,
      "sensor_timestamp": 12465562989529,
      "time_usec": 12465562989
    },
    {
      "frame_id": 271,
      "sensor_timestamp": 12465596235867,
      "time_usec": 12465596235
    },
    {
      "frame_id": 272,
      "sensor_timestamp": 12465629482204,
      "time_usec": 12465629482
    },
    {
      "frame_id": 273,
      "sensor_timestamp": 12465662728786,
      "time_usec": 12465662728
    },
    {
      "frame_id": 274,
      "sensor_timestamp": 12465695975124,
      "time_usec": 12465695975
    },
    {
      "frame_id": 275,
      "sensor_timestamp": 12465729221462,
      "time_usec": 12465729221
    },
    {
      "frame_id": 276,
      "sensor_timestamp": 12465762467800,
      "time_usec": 12465762467
    },
    {
      "frame_id": 277,
      "sensor_timestamp": 12465795714382,
      "time_usec": 12465795714
    },
    {
      "frame_id": 278,
      "sensor_timestamp": 12465828960720,
      "time_usec": 12465828960
    },
    {
      "frame_id": 279,
      "sensor_timestamp": 12465862207058,
      "time_usec": 12465862207
    },
    {
      "frame_id": 280,
      "sensor_timestamp": 12465895453396,
      "time_usec": 12465895453
    },
    {
      "frame_id": 281,
      "sensor_timestamp": 12465928699978,
      "time_usec": 12465928699
    },
    {
      "frame_id": 282,
      "sensor_timestamp": 12465961946316,
      "time_usec": 12465961946
    },
    {
      "frame_id": 283,
      "sensor_timestamp": 12465995192654,
      "time_usec": 12465995192
    },
    {
      "frame_id": 284,
      "sensor_timestamp": 12466028438992,
      "time_usec": 12466028438
    },
    {
      "frame_id": 285,
      "sensor_timestamp": 12466061685329,
      "time_usec": 12466061685
    },
    {
      "frame_id": 286,
      "sensor_timestamp": 12466094931911,
      "time_usec": 12466094931
    },
    {
      "frame_id": 287,
      "sensor_timestamp": 12466128178249,
      "time_usec": 12466128178
    },
    {
      "frame_id": 288,
      "sensor_timestamp": 12466161424587,
      "time_usec": 12466161424
    },
    {
      "frame_id": 289,
      "sensor_timestamp": 12466194670925,
      "time_usec": 12466194670
    },
    {
      "frame_id": 290,
      "sensor_timestamp": 12466227917507,
      "time_usec": 12466227917
    },
    {
      "frame_id": 291,
      "sensor_timestamp": 12466261163845,
      "time_usec": 12466261163
    },
    {
      "frame_id": 292,
      "sensor_timestamp": 12466294410183,
      "time_usec": 12466294410
    },
    {
      "frame_id": 293,
      "sensor_timestamp": 12466327656521,
      "time_usec": 12466327656
    },
    {
      "frame_id": 294,
      "sensor_timestamp": 12466360903103,
      "time_usec": 12466360903
    },
    {
      "frame_id": 295,
      "sensor_timestamp": 12466394149441,
      "time_usec": 12466394149
    },
    {
      "frame_id": 296,
      "sensor_timestamp": 12466427395779,
      "time_usec": 12466427395
    },
    {
      "frame_id": 297,
      "sensor_timestamp": 12466460642117,
      "time_usec": 12466460642
    },
    {
      "frame_id": 298,
      "sensor_timestamp": 12466493888699,
      "time_usec": 12466493888
    },
    {
      "frame_id": 299,
      "sensor_timestamp": 12466527135036,
      "time_usec": 12466527135
    },
    {
      "frame_id": 300,
      "sensor_timestamp": 12466560381374,
      "time_usec": 12466560381
    },
    {
      "frame_id": 301,
      "sensor_timestamp": 12466593627712,
      "time_usec": 12466593627
    },
    {
      "frame_id": 302,
      "sensor_timestamp": 12466626874294,
      "time_usec": 12466626874
    },
    {
      "frame_id": 303,
      "sensor_timestamp": 12466660120632,
      "time_usec": 12466660120
    },
    {
      "frame_id": 304,
      "sensor_timestamp": 12466693366970,
      "time_usec": 12466693366
    },
    {
      "frame_id": 305,
      "sensor_timestamp": 12466726613308,
      "time_usec": 12466726613
    },
    {
      "frame_id": 306,
      "sensor_timestamp": 12466759859890,
      "time_usec": 12466759859
    },
    {
      "frame_id": 307,
      "sensor_timestamp": 12466793106228,
      "time_usec": 12466793106
    },
    {
      "frame_id": 308,
      "sensor_timestamp": 12466826352566,
      "time_usec": 12466826352
    },
    {
      "frame_id": 309,
      "sensor_timestamp": 12466859598904,
      "time_usec": 12466859598
    },
    {
      "frame_id": 310,
      "sensor_timestamp": 12466892845486,
      "time_usec": 12466892845
    },
    {
      "frame_id": 311,
      "sensor_timestamp": 12466926091824,
      "time_usec": 12466926091
    },
    {
      "frame_id": 312,
      "sensor_timestamp": 12466959338161,
      "time_usec": 12466959338
    },
    {
      "frame_id": 313,
      "sensor_timestamp": 12466992584499,
      "time_usec": 12466992584
    },
    {
      "frame_id": 314,
      "sensor_timestamp": 12467025831081,
      "time_usec": 12467025831
    },
    {
      "frame_id": 315,
      "sensor_timestamp": 12467059077419,
      "time_usec": 12467059077
    },
    {
      "frame_id": 316,
      "sensor_timestamp": 12467092323757,
      "time_usec": 12467092323
    },
    {
      "frame_id": 317,
      "sensor_timestamp": 12467122789464,
      "time_usec": 12467122789
    },
    {
      "frame_id": 318,
      "sensor_timestamp": 12467156036046,
      "time_usec": 12467156036
    },
    {
      "frame_id": 319,
      "sensor_timestamp": 12467189282384,
      "time_usec": 12467189282
    },
    {
      "frame_id": 320,
      "sensor_timestamp": 12467222528722,
      "time_usec": 12467222528
    },
    {
      "frame_id": 321,
      "sensor_timestamp": 12467255775060,
      "time_usec": 12467255775
    },
    {
      "frame_id": 322,
      "sensor_timestamp": 12467289021398,
      "time_usec": 12467289021
    },
    {
      "frame_id": 323,
      "sensor_timestamp": 12467322267980,
      "time_usec": 12467322267
    },
    {
      "frame_id": 324,
      "sensor_timestamp": 12467355514318,
      "time_usec": 12467355514
    },
    {
      "frame_id": 325,
      "sensor_timestamp": 12467388760655,
      "time_usec": 12467388760
    },
    {
      "frame_id": 326,
      "sensor_timestamp": 12467422006993,
      "time_usec": 12467422006
    },
    {
      "frame_id": 327,
      "sensor_timestamp": 12467455253575,
      "time_usec": 12467455253
    },
    {
      "frame_id": 328,
      "sensor_timestamp": 12467488499913,
      "time_usec": 12467488499
    },
    {
      "frame_id": 329,
      "sensor_timestamp": 12467521746251,
      "time_usec": 12467521746
    },
    {
      "frame_id": 330,
      "sensor_timestamp": 12467554992589,
      "time_usec": 12467554992
    },
    {
      "frame_id": 331,
      "sensor_timestamp": 12467588239171,
      "time_usec": 12467588239
    },
    {
      "frame_id": 332,
      "sensor_timestamp": 12467621485509,
      "time_usec": 12467621485
    },
    {
      "frame_id": 333,
      "sensor_timestamp": 12467654731847,
      "time_usec": 12467654731
    },
    {
      "frame_id": 334,
      "sensor_timestamp": 12467687978185,
      "time_usec": 12467687978
    },
    {
      "frame_id": 335,
      "sensor_timestamp": 12467721224767,
      "time_usec": 12467721224
    },
    {
      "frame_id": 336,
      "sensor_timestamp": 12467754471105,
      "time_usec": 12467754471
    },
    {
      "frame_id": 337,
      "sensor_timestamp": 12467787717443,
      "time_usec": 12467787717
    },
    {
      "frame_id": 338,
      "sensor_timestamp": 12467820963780,
      "time_usec": 12467820963
    },
    {
      "frame_id": 339,
      "sensor_timestamp": 12467854210362,
      "time_usec": 12467854210
    },
    {
      "frame_id": 340,
      "sensor_timestamp": 12467887456700,
      "time_usec": 12467887456
    },
    {
      "frame_id": 341,
      "sensor_timestamp": 12467920703038,
      "time_usec": 12467920703
    },
    {
      "frame_id": 342,
      "sensor_timestamp": 12467953949376,
      "time_usec": 12467953949
    },
    {
      "frame_id": 343,
      "sensor_timestamp": 12467987195958,
      "time_usec": 12467987195
    },
    {
      "frame_id": 344,
      "sensor_timestamp": 12468020442296,
      "time_usec": 12468020442
    },
    {
      "frame_id": 345,
      "sensor_timestamp": 12468053688634,
      "time_usec": 12468053688
    },
    {
      "frame_id": 346,
      "sensor_timestamp": 12468086934972,
      "time_usec": 12468086934
    },
    {
      "frame_id": 347,
      "sensor_timestamp": 12468120181554,
      "time_usec": 12468120181
    },
    {
      "frame_id": 348,
      "sensor_timestamp": 12468153427892,
      "time_usec": 12468153427
    },
    {
      "frame_id": 349,
      "sensor_timestamp": 12468186674230,
      "time_usec": 12468186674
    },
    {
      "frame_id": 350,
      "sensor_timestamp": 12468219920568,
      "time_usec": 12468219920
    },
    {
      "frame_id": 351,
      "sensor_timestamp": 12468253167150,
      "time_usec": 12468253167
    },
    {
      "frame_id": 352,
      "sensor_timestamp": 12468286413487,
      "time_usec": 12468286413
    },
    {
      "frame_id": 353,
      "sensor_timestamp": 12468319659825,
      "time_usec": 12468319659
    },
    {
      "frame_id": 354,
      "sensor_timestamp": 12468352906163,
      "time_usec": 12468352906
    },
    {
      "frame_id": 355,
      "sensor_timestamp": 12468386152501,
      "time_usec": 12468386152
    },
    {
      "frame_id": 356,
      "sensor_timestamp": 12468419399083,
      "time_usec": 12468419399
    },
    {
      "frame_id": 357,
      "sensor_timestamp": 12468452645421,
      "time_usec": 12468452645
    },
    {
      "frame_id": 358,
      "sensor_timestamp": 12468485891759,
      "time_usec": 12468485891
    },
    {
      "frame_id": 359,
      "sensor_timestamp": 12468519138097,
      "time_usec": 12468519138
    },
    {
      "frame_id": 360,
      "sensor_timestamp": 12468552384679,
      "time_usec": 12468552384
    },
    {
      "frame_id": 361,
      "sensor_timestamp": 12468585631017,
      "time_usec": 12468585631
    },
    {
      "frame_id": 362,
      "sensor_timestamp": 12468618877355,
      "time_usec": 12468618877
    },
    {
      "frame_id": 363,
      "sensor_timestamp": 12468652123693,
      "time_usec": 12468652123
    },
    {
      "frame_id": 364,
      "sensor_timestamp": 12468685370275,
      "time_usec": 12468685370
    },
    {
      "frame_id": 365,
      "sensor_timestamp": 12468718616612,
      "time_usec": 12468718616
    },
    {
      "frame_id": 366,
      "sensor_timestamp": 12468751862950,
      "time_usec": 12468751862
    },
    {
      "frame_id": 367,
      "sensor_timestamp": 12468785109288,
      "time_usec": 12468785109
    },
    {
      "frame_id": 368,
      "sensor_timestamp": 12468818355870,
      "time_usec": 12468818355
    },
    {
      "frame_id": 369,
      "sensor_timestamp": 12468851602208,
      "time_usec": 12468851602
    },
    {
      "frame_id": 370,
      "sensor_timestamp": 12468884848546,
      "time_usec": 12468884848
    },
    {
      "frame_id": 371,
      "sensor_timestamp": 12468918094884,
      "time_usec": 12468918094
    },
    {
      "frame_id": 372,
      "sensor_timestamp": 12468951341466,
      "time_usec": 12468951341
    },
    {
      "frame_id": 373,
      "sensor_timestamp": 12468984587804,
      "time_usec": 12468984587
    },
    {
      "frame_id": 374,
      "sensor_timestamp": 12469017834142,
      "time_usec": 12469017834
    },
    {
      "frame_id": 375,
      "sensor_timestamp": 12469051080480,
      "time_usec": 12469051080
    },
    {
      "frame_id": 376,
      "sensor_timestamp": 12469084327062,
      "time_usec": 12469084327
    },
    {
      "frame_id": 377,
      "sensor_timestamp": 12469117573400,
      "time_usec": 12469117573
    },
    {
      "frame_id": 378,
      "sensor_timestamp": 12469150819737,
      "time_usec": 12469150819
    },
    {
      "frame_id": 379,
      "sensor_timestamp": 12469184066075,
      "time_usec": 12469184066
    },
    {
      "frame_id": 380,
      "sensor_timestamp": 12469217312657,
      "time_usec": 12469217312
    },
    {
      "frame_id": 381,
      "sensor_timestamp": 12469250558995,
      "time_usec": 12469250558
    },
    {
      "frame_id": 382,
      "sensor_timestamp": 12469283805333,
      "time_usec": 12469283805
    },
    {
      "frame_id": 383,
      "sensor_timestamp": 12469317051671,
      "time_usec": 12469317051
    },
    {
      "frame_id": 384,
      "sensor_timestamp": 12469350298253,
      "time_usec": 12469350298
    },
    {
      "frame_id": 385,
      "sensor_timestamp": 12469383544591,
      "time_usec": 12469383544
    },
    {
      "frame_id": 386,
      "sensor_timestamp": 12469416790929,
      "time_usec": 12469416790
    },
    {
      "frame_id": 387,
      "sensor_timestamp": 12469450037267,
      "time_usec": 12469450037
    },
    {
      "frame_id": 388,
      "sensor_timestamp": 12469483283849,
      "time_usec": 12469483283
    },
    {
      "frame_id": 389,
      "sensor_timestamp": 12469516530187,
      "time_usec": 12469516530
    },
    {
      "frame_id": 390,
      "sensor_timestamp": 12469549776525,
      "time_usec": 12469549776
    },
    {
      "frame_id": 391,
      "sensor_timestamp": 12469583022862,
      "time_usec": 12469583022
    },
    {
      "frame_id": 392,
      "sensor_timestamp": 12469616269200,
      "time_usec": 12469616269
    },
    {
      "frame_id": 393,
      "sensor_timestamp": 12469649515782,
      "time_usec": 12469649515
    },
    {
      "frame_id": 394,
      "sensor_timestamp": 12469682762120,
      "time_usec": 12469682762
    },
    {
      "frame_id": 395,
      "sensor_timestamp": 12469716008458,
      "time_usec": 12469716008
    },
    {
      "frame_id": 396,
      "sensor_timestamp": 12469749254796,
      "time_usec": 12469749254
    },
    {
      "frame_id": 397,
      "sensor_timestamp": 12469782501378,
      "time_usec": 12469782501
    },
    {
      "frame_id": 398,
      "sensor_timestamp": 12469815747716,
      "time_usec": 12469815747
    },
    {
      "frame_id": 399,
      "sensor_timestamp": 12469848994054,
      "time_usec": 12469848994
    },
    {
      "frame_id": 400,
      "sensor_timestamp": 12469882240392,
      "time_usec": 12469882240
    },
    {
      "frame_id": 401,
      "sensor_timestamp": 12469915486974,
      "time_usec": 12469915486
    },
    {
      "frame_id": 402,
      "sensor_timestamp": 12469948733312,
      "time_usec": 12469948733
    },
    {
      "frame_id": 403,
      "sensor_timestamp": 12469981979650,
      "time_usec": 12469981979
    },
    {
      "frame_id": 404,
      "sensor_timestamp": 12470015225987,
      "time_usec": 12470015225
    },
    {
      "frame_id": 405,
      "sensor_timestamp": 12470048472569,
      "time_usec": 12470048472
    },
    {
      "frame_id": 406,
      "sensor_timestamp": 12470081718907,
      "time_usec": 12470081718
    },
    {
      "frame_id": 407,
      "sensor_timestamp": 12470114965245,
      "time_usec": 12470114965
    },
    {
      "frame_id": 408,
      "sensor_timestamp": 12470148211583,
      "time_usec": 12470148211
    },
    {
      "frame_id": 409,
      "sensor_timestamp": 12470181458165,
      "time_usec": 12470181458
    },
    {
      "frame_id": 410,
      "sensor_timestamp": 12470214704503,
      "time_usec": 12470214704
    },
    {
      "frame_id": 411,
      "sensor_timestamp": 12470247950841,
      "time_usec": 12470247950
    },
    {
      "frame_id": 412,
      "sensor_timestamp": 12470281197179,
      "time_usec": 12470281197
    },
    {
      "frame_id": 413,
      "sensor_timestamp": 12470314443761,
      "time_usec": 12470314443
    },
    {
      "frame_id": 414,
      "sensor_timestamp": 12470347690099,
      "time_usec": 12470347690
    },
    {
      "frame_id": 415,
      "sensor_timestamp": 12470380936437,
      "time_usec": 12470380936
    },
    {
      "frame_id": 416,
      "sensor_timestamp": 12470414182775,
      "time_usec": 12470414182
    },
    {
      "frame_id": 417,
      "sensor_timestamp": 12470447429357,
      "time_usec": 12470447429
    },
    {
      "frame_id": 418,
      "sensor_timestamp": 12470480675694,
      "time_usec": 12470480675
    },
    {
      "frame_id": 419,
      "sensor_timestamp": 12470513922032,
      "time_usec": 12470513922
    },
    {
      "frame_id": 420,
      "sensor_timestamp": 12470547168370,
      "time_usec": 12470547168
    },
    {
      "frame_id": 421,
      "sensor_timestamp": 12470580414952,
      "time_usec": 12470580414
    },
    {
      "frame_id": 422,
      "sensor_timestamp": 12470613661290,
      "time_usec": 12470613661
    },
    {
      "frame_id": 423,
      "sensor_timestamp": 12470646907628,
      "time_usec": 12470646907
    },
    {
      "frame_id": 424,
      "sensor_timestamp": 12470680153966,
      "time_usec": 12470680153
    },
    {
      "frame_id": 425,
      "sensor_timestamp": 12470713400548,
      "time_usec": 12470713400
    },
    {
      "frame_id": 426,
      "sensor_timestamp": 12470746646886,
      "time_usec": 12470746646
    },
    {
      "frame_id": 427,
      "sensor_timestamp": 12470779893224,
      "time_usec": 12470779893
    },
    {
      "frame_id": 428,
      "sensor_timestamp": 12470813139562,
      "time_usec": 12470813139
    },
    {
      "frame_id": 429,
      "sensor_timestamp": 12470846385900,
      "time_usec": 12470846385
    },
    {
      "frame_id": 430,
      "sensor_timestamp": 12470879632482,
      "time_usec": 12470879632
    },
    {
      "frame_id": 431,
      "sensor_timestamp": 12470912878819,
      "time_usec": 12470912878
    },
    {
      "frame_id": 432,
      "sensor_timestamp": 12470946125157,
      "time_usec": 12470946125
    },
    {
      "frame_id": 433,
      "sensor_timestamp": 12470979371495,
      "time_usec": 12470979371
    },
    {
      "frame_id": 434,
      "sensor_timestamp": 12471012618077,
      "time_usec": 12471012618
    },
    {
      "frame_id": 435,
      "sensor_timestamp": 12471045864415,
      "time_usec": 12471045864
    },
    {
      "frame_id": 436,
      "sensor_timestamp": 12471079110753,
      "time_usec": 12471079110
    },
    {
      "frame_id": 437,
      "sensor_timestamp": 12471112357091,
      "time_usec": 12471112357
    },
    {
      "frame_id": 438,
      "sensor_timestamp": 12471145603673,
      "time_usec": 12471145603
    },
    {
      "frame_id": 439,
      "sensor_timestamp": 12471178850011,
      "time_usec": 12471178850
    },
    {
      "frame_id": 440,
      "sensor_timestamp": 12471212096349,
      "time_usec": 12471212096
    },
    {
      "frame_id": 441,
      "sensor_timestamp": 12471245342687,
      "time_usec": 12471245342
    },
    {
      "frame_id": 442,
      "sensor_timestamp": 12471278589269,
      "time_usec": 12471278589
    },
    {
      "frame_id": 443,
      "sensor_timestamp": 12471311835607,
      "time_usec": 12471311835
    },
    {
      "frame_id": 444,
      "sensor_timestamp": 12471345081944,
      "time_usec": 12471345081
    },
    {
      "frame_id": 445,
      "sensor_timestamp": 12471378328282,
      "time_usec": 12471378328
    },
    {
      "frame_id": 446,
      "sensor_timestamp": 12471411574864,
      "time_usec": 12471411574
    },
    {
      "frame_id": 447,
      "sensor_timestamp": 12471444821202,
      "time_usec": 12471444821
    },
    {
      "frame_id": 448,
      "sensor_timestamp": 12471478067540,
      "time_usec": 12471478067
    },
    {
      "frame_id": 449,
      "sensor_timestamp": 12471511313878,
      "time_usec": 12471511313
    },
    {
      "frame_id": 450,
      "sensor_timestamp": 12471544560460,
      "time_usec": 12471544560
    },
    {
      "frame_id": 451,
      "sensor_timestamp": 12471577806798,
      "time_usec": 12471577806
    },
    {
      "frame_id": 452,
      "sensor_timestamp": 12471611053136,
      "time_usec": 12471611053
    },
    {
      "frame_id": 453,
      "sensor_timestamp": 12471644299474,
      "time_usec": 12471644299
    },
    {
      "frame_id": 454,
      "sensor_timestamp": 12471677546056,
      "time_usec": 12471677546
    },
    {
      "frame_id": 455,
      "sensor_timestamp": 12471710792394,
      "time_usec": 12471710792
    },
    {
      "frame_id": 456,
      "sensor_timestamp": 12471744038732,
      "time_usec": 12471744038
    },
    {
      "frame_id": 457,
      "sensor_timestamp": 12471777285069,
      "time_usec": 12471777285
    },
    {
      "frame_id": 458,
      "sensor_timestamp": 12471810531652,
      "time_usec": 12471810531
    },
    {
      "frame_id": 459,
      "sensor_timestamp": 12471843777989,
      "time_usec": 12471843777
    },
    {
      "frame_id": 460,
      "sensor_timestamp": 12471877024327,
      "time_usec": 12471877024
    },
    {
      "frame_id": 461,
      "sensor_timestamp": 12471910270665,
      "time_usec": 12471910270
    },
    {
      "frame_id": 462,
      "sensor_timestamp": 12471943517247,
      "time_usec": 12471943517
    },
    {
      "frame_id": 463,
      "sensor_timestamp": 12471976763585,
      "time_usec": 12471976763
    },
    {
      "frame_id": 464,
      "sensor_timestamp": 12472010009923,
      "time_usec": 12472010009
    },
    {
      "frame_id": 465,
      "sensor_timestamp": 12472043256261,
      "time_usec": 12472043256
    },
    {
      "frame_id": 466,
      "sensor_timestamp": 12472076502599,
      "time_usec": 12472076502
    },
    {
      "frame_id": 467,
      "sensor_timestamp": 12472109749181,
      "time_usec": 12472109749
    },
    {
      "frame_id": 468,
      "sensor_timestamp": 12472142995519,
      "time_usec": 12472142995
    },
    {
      "frame_id": 469,
      "sensor_timestamp": 12472176241857,
      "time_usec": 12472176241
    },
    {
      "frame_id": 470,
      "sensor_timestamp": 12472209488194,
      "time_usec": 12472209488
    },
    {
      "frame_id": 471,
      "sensor_timestamp": 12472242734777,
      "time_usec": 12472242734
    },
    {
      "frame_id": 472,
      "sensor_timestamp": 12472275981114,
      "time_usec": 12472275981
    },
    {
      "frame_id": 473,
      "sensor_timestamp": 12472309227452,
      "time_usec": 12472309227
    },
    {
      "frame_id": 474,
      "sensor_timestamp": 12472342473790,
      "time_usec": 12472342473
    },
    {
      "frame_id": 475,
      "sensor_timestamp": 12472375720372,
      "time_usec": 12472375720
    },
    {
      "frame_id": 476,
      "sensor_timestamp": 12472408966710,
      "time_usec": 12472408966
    },
    {
      "frame_id": 477,
      "sensor_timestamp": 12472442213048,
      "time_usec": 12472442213
    },
    {
      "frame_id": 478,
      "sensor_timestamp": 12472475459386,
      "time_usec": 12472475459
    },
    {
      "frame_id": 479,
      "sensor_timestamp": 12472508705968,
      "time_usec": 12472508705
    },
    {
      "frame_id": 480,
      "sensor_timestamp": 12472541952306,
      "time_usec": 12472541952
    },
    {
      "frame_id": 481,
      "sensor_timestamp": 12472575198644,
      "time_usec": 12472575198
    },
    {
      "frame_id": 482,
      "sensor_timestamp": 12472608444982,
      "time_usec": 12472608444
    },
    {
      "frame_id": 483,
      "sensor_timestamp": 12472641691564,
      "time_usec": 12472641691
    },
    {
      "frame_id": 484,
      "sensor_timestamp": 12472674937902,
      "time_usec": 12472674937
    },
    {
      "frame_id": 485,
      "sensor_timestamp": 12472708184239,
      "time_usec": 12472708184
    },
    {
      "frame_id": 486,
      "sensor_timestamp": 12472742752435,
      "time_usec": 12472742752
    },
    {
      "frame_id": 487,
      "sensor_timestamp": 12472774677159,
      "time_usec": 12472774677
    },
    {
      "frame_id": 488,
      "sensor_timestamp": 12472807923497,
      "time_usec": 12472807923
    },
    {
      "frame_id": 489,
      "sensor_timestamp": 12472841169835,
      "time_usec": 12472841169
    },
    {
      "frame_id": 490,
      "sensor_timestamp": 12472874416173,
      "time_usec": 12472874416
    },
    {
      "frame_id": 491,
      "sensor_timestamp": 12472907608555,
      "time_usec": 12472907608
    },
    {
      "frame_id": 492,
      "sensor_timestamp": 12472940909093,
      "time_usec": 12472940909
    },
    {
      "frame_id": 493,
      "sensor_timestamp": 12472974155431,
      "time_usec": 12472974155
    },
    {
      "frame_id": 494,
      "sensor_timestamp": 12473007401769,
      "time_usec": 12473007401
    },
    {
      "frame_id": 495,
      "sensor_timestamp": 12473040648351,
      "time_usec": 12473040648
    },
    {
      "frame_id": 496,
      "sensor_timestamp": 12473073894689,
      "time_usec": 12473073894
    },
    {
      "frame_id": 497,
      "sensor_timestamp": 12473107141027,
      "time_usec": 12473107141
    },
    {
      "frame_id": 498,
      "sensor_timestamp": 12473140387364,
      "time_usec": 12473140387
    },
    {
      "frame_id": 499,
      "sensor_timestamp": 12473173633946,
      "time_usec": 12473173633
    },
    {
      "frame_id": 500,
      "sensor_timestamp": 12473206880284,
      "time_usec": 12473206880
    },
    {
      "frame_id": 501,
      "sensor_timestamp": 12473240126622,
      "time_usec": 12473240126
    },
    {
      "frame_id": 502,
      "sensor_timestamp": 12473273372960,
      "time_usec": 12473273372
    },
    {
      "frame_id": 503,
      "sensor_timestamp": 12473306619298,
      "time_usec": 12473306619
    },
    {
      "frame_id": 504,
      "sensor_timestamp": 12473339865880,
      "time_usec": 12473339865
    },
    {
      "frame_id": 505,
      "sensor_timestamp": 12473373112218,
      "time_usec": 12473373112
    },
    {
      "frame_id": 506,
      "sensor_timestamp": 12473406358556,
      "time_usec": 12473406358
    },
    {
      "frame_id": 507,
      "sensor_timestamp": 12473439604894,
      "time_usec": 12473439604
    },
    {
      "frame_id": 508,
      "sensor_timestamp": 12473472851476,
      "time_usec": 12473472851
    },
    {
      "frame_id": 509,
      "sensor_timestamp": 12473506097814,
      "time_usec": 12473506097
    },
    {
      "frame_id": 510,
      "sensor_timestamp": 12473539344152,
      "time_usec": 12473539344
    },
    {
      "frame_id": 511,
      "sensor_timestamp": 12473572590489,
      "time_usec": 12473572590
    },
    {
      "frame_id": 512,
      "sensor_timestamp": 12473605837071,
      "time_usec": 12473605837
    },
    {
      "frame_id": 513,
      "sensor_timestamp": 12473639083409,
      "time_usec": 12473639083
    },
    {
      "frame_id": 514,
      "sensor_timestamp": 12473672329747,
      "time_usec": 12473672329
    },
    {
      "frame_id": 515,
      "sensor_timestamp": 12473705576085,
      "time_usec": 12473705576
    },
    {
      "frame_id": 516,
      "sensor_timestamp": 12473738822667,
      "time_usec": 12473738822
    },
    {
      "frame_id": 517,
      "sensor_timestamp": 12473772069005,
      "time_usec": 12473772069
    },
    {
      "frame_id": 518,
      "sensor_timestamp": 12473805315343,
      "time_usec": 12473805315
    },
    {
      "frame_id": 519,
      "sensor_timestamp": 12473838561681,
      "time_usec": 12473838561
    },
    {
      "frame_id": 520,
      "sensor_timestamp": 12473871808263,
      "time_usec": 12473871808
    },
    {
      "frame_id": 521,
      "sensor_timestamp": 12473905054601,
      "time_usec": 12473905054
    },
    {
      "frame_id": 522,
      "sensor_timestamp": 12473938300939,
      "time_usec": 12473938300
    },
    {
      "frame_id": 523,
      "sensor_timestamp": 12473971547277,
      "time_usec": 12473971547
    },
    {
      "frame_id": 524,
      "sensor_timestamp": 12474004793859,
      "time_usec": 12474004793
    },
    {
      "frame_id": 525,
      "sensor_timestamp": 12474038040196,
      "time_usec": 12474038040
    },
    {
      "frame_id": 526,
      "sensor_timestamp": 12474071286534,
      "time_usec": 12474071286
    },
    {
      "frame_id": 527,
      "sensor_timestamp": 12474104532872,
      "time_usec": 12474104532
    },
    {
      "frame_id": 528,
      "sensor_timestamp": 12474137779454,
      "time_usec": 12474137779
    },
    {
      "frame_id": 529,
      "sensor_timestamp": 12474171025792,
      "time_usec": 12474171025
    },
    {
      "frame_id": 530,
      "sensor_timestamp": 12474204272130,
      "time_usec": 12474204272
    },
    {
      "frame_id": 531,
      "sensor_timestamp": 12474237518468,
      "time_usec": 12474237518
    },
    {
      "frame_id": 532,
      "sensor_timestamp": 12474270765050,
      "time_usec": 12474270765
    },
    {
      "frame_id": 533,
      "sensor_timestamp": 12474304011388,
      "time_usec": 12474304011
    },
    {
      "frame_id": 534,
      "sensor_timestamp": 12474337257726,
      "time_usec": 12474337257
    },
    {
      "frame_id": 535,
      "sensor_timestamp": 12474370504064,
      "time_usec": 12474370504
    },
    {
      "frame_id": 536,
      "sensor_timestamp": 12474403750646,
      "time_usec": 12474403750
    },
    {
      "frame_id": 537,
      "sensor_timestamp": 12474436996984,
      "time_usec": 12474436996
    },
    {
      "frame_id": 538,
      "sensor_timestamp": 12474470243321,
      "time_usec": 12474470243
    },
    {
      "frame_id": 539,
      "sensor_timestamp": 12474503489659,
      "time_usec": 12474503489
    },
    {
      "frame_id": 540,
      "sensor_timestamp": 12474536735997,
      "time_usec": 12474536735
    },
    {
      "frame_id": 541,
      "sensor_timestamp": 12474569982579,
      "time_usec": 12474569982
    },
    {
      "frame_id": 542,
      "sensor_timestamp": 12474603228917,
      "time_usec": 12474603228
    },
    {
      "frame_id": 543,
      "sensor_timestamp": 12474636475255,
      "time_usec": 12474636475
    },
    {
      "frame_id": 544,
      "sensor_timestamp": 12474669721593,
      "time_usec": 12474669721
    },
    {
      "frame_id": 545,
      "sensor_timestamp": 12474702968175,
      "time_usec": 12474702968
    },
    {
      "frame_id": 546,
      "sensor_timestamp": 12474736214513,
      "time_usec": 12474736214
    },
    {
      "frame_id": 547,
      "sensor_timestamp": 12474769460851,
      "time_usec": 12474769460
    },
    {
      "frame_id": 548,
      "sensor_timestamp": 12474802707189,
      "time_usec": 12474802707
    },
    {
      "frame_id": 549,
      "sensor_timestamp": 12474835953771,
      "time_usec": 12474835953
    },
    {
      "frame_id": 550,
      "sensor_timestamp": 12474869200109,
      "time_usec": 12474869200
    },
    {
      "frame_id": 551,
