{
  "frames": [
    {
      "frame_id": 0,
      "sensor_timestamp": 4573021366857,
      "time_usec": 4573021366
    },
    {
      "frame_id": 1,
      "sensor_timestamp": 4573087859532,
      "time_usec": 4573087859
    },
    {
      "frame_id": 2,
      "sensor_timestamp": 4573121106114,
      "time_usec": 4573121106
    },
    {
      "frame_id": 3,
      "sensor_timestamp": 4573154352452,
      "time_usec": 4573154352
    },
    {
      "frame_id": 4,
      "sensor_timestamp": 4573187598790,
      "time_usec": 4573187598
    },
    {
      "frame_id": 5,
      "sensor_timestamp": 4573220845128,
      "time_usec": 4573220845
    },
    {
      "frame_id": 6,
      "sensor_timestamp": 4573254091710,
      "time_usec": 4573254091
    },
    {
      "frame_id": 7,
      "sensor_timestamp": 4573287338048,
      "time_usec": 4573287338
    },
    {
      "frame_id": 8,
      "sensor_timestamp": 4573320584386,
      "time_usec": 4573320584
    },
    {
      "frame_id": 9,
      "sensor_timestamp": 4573353830724,
      "time_usec": 4573353830
    },
    {
      "frame_id": 10,
      "sensor_timestamp": 4573387077306,
      "time_usec": 4573387077
    },
    {
      "frame_id": 11,
      "sensor_timestamp": 4573420323644,
      "time_usec": 4573420323
    },
    {
      "frame_id": 12,
      "sensor_timestamp": 4573453569982,
      "time_usec": 4573453569
    },
    {
      "frame_id": 13,
      "sensor_timestamp": 4573486816319,
      "time_usec": 4573486816
    },
    {
      "frame_id": 14,
      "sensor_timestamp": 4573520062902,
      "time_usec": 4573520062
    },
    {
      "frame_id": 15,
      "sensor_timestamp": 4573553309239,
      "time_usec": 4573553309
    },
    {
      "frame_id": 16,
      "sensor_timestamp": 4573586555577,
      "time_usec": 4573586555
    },
    {
      "frame_id": 17,
      "sensor_timestamp": 4573619801915,
      "time_usec": 4573619801
    },
    {
      "frame_id": 18,
      "sensor_timestamp": 4573653048497,
      "time_usec": 4573653048
    },
    {
      "frame_id": 19,
      "sensor_timestamp": 4573686294835,
      "time_usec": 4573686294
    },
    {
      "frame_id": 20,
      "sensor_timestamp": 4573719541173,
      "time_usec": 4573719541
    },
    {
      "frame_id": 21,
      "sensor_timestamp": 4573752787511,
      "time_usec": 4573752787
    },
    {
      "frame_id": 22,
      "sensor_timestamp": 4573786034093,
      "time_usec": 4573786034
    },
    {
      "frame_id": 23,
      "sensor_timestamp": 4573819280431,
      "time_usec": 4573819280
    },
    {
      "frame_id": 24,
      "sensor_timestamp": 4573852469748,
      "time_usec": 4573852469
    },
    {
      "frame_id": 25,
      "sensor_timestamp": 4573885773107,
      "time_usec": 4573885773
    },
    {
      "frame_id": 26,
      "sensor_timestamp": 4573919019689,
      "time_usec": 4573919019
    },
    {
      "frame_id": 27,
      "sensor_timestamp": 4573952266027,
      "time_usec": 4573952266
    },
    {
      "frame_id": 28,
      "sensor_timestamp": 4573985512364,
      "time_usec": 4573985512
    },
    {
      "frame_id": 29,
      "sensor_timestamp": 4574018758702,
      "time_usec": 4574018758
    },
    {
      "frame_id": 30,
      "sensor_timestamp": 4574052005284,
      "time_usec": 4574052005
    },
    {
      "frame_id": 31,
      "sensor_timestamp": 4574085251622,
      "time_usec": 4574085251
    },
    {
      "frame_id": 32,
      "sensor_timestamp": 4574118497960,
      "time_usec": 4574118497
    },
    {
      "frame_id": 33,
      "sensor_timestamp": 4574151744298,
      "time_usec": 4574151744
    },
    {
      "frame_id": 34,
      "sensor_timestamp": 4574184990880,
      "time_usec": 4574184990
    },
    {
      "frame_id": 35,
      "sensor_timestamp": 4574218237218,
      "time_usec": 4574218237
    },
    {
      "frame_id": 36,
      "sensor_timestamp": 4574251483556,
      "time_usec": 4574251483
    },
    {
      "frame_id": 37,
      "sensor_timestamp": 4574284729894,
      "time_usec": 4574284729
    },
    {
      "frame_id": 38,
      "sensor_timestamp": 4574317976232,
      "time_usec": 4574317976
    },
    {
      "frame_id": 39,
      "sensor_timestamp": 4574351222814,
      "time_usec": 4574351222
    },
    {
      "frame_id": 40,
      "sensor_timestamp": 4574384469152,
      "time_usec": 4574384469
    },
    {
      "frame_id": 41,
      "sensor_timestamp": 4574417715489,
      "time_usec": 4574417715
    },
    {
      "frame_id": 42,
      "sensor_timestamp": 4574450961827,
      "time_usec": 4574450961
    },
    {
      "frame_id": 43,
      "sensor_timestamp": 4574484208409,
      "time_usec": 4574484208
    },
    {
      "frame_id": 44,
      "sensor_timestamp": 4574517454747,
      "time_usec": 4574517454
    },
    {
      "frame_id": 45,
      "sensor_timestamp": 4574550701085,
      "time_usec": 4574550701
    },
    {
      "frame_id": 46,
      "sensor_timestamp": 4574584067649,
      "time_usec": 4574584067
    },
    {
      "frame_id": 47,
      "sensor_timestamp": 4574617194005,
      "time_usec": 4574617194
    },
    {
      "frame_id": 48,
      "sensor_timestamp": 4574650440343,
      "time_usec": 4574650440
    },
    {
      "frame_id": 49,
      "sensor_timestamp": 4574683686681,
      "time_usec": 4574683686
    },
    {
      "frame_id": 50,
      "sensor_timestamp": 4574716933019,
      "time_usec": 4574716933
    },
    {
      "frame_id": 51,
      "sensor_timestamp": 4574750179601,
      "time_usec": 4574750179
    },
    {
      "frame_id": 52,
      "sensor_timestamp": 4574783425939,
      "time_usec": 4574783425
    },
    {
      "frame_id": 53,
      "sensor_timestamp": 4574816672277,
      "time_usec": 4574816672
    },
    {
      "frame_id": 54,
      "sensor_timestamp": 4574849918614,
      "time_usec": 4574849918
    },
    {
      "frame_id": 55,
      "sensor_timestamp": 4574883165196,
      "time_usec": 4574883165
    },
    {
      "frame_id": 56,
      "sensor_timestamp": 4574916411534,
      "time_usec": 4574916411
    },
    {
      "frame_id": 57,
      "sensor_timestamp": 4574949657872,
      "time_usec": 4574949657
    },
    {
      "frame_id": 58,
      "sensor_timestamp": 4574982904210,
      "time_usec": 4574982904
    },
    {
      "frame_id": 59,
      "sensor_timestamp": 4575016150792,
      "time_usec": 4575016150
    },
    {
      "frame_id": 60,
      "sensor_timestamp": 4575049397130,
      "time_usec": 4575049397
    },
    {
      "frame_id": 61,
      "sensor_timestamp": 4575082643468,
      "time_usec": 4575082643
    },
    {
      "frame_id": 62,
      "sensor_timestamp": 4575115889806,
      "time_usec": 4575115889
    },
    {
      "frame_id": 63,
      "sensor_timestamp": 4575149136388,
      "time_usec": 4575149136
    },
    {
      "frame_id": 64,
      "sensor_timestamp": 4575182382726,
      "time_usec": 4575182382
    },
    {
      "frame_id": 65,
      "sensor_timestamp": 4575215629064,
      "time_usec": 4575215629
    },
    {
      "frame_id": 66,
      "sensor_timestamp": 4575248875402,
      "time_usec": 4575248875
    },
    {
      "frame_id": 67,
      "sensor_timestamp": 4575282121984,
      "time_usec": 4575282121
    },
    {
      "frame_id": 68,
      "sensor_timestamp": 4575315368321,
      "time_usec": 4575315368
    },
    {
      "frame_id": 69,
      "sensor_timestamp": 4575348614659,
      "time_usec": 4575348614
    },
    {
      "frame_id": 70,
      "sensor_timestamp": 4575381860997,
      "time_usec": 4575381860
    },
    {
      "frame_id": 71,
      "sensor_timestamp": 4575415107335,
      "time_usec": 4575415107
    },
    {
      "frame_id": 72,
      "sensor_timestamp": 4575448353917,
      "time_usec": 4575448353
    },
    {
      "frame_id": 73,
      "sensor_timestamp": 4575481600255,
      "time_usec": 4575481600
    },
    {
      "frame_id": 74,
      "sensor_timestamp": 4575514846593,
      "time_usec": 4575514846
    },
    {
      "frame_id": 75,
      "sensor_timestamp": 4575548092931,
      "time_usec": 4575548092
    },
    {
      "frame_id": 76,
      "sensor_timestamp": 4575581339513,
      "time_usec": 4575581339
    },
    {
      "frame_id": 77,
      "sensor_timestamp": 4575614585851,
      "time_usec": 4575614585
    },
    {
      "frame_id": 78,
      "sensor_timestamp": 4575647832189,
      "time_usec": 4575647832
    },
    {
      "frame_id": 79,
      "sensor_timestamp": 4575681078527,
      "time_usec": 4575681078
    },
    {
      "frame_id": 80,
      "sensor_timestamp": 4575714325109,
      "time_usec": 4575714325
    },
    {
      "frame_id": 81,
      "sensor_timestamp": 4575747571446,
      "time_usec": 4575747571
    },
    {
      "frame_id": 82,
      "sensor_timestamp": 4575780817784,
      "time_usec": 4575780817
    },
    {
      "frame_id": 83,
      "sensor_timestamp": 4575814064122,
      "time_usec": 4575814064
    },
    {
      "frame_id": 84,
      "sensor_timestamp": 4575847310704,
      "time_usec": 4575847310
    },
    {
      "frame_id": 85,
      "sensor_timestamp": 4575880557042,
      "time_usec": 4575880557
    },
    {
      "frame_id": 86,
      "sensor_timestamp": 4575913803380,
      "time_usec": 4575913803
    },
    {
      "frame_id": 87,
      "sensor_timestamp": 4575946995303,
      "time_usec": 4575946995
    },
    {
      "frame_id": 88,
      "sensor_timestamp": 4575980296300,
      "time_usec": 4575980296
    },
    {
      "frame_id": 89,
      "sensor_timestamp": 4576013542638,
      "time_usec": 4576013542
    },
    {
      "frame_id": 90,
      "sensor_timestamp": 4576046788976,
      "time_usec": 4576046788
    },
    {
      "frame_id": 91,
      "sensor_timestamp": 4576080035314,
      "time_usec": 4576080035
    },
    {
      "frame_id": 92,
      "sensor_timestamp": 4576113281896,
      "time_usec": 4576113281
    },
    {
      "frame_id": 93,
      "sensor_timestamp": 4576146528234,
      "time_usec": 4576146528
    },
    {
      "frame_id": 94,
      "sensor_timestamp": 4576179774571,
      "time_usec": 4576179774
    },
    {
      "frame_id": 95,
      "sensor_timestamp": 4576213020909,
      "time_usec": 4576213020
    },
    {
      "frame_id": 96,
      "sensor_timestamp": 4576246267491,
      "time_usec": 4576246267
    },
    {
      "frame_id": 97,
      "sensor_timestamp": 4576279513829,
      "time_usec": 4576279513
    },
    {
      "frame_id": 98,
      "sensor_timestamp": 4576312760167,
      "time_usec": 4576312760
    },
    {
      "frame_id": 99,
      "sensor_timestamp": 4576346006505,
      "time_usec": 4576346006
    },
    {
      "frame_id": 100,
      "sensor_timestamp": 4576379253087,
      "time_usec": 4576379253
    },
    {
      "frame_id": 101,
      "sensor_timestamp": 4576412499425,
      "time_usec": 4576412499
    },
    {
      "frame_id": 102,
      "sensor_timestamp": 4576445745763,
      "time_usec": 4576445745
    },
    {
      "frame_id": 103,
      "sensor_timestamp": 4576478992101,
      "time_usec": 4576478992
    },
    {
      "frame_id": 104,
      "sensor_timestamp": 4576512238683,
      "time_usec": 4576512238
    },
    {
      "frame_id": 105,
      "sensor_timestamp": 4576545485021,
      "time_usec": 4576545485
    },
    {
      "frame_id": 106,
      "sensor_timestamp": 4576578731359,
      "time_usec": 4576578731
    },
    {
      "frame_id": 107,
      "sensor_timestamp": 4576611977696,
      "time_usec": 4576611977
    },
    {
      "frame_id": 108,
      "sensor_timestamp": 4576645224034,
      "time_usec": 4576645224
    },
    {
      "frame_id": 109,
      "sensor_timestamp": 4576678470616,
      "time_usec": 4576678470
    },
    {
      "frame_id": 110,
      "sensor_timestamp": 4576711716954,
      "time_usec": 4576711716
    },
    {
      "frame_id": 111,
      "sensor_timestamp": 4576744963292,
      "time_usec": 4576744963
    },
    {
      "frame_id": 112,
      "sensor_timestamp": 4576778209630,
      "time_usec": 4576778209
    },
    {
      "frame_id": 113,
      "sensor_timestamp": 4576811456212,
      "time_usec": 4576811456
    },
    {
      "frame_id": 114,
      "sensor_timestamp": 4576844702550,
      "time_usec": 4576844702
    },
    {
      "frame_id": 115,
      "sensor_timestamp": 4576877948888,
      "time_usec": 4576877948
    },
    {
      "frame_id": 116,
      "sensor_timestamp": 4576911195226,
      "time_usec": 4576911195
    },
    {
      "frame_id": 117,
      "sensor_timestamp": 4576944441808,
      "time_usec": 4576944441
    },
    {
      "frame_id": 118,
      "sensor_timestamp": 4576977688146,
      "time_usec": 4576977688
    },
    {
      "frame_id": 119,
      "sensor_timestamp": 4577010934484,
      "time_usec": 4577010934
    },
    {
      "frame_id": 120,
      "sensor_timestamp": 4577044180821,
      "time_usec": 4577044180
    },
    {
      "frame_id": 121,
      "sensor_timestamp": 4577077427403,
      "time_usec": 4577077427
    },
    {
      "frame_id": 122,
      "sensor_timestamp": 4577110673741,
      "time_usec": 4577110673
    },
    {
      "frame_id": 123,
      "sensor_timestamp": 4577143920079,
      "time_usec": 4577143920
    },
    {
      "frame_id": 124,
      "sensor_timestamp": 4577177166417,
      "time_usec": 4577177166
    },
    {
      "frame_id": 125,
      "sensor_timestamp": 4577210412999,
      "time_usec": 4577210412
    },
    {
      "frame_id": 126,
      "sensor_timestamp": 4577243659337,
      "time_usec": 4577243659
    },
    {
      "frame_id": 127,
      "sensor_timestamp": 4577276905675,
      "time_usec": 4577276905
    },
    {
      "frame_id": 128,
      "sensor_timestamp": 4577310152013,
      "time_usec": 4577310152
    },
    {
      "frame_id": 129,
      "sensor_timestamp": 4577343398595,
      "time_usec": 4577343398
    },
    {
      "frame_id": 130,
      "sensor_timestamp": 4577376644933,
      "time_usec": 4577376644
    },
    {
      "frame_id": 131,
      "sensor_timestamp": 4577409891271,
      "time_usec": 4577409891
    },
    {
      "frame_id": 132,
      "sensor_timestamp": 4577443137609,
      "time_usec": 4577443137
    },
    {
      "frame_id": 133,
      "sensor_timestamp": 4577476384191,
      "time_usec": 4577476384
    },
    {
      "frame_id": 134,
      "sensor_timestamp": 4577509630528,
      "time_usec": 4577509630
    },
    {
      "frame_id": 135,
      "sensor_timestamp": 4577542876866,
      "time_usec": 4577542876
    },
    {
      "frame_id": 136,
      "sensor_timestamp": 4577576123204,
      "time_usec": 4577576123
    },
    {
      "frame_id": 137,
      "sensor_timestamp": 4577609345808,
      "time_usec": 4577609345
    },
    {
      "frame_id": 138,
      "sensor_timestamp": 4577642616124,
      "time_usec": 4577642616
    },
    {
      "frame_id": 139,
      "sensor_timestamp": 4577675862462,
      "time_usec": 4577675862
    },
    {
      "frame_id": 140,
      "sensor_timestamp": 4577709108800,
      "time_usec": 4577709108
    },
    {
      "frame_id": 141,
      "sensor_timestamp": 4577742355382,
      "time_usec": 4577742355
    },
    {
      "frame_id": 142,
      "sensor_timestamp": 4577775601720,
      "time_usec": 4577775601
    },
    {
      "frame_id": 143,
      "sensor_timestamp": 4577808848058,
      "time_usec": 4577808848
    },
    {
      "frame_id": 144,
      "sensor_timestamp": 4577842094396,
      "time_usec": 4577842094
    },
    {
      "frame_id": 145,
      "sensor_timestamp": 4577875340734,
      "time_usec": 4577875340
    },
    {
      "frame_id": 146,
      "sensor_timestamp": 4577908587316,
      "time_usec": 4577908587
    },
    {
      "frame_id": 147,
      "sensor_timestamp": 4577941833653,
      "time_usec": 4577941833
    },
    {
      "frame_id": 148,
      "sensor_timestamp": 4577975079991,
      "time_usec": 4577975079
    },
    {
      "frame_id": 149,
      "sensor_timestamp": 4578008326329,
      "time_usec": 4578008326
    },
    {
      "frame_id": 150,
      "sensor_timestamp": 4578041572911,
      "time_usec": 4578041572
    },
    {
      "frame_id": 151,
      "sensor_timestamp": 4578074819249,
      "time_usec": 4578074819
    },
    {
      "frame_id": 152,
      "sensor_timestamp": 4578108065587,
      "time_usec": 4578108065
    },
    {
      "frame_id": 153,
      "sensor_timestamp": 4578141311925,
      "time_usec": 4578141311
    },
    {
      "frame_id": 154,
      "sensor_timestamp": 4578174558507,
      "time_usec": 4578174558
    },
    {
      "frame_id": 155,
      "sensor_timestamp": 4578207804845,
      "time_usec": 4578207804
    },
    {
      "frame_id": 156,
      "sensor_timestamp": 4578241051183,
      "time_usec": 4578241051
    },
    {
      "frame_id": 157,
      "sensor_timestamp": 4578274297521,
      "time_usec": 4578274297
    },
    {
      "frame_id": 158,
      "sensor_timestamp": 4578307544103,
      "time_usec": 4578307544
    },
    {
      "frame_id": 159,
      "sensor_timestamp": 4578340790441,
      "time_usec": 4578340790
    },
    {
      "frame_id": 160,
      "sensor_timestamp": 4578374036778,
      "time_usec": 4578374036
    },
    {
      "frame_id": 161,
      "sensor_timestamp": 4578407283116,
      "time_usec": 4578407283
    },
    {
      "frame_id": 162,
      "sensor_timestamp": 4578440529698,
      "time_usec": 4578440529
    },
    {
      "frame_id": 163,
      "sensor_timestamp": 4578473776036,
      "time_usec": 4578473776
    },
    {
      "frame_id": 164,
      "sensor_timestamp": 4578507022374,
      "time_usec": 4578507022
    },
    {
      "frame_id": 165,
      "sensor_timestamp": 4578540268712,
      "time_usec": 4578540268
    },
    {
      "frame_id": 166,
      "sensor_timestamp": 4578573515294,
      "time_usec": 4578573515
    },
    {
      "frame_id": 167,
      "sensor_timestamp": 4578606761632,
      "time_usec": 4578606761
    },
    {
      "frame_id": 168,
      "sensor_timestamp": 4578640007970,
      "time_usec": 4578640007
    },
    {
      "frame_id": 169,
      "sensor_timestamp": 4578673254308,
      "time_usec": 4578673254
    },
    {
      "frame_id": 170,
      "sensor_timestamp": 4578706500890,
      "time_usec": 4578706500
    },
    {
      "frame_id": 171,
      "sensor_timestamp": 4578739747228,
      "time_usec": 4578739747
    },
    {
      "frame_id": 172,
      "sensor_timestamp": 4578772993566,
      "time_usec": 4578772993
    },
    {
      "frame_id": 173,
      "sensor_timestamp": 4578806239903,
      "time_usec": 4578806239
    },
    {
      "frame_id": 174,
      "sensor_timestamp": 4578839486486,
      "time_usec": 4578839486
    },
    {
      "frame_id": 175,
      "sensor_timestamp": 4578872732823,
      "time_usec": 4578872732
    },
    {
      "frame_id": 176,
      "sensor_timestamp": 4578905979161,
      "time_usec": 4578905979
    },
    {
      "frame_id": 177,
      "sensor_timestamp": 4578939225499,
      "time_usec": 4578939225
    },
    {
      "frame_id": 178,
      "sensor_timestamp": 4578972472081,
      "time_usec": 4578972472
    },
    {
      "frame_id": 179,
      "sensor_timestamp": 4579005718419,
      "time_usec": 4579005718
    },
    {
      "frame_id": 180,
      "sensor_timestamp": 4579038964757,
      "time_usec": 4579038964
    },
    {
      "frame_id": 181,
      "sensor_timestamp": 4579072155053,
      "time_usec": 4579072155
    },
    {
      "frame_id": 182,
      "sensor_timestamp": 4579105457433,
      "time_usec": 4579105457
    },
    {
      "frame_id": 183,
      "sensor_timestamp": 4579138704015,
      "time_usec": 4579138704
    },
    {
      "frame_id": 184,
      "sensor_timestamp": 4579171950353,
      "time_usec": 4579171950
    },
    {
      "frame_id": 185,
      "sensor_timestamp": 4579205196691,
      "time_usec": 4579205196
    },
    {
      "frame_id": 186,
      "sensor_timestamp": 4579238443028,
      "time_usec": 4579238443
    },
    {
      "frame_id": 187,
      "sensor_timestamp": 4579271689611,
      "time_usec": 4579271689
    },
    {
      "frame_id": 188,
      "sensor_timestamp": 4579304935948,
      "time_usec": 4579304935
    },
    {
      "frame_id": 189,
      "sensor_timestamp": 4579338182286,
      "time_usec": 4579338182
    },
    {
      "frame_id": 190,
      "sensor_timestamp": 4579371428624,
      "time_usec": 4579371428
    },
    {
      "frame_id": 191,
      "sensor_timestamp": 4579404675206,
      "time_usec": 4579404675
    },
    {
      "frame_id": 192,
      "sensor_timestamp": 4579437921544,
      "time_usec": 4579437921
    },
    {
      "frame_id": 193,
      "sensor_timestamp": 4579471167882,
      "time_usec": 4579471167
    },
    {
      "frame_id": 194,
      "sensor_timestamp": 4579504414220,
      "time_usec": 4579504414
    },
    {
      "frame_id": 195,
      "sensor_timestamp": 4579537660802,
      "time_usec": 4579537660
    },
    {
      "frame_id": 196,
      "sensor_timestamp": 4579570907140,
      "time_usec": 4579570907
    },
    {
      "frame_id": 197,
      "sensor_timestamp": 4579604153478,
      "time_usec": 4579604153
    },
    {
      "frame_id": 198,
      "sensor_timestamp": 4579637399816,
      "time_usec": 4579637399
    },
    {
      "frame_id": 199,
      "sensor_timestamp": 4579670646398,
      "time_usec": 4579670646
    },
    {
      "frame_id": 200,
      "sensor_timestamp": 4579703892736,
      "time_usec": 4579703892
    },
    {
      "frame_id": 201,
      "sensor_timestamp": 4579737139073,
      "time_usec": 4579737139
    },
    {
      "frame_id": 202,
      "sensor_timestamp": 4579770385411,
      "time_usec": 4579770385
    },
    {
      "frame_id": 203,
      "sensor_timestamp": 4579803631993,
      "time_usec": 4579803631
    },
    {
      "frame_id": 204,
      "sensor_timestamp": 4579836878331,
      "time_usec": 4579836878
    },
    {
      "frame_id": 205,
      "sensor_timestamp": 4579870124669,
      "time_usec": 4579870124
    },
    {
      "frame_id": 206,
      "sensor_timestamp": 4579903371007,
      "time_usec": 4579903371
    },
    {
      "frame_id": 207,
      "sensor_timestamp": 4579936617589,
      "time_usec": 4579936617
    },
    {
      "frame_id": 208,
      "sensor_timestamp": 4579969863927,
      "time_usec": 4579969863
    },
    {
      "frame_id": 209,
      "sensor_timestamp": 4580003110265,
      "time_usec": 4580003110
    },
    {
      "frame_id": 210,
      "sensor_timestamp": 4580036356603,
      "time_usec": 4580036356
    },
    {
      "frame_id": 211,
      "sensor_timestamp": 4580069603185,
      "time_usec": 4580069603
    },
    {
      "frame_id": 212,
      "sensor_timestamp": 4580102849523,
      "time_usec": 4580102849
    },
    {
      "frame_id": 213,
      "sensor_timestamp": 4580136095861,
      "time_usec": 4580136095
    },
    {
      "frame_id": 214,
      "sensor_timestamp": 4580169342198,
      "time_usec": 4580169342
    },
    {
      "frame_id": 215,
      "sensor_timestamp": 4580202544947,
      "time_usec": 4580202544
    },
    {
      "frame_id": 216,
      "sensor_timestamp": 4580235835118,
      "time_usec": 4580235835
    },
    {
      "frame_id": 217,
      "sensor_timestamp": 4580269081456,
      "time_usec": 4580269081
    },
    {
      "frame_id": 218,
      "sensor_timestamp": 4580302327794,
      "time_usec": 4580302327
    },
    {
      "frame_id": 219,
      "sensor_timestamp": 4580335574132,
      "time_usec": 4580335574
    },
    {
      "frame_id": 220,
      "sensor_timestamp": 4580368820714,
      "time_usec": 4580368820
    },
    {
      "frame_id": 221,
      "sensor_timestamp": 4580402067052,
      "time_usec": 4580402067
    },
    {
      "frame_id": 222,
      "sensor_timestamp": 4580435313390,
      "time_usec": 4580435313
    },
    {
      "frame_id": 223,
      "sensor_timestamp": 4580468559728,
      "time_usec": 4580468559
    },
    {
      "frame_id": 224,
      "sensor_timestamp": 4580501806310,
      "time_usec": 4580501806
    },
    {
      "frame_id": 225,
      "sensor_timestamp": 4580535052648,
      "time_usec": 4580535052
    },
    {
      "frame_id": 226,
      "sensor_timestamp": 4580568298986,
      "time_usec": 4580568298
    },
    {
      "frame_id": 227,
      "sensor_timestamp": 4580601545323,
      "time_usec": 4580601545
    },
    {
      "frame_id": 228,
      "sensor_timestamp": 4580634791905,
      "time_usec": 4580634791
    },
    {
      "frame_id": 229,
      "sensor_timestamp": 4580668038243,
      "time_usec": 4580668038
    },
    {
      "frame_id": 230,
      "sensor_timestamp": 4580701226913,
      "time_usec": 4580701226
    },
    {
      "frame_id": 231,
      "sensor_timestamp": 4580734530919,
      "time_usec": 4580734530
    },
    {
      "frame_id": 232,
      "sensor_timestamp": 4580767777501,
      "time_usec": 4580767777
    },
    {
      "frame_id": 233,
      "sensor_timestamp": 4580801023839,
      "time_usec": 4580801023
    },
    {
      "frame_id": 234,
      "sensor_timestamp": 4580834270177,
      "time_usec": 4580834270
    },
    {
      "frame_id": 235,
      "sensor_timestamp": 4580867516515,
      "time_usec": 4580867516
    },
    {
      "frame_id": 236,
      "sensor_timestamp": 4580900763097,
      "time_usec": 4580900763
    },
    {
      "frame_id": 237,
      "sensor_timestamp": 4580934009435,
      "time_usec": 4580934009
    },
    {
      "frame_id": 238,
      "sensor_timestamp": 4580967255773,
      "time_usec": 4580967255
    },
    {
      "frame_id": 239,
      "sensor_timestamp": 4581000502111,
      "time_usec": 4581000502
    },
    {
      "frame_id": 240,
      "sensor_timestamp": 4581033748693,
      "time_usec": 4581033748
    },
    {
      "frame_id": 241,
      "sensor_timestamp": 4581066995030,
      "time_usec": 4581066995
    },
    {
      "frame_id": 242,
      "sensor_timestamp": 4581100241368,
      "time_usec": 4581100241
    },
    {
      "frame_id": 243,
      "sensor_timestamp": 4581133487706,
      "time_usec": 4581133487
    },
    {
      "frame_id": 244,
      "sensor_timestamp": 4581166734288,
      "time_usec": 4581166734
    },
    {
      "frame_id": 245,
      "sensor_timestamp": 4581199980626,
      "time_usec": 4581199980
    },
    {
      "frame_id": 246,
      "sensor_timestamp": 4581233226964,
      "time_usec": 4581233226
    },
    {
      "frame_id": 247,
      "sensor_timestamp": 4581266473302,
      "time_usec": 4581266473
    },
    {
      "frame_id": 248,
      "sensor_timestamp": 4581299719884,
      "time_usec": 4581299719
    },
    {
      "frame_id": 249,
      "sensor_timestamp": 4581332966222,
      "time_usec": 4581332966
    },
    {
      "frame_id": 250,
      "sensor_timestamp": 4581366212560,
      "time_usec": 4581366212
    },
    {
      "frame_id": 251,
      "sensor_timestamp": 4581399458898,
      "time_usec": 4581399458
    },
    {
      "frame_id": 252,
      "sensor_timestamp": 4581432705480,
      "time_usec": 4581432705
    },
    {
      "frame_id": 253,
      "sensor_timestamp": 4581465951818,
      "time_usec": 4581465951
    },
    {
      "frame_id": 254,
      "sensor_timestamp": 4581499198155,
      "time_usec": 4581499198
    },
    {
      "frame_id": 255,
      "sensor_timestamp": 4581532444493,
      "time_usec": 4581532444
    },
    {
      "frame_id": 256,
      "sensor_timestamp": 4581565690831,
      "time_usec": 4581565690
    },
    {
      "frame_id": 257,
      "sensor_timestamp": 4581598937413,
      "time_usec": 4581598937
    },
    {
      "frame_id": 258,
      "sensor_timestamp": 4581632183751,
      "time_usec": 4581632183
    },
    {
      "frame_id": 259,
      "sensor_timestamp": 4581665430089,
      "time_usec": 4581665430
    },
    {
      "frame_id": 260,
      "sensor_timestamp": 4581698676427,
      "time_usec": 4581698676
    },
    {
      "frame_id": 261,
      "sensor_timestamp": 4581731923009,
      "time_usec": 4581731923
    },
    {
      "frame_id": 262,
      "sensor_timestamp": 4581765169347,
      "time_usec": 4581765169
    },
    {
      "frame_id": 263,
      "sensor_timestamp": 4581798415685,
      "time_usec": 4581798415
    },
    {
      "frame_id": 264,
      "sensor_timestamp": 4581831662023,
      "time_usec": 4581831662
    },
    {
      "frame_id": 265,
      "sensor_timestamp": 4581864908605,
      "time_usec": 4581864908
    },
    {
      "frame_id": 266,
      "sensor_timestamp": 4581898154943,
      "time_usec": 4581898154
    },
    {
      "frame_id": 267,
      "sensor_timestamp": 4581931401280,
      "time_usec": 4581931401
    },
    {
      "frame_id": 268,
      "sensor_timestamp": 4581964647618,
      "time_usec": 4581964647
    },
    {
      "frame_id": 269,
      "sensor_timestamp": 4581997894200,
      "time_usec": 4581997894
    },
    {
      "frame_id": 270,
      "sensor_timestamp": 4582031140538,
      "time_usec": 4582031140
    },
    {
      "frame_id": 271,
      "sensor_timestamp": 4582064386876,
      "time_usec": 4582064386
    },
    {
      "frame_id": 272,
      "sensor_timestamp": 4582097633214,
      "time_usec": 4582097633
    },
    {
      "frame_id": 273,
      "sensor_timestamp": 4582130879796,
      "time_usec": 4582130879
    },
    {
      "frame_id": 274,
      "sensor_timestamp": 4582164126134,
      "time_usec": 4582164126
    },
    {
      "frame_id": 275,
      "sensor_timestamp": 4582197372472,
      "time_usec": 4582197372
    },
    {
      "frame_id": 276,
      "sensor_timestamp": 4582230618810,
      "time_usec": 4582230618
    },
    {
      "frame_id": 277,
      "sensor_timestamp": 4582263865392,
      "time_usec": 4582263865
    },
    {
      "frame_id": 278,
      "sensor_timestamp": 4582297111730,
      "time_usec": 4582297111
    },
    {
      "frame_id": 279,
      "sensor_timestamp": 4582330358068,
      "time_usec": 4582330358
    },
    {
      "frame_id": 280,
      "sensor_timestamp": 4582363604405,
      "time_usec": 4582363604
    },
    {
      "frame_id": 281,
      "sensor_timestamp": 4582396850987,
      "time_usec": 4582396850
    },
    {
      "frame_id": 282,
      "sensor_timestamp": 4582430097325,
      "time_usec": 4582430097
    },
    {
      "frame_id": 283,
      "sensor_timestamp": 4582463343663,
      "time_usec": 4582463343
    },
    {
      "frame_id": 284,
      "sensor_timestamp": 4582496590001,
      "time_usec": 4582496590
    },
    {
      "frame_id": 285,
      "sensor_timestamp": 4582529836583,
      "time_usec": 4582529836
    },
    {
      "frame_id": 286,
      "sensor_timestamp": 4582563082921,
      "time_usec": 4582563082
    },
    {
      "frame_id": 287,
      "sensor_timestamp": 4582596329259,
      "time_usec": 4582596329
    },
    {
      "frame_id": 288,
      "sensor_timestamp": 4582629575597,
      "time_usec": 4582629575
    },
    {
      "frame_id": 289,
      "sensor_timestamp": 4582662821935,
      "time_usec": 4582662821
    },
    {
      "frame_id": 290,
      "sensor_timestamp": 4582696068517,
      "time_usec": 4582696068
    },
    {
      "frame_id": 291,
      "sensor_timestamp": 4582729314855,
      "time_usec": 4582729314
    },
    {
      "frame_id": 292,
      "sensor_timestamp": 4582762561193,
      "time_usec": 4582762561
    },
    {
      "frame_id": 293,
      "sensor_timestamp": 4582795807530,
      "time_usec": 4582795807
    },
    {
      "frame_id": 294,
      "sensor_timestamp": 4582829054112,
      "time_usec": 4582829054
    },
    {
      "frame_id": 295,
      "sensor_timestamp": 4582862300450,
      "time_usec": 4582862300
    },
    {
      "frame_id": 296,
      "sensor_timestamp": 4582895546788,
      "time_usec": 4582895546
    },
    {
      "frame_id": 297,
      "sensor_timestamp": 4582928793126,
      "time_usec": 4582928793
    },
    {
      "frame_id": 298,
      "sensor_timestamp": 4582962039708,
      "time_usec": 4582962039
    },
    {
      "frame_id": 299,
      "sensor_timestamp": 4582995286046,
      "time_usec": 4582995286
    },
    {
      "frame_id": 300,
      "sensor_timestamp": 4583028532384,
      "time_usec": 4583028532
    },
    {
      "frame_id": 301,
      "sensor_timestamp": 4583061778722,
      "time_usec": 4583061778
    },
    {
      "frame_id": 302,
      "sensor_timestamp": 4583095025304,
      "time_usec": 4583095025
    },
    {
      "frame_id": 303,
      "sensor_timestamp": 4583128271642,
      "time_usec": 4583128271
    },
    {
      "frame_id": 304,
      "sensor_timestamp": 4583161517980,
      "time_usec": 4583161517
    },
    {
      "frame_id": 305,
      "sensor_timestamp": 4583194764318,
      "time_usec": 4583194764
    },
    {
      "frame_id": 306,
      "sensor_timestamp": 4583228010900,
      "time_usec": 4583228010
    },
    {
      "frame_id": 307,
      "sensor_timestamp": 4583261257237,
      "time_usec": 4583261257
    },
    {
      "frame_id": 308,
      "sensor_timestamp": 4583294503575,
      "time_usec": 4583294503
    },
    {
      "frame_id": 309,
      "sensor_timestamp": 4583327749913,
      "time_usec": 4583327749
    },
    {
      "frame_id": 310,
      "sensor_timestamp": 4583360996495,
      "time_usec": 4583360996
    },
    {
      "frame_id": 311,
      "sensor_timestamp": 4583394242833,
      "time_usec": 4583394242
    },
    {
      "frame_id": 312,
      "sensor_timestamp": 4583427489171,
      "time_usec": 4583427489
    },
    {
      "frame_id": 313,
      "sensor_timestamp": 4583460735509,
      "time_usec": 4583460735
    },
    {
      "frame_id": 314,
      "sensor_timestamp": 4583493982091,
      "time_usec": 4583493982
    },
    {
      "frame_id": 315,
      "sensor_timestamp": 4583527228429,
      "time_usec": 4583527228
    },
    {
      "frame_id": 316,
      "sensor_timestamp": 4583560474767,
      "time_usec": 4583560474
    },
    {
      "frame_id": 317,
      "sensor_timestamp": 4583593721105,
      "time_usec": 4583593721
    },
    {
      "frame_id": 318,
      "sensor_timestamp": 4583626967687,
      "time_usec": 4583626967
    },
    {
      "frame_id": 319,
      "sensor_timestamp": 4583660214025,
      "time_usec": 4583660214
    },
    {
      "frame_id": 320,
      "sensor_timestamp": 4583693460362,
      "time_usec": 4583693460
    },
    {
      "frame_id": 321,
      "sensor_timestamp": 4583726706700,
      "time_usec": 4583726706
    },
    {
      "frame_id": 322,
      "sensor_timestamp": 4583759953282,
      "time_usec": 4583759953
    },
    {
      "frame_id": 323,
      "sensor_timestamp": 4583793199620,
      "time_usec": 4583793199
    },
    {
      "frame_id": 324,
      "sensor_timestamp": 4583826445958,
      "time_usec": 4583826445
    },
    {
      "frame_id": 325,
      "sensor_timestamp": 4583859692296,
      "time_usec": 4583859692
    },
    {
      "frame_id": 326,
      "sensor_timestamp": 4583892938634,
      "time_usec": 4583892938
    },
    {
      "frame_id": 327,
      "sensor_timestamp": 4583926185216,
      "time_usec": 4583926185
    },
    {
      "frame_id": 328,
      "sensor_timestamp": 4583959431554,
      "time_usec": 4583959431
    },
    {
      "frame_id": 329,
      "sensor_timestamp": 4583992677892,
      "time_usec": 4583992677
    },
    {
      "frame_id": 330,
      "sensor_timestamp": 4584025924230,
      "time_usec": 4584025924
    },
    {
      "frame_id": 331,
      "sensor_timestamp": 4584059170812,
      "time_usec": 4584059170
    },
    {
      "frame_id": 332,
      "sensor_timestamp": 4584092417150,
      "time_usec": 4584092417
    },
    {
      "frame_id": 333,
      "sensor_timestamp": 4584125663487,
      "time_usec": 4584125663
    },
    {
      "frame_id": 334,
      "sensor_timestamp": 4584158909825,
      "time_usec": 4584158909
    },
    {
      "frame_id": 335,
      "sensor_timestamp": 4584192156407,
      "time_usec": 4584192156
    },
    {
      "frame_id": 336,
      "sensor_timestamp": 4584225402745,
      "time_usec": 4584225402
    },
    {
      "frame_id": 337,
      "sensor_timestamp": 4584258649083,
      "time_usec": 4584258649
    },
    {
      "frame_id": 338,
      "sensor_timestamp": 4584291895421,
      "time_usec": 4584291895
    },
    {
      "frame_id": 339,
      "sensor_timestamp": 4584325142003,
      "time_usec": 4584325142
    },
    {
      "frame_id": 340,
      "sensor_timestamp": 4584358388341,
      "time_usec": 4584358388
    },
    {
      "frame_id": 341,
      "sensor_timestamp": 4584391634679,
      "time_usec": 4584391634
    },
    {
      "frame_id": 342,
      "sensor_timestamp": 4584424881017,
      "time_usec": 4584424881
    },
    {
      "frame_id": 343,
      "sensor_timestamp": 4584458127599,
      "time_usec": 4584458127
    },
    {
      "frame_id": 344,
      "sensor_timestamp": 4584491373937,
      "time_usec": 4584491373
    },
    {
      "frame_id": 345,
      "sensor_timestamp": 4584524620275,
      "time_usec": 4584524620
    },
    {
      "frame_id": 346,
      "sensor_timestamp": 4584557866612,
      "time_usec": 4584557866
    },
    {
      "frame_id": 347,
      "sensor_timestamp": 4584591113194,
      "time_usec": 4584591113
    },
    {
      "frame_id": 348,
      "sensor_timestamp": 4584624359532,
      "time_usec": 4584624359
    },
    {
      "frame_id": 349,
      "sensor_timestamp": 4584657605870,
      "time_usec": 4584657605
    },
    {
      "frame_id": 350,
      "sensor_timestamp": 4584690852208,
      "time_usec": 4584690852
    },
    {
      "frame_id": 351,
      "sensor_timestamp": 4584724098790,
      "time_usec": 4584724098
    },
    {
      "frame_id": 352,
      "sensor_timestamp": 4584757345128,
      "time_usec": 4584757345
    },
    {
      "frame_id": 353,
      "sensor_timestamp": 4584790591466,
      "time_usec": 4584790591
    },
    {
      "frame_id": 354,
      "sensor_timestamp": 4584823837804,
      "time_usec": 4584823837
    },
    {
      "frame_id": 355,
      "sensor_timestamp": 4584857084386,
      "time_usec": 4584857084
    },
    {
      "frame_id": 356,
      "sensor_timestamp": 4584890330724,
      "time_usec": 4584890330
    },
    {
      "frame_id": 357,
      "sensor_timestamp": 4584923577062,
      "time_usec": 4584923577
    },
    {
      "frame_id": 358,
      "sensor_timestamp": 4584956823400,
      "time_usec": 4584956823
    },
    {
      "frame_id": 359,
      "sensor_timestamp": 4584990069982,
      "time_usec": 4584990069
    },
    {
      "frame_id": 360,
      "sensor_timestamp": 4585023316319,
      "time_usec": 4585023316
    },
    {
      "frame_id": 361,
      "sensor_timestamp": 4585056562657,
      "time_usec": 4585056562
    },
    {
      "frame_id": 362,
      "sensor_timestamp": 4585089808995,
      "time_usec": 4585089808
    },
    {
      "frame_id": 363,
      "sensor_timestamp": 4585123055333,
      "time_usec": 4585123055
    },
    {
      "frame_id": 364,
      "sensor_timestamp": 4585156301915,
      "time_usec": 4585156301
    },
    {
      "frame_id": 365,
      "sensor_timestamp": 4585189548253,
      "time_usec": 4585189548
    },
    {
      "frame_id": 366,
      "sensor_timestamp": 4585222794591,
      "time_usec": 4585222794
    },
    {
      "frame_id": 367,
      "sensor_timestamp": 4585256040929,
      "time_usec": 4585256040
    },
    {
      "frame_id": 368,
      "sensor_timestamp": 4585289287511,
      "time_usec": 4585289287
    },
    {
      "frame_id": 369,
      "sensor_timestamp": 4585322533849,
      "time_usec": 4585322533
    },
    {
      "frame_id": 370,
      "sensor_timestamp": 4585355780187,
      "time_usec": 4585355780
    },
    {
      "frame_id": 371,
      "sensor_timestamp": 4585389026525,
      "time_usec": 4585389026
    },
    {
      "frame_id": 372,
      "sensor_timestamp": 4585422273107,
      "time_usec": 4585422273
    },
    {
      "frame_id": 373,
      "sensor_timestamp": 4585455519444,
      "time_usec": 4585455519
    },
    {
      "frame_id": 374,
      "sensor_timestamp": 4585488765782,
      "time_usec": 4585488765
    },
    {
      "frame_id": 375,
      "sensor_timestamp": 4585522012120,
      "time_usec": 4585522012
    },
    {
      "frame_id": 376,
      "sensor_timestamp": 4585555258702,
      "time_usec": 4585555258
    },
    {
      "frame_id": 377,
      "sensor_timestamp": 4585588505040,
      "time_usec": 4585588505
    },
    {
      "frame_id": 378,
      "sensor_timestamp": 4585621751378,
      "time_usec": 4585621751
    },
    {
      "frame_id": 379,
      "sensor_timestamp": 4585654997716,
      "time_usec": 4585654997
    },
    {
      "frame_id": 380,
      "sensor_timestamp": 4585688244298,
      "time_usec": 4585688244
    },
    {
      "frame_id": 381,
      "sensor_timestamp": 4585721490636,
      "time_usec": 4585721490
    },
    {
      "frame_id": 382,
      "sensor_timestamp": 4585754736974,
      "time_usec": 4585754736
    },
    {
      "frame_id": 383,
      "sensor_timestamp": 4585787983312,
      "time_usec": 4585787983
    },
    {
      "frame_id": 384,
      "sensor_timestamp": 4585821229894,
      "time_usec": 4585821229
    },
    {
      "frame_id": 385,
      "sensor_timestamp": 4585854476232,
      "time_usec": 4585854476
    },
    {
      "frame_id": 386,
      "sensor_timestamp": 4585887722569,
      "time_usec": 4585887722
    },
    {
      "frame_id": 387,
      "sensor_timestamp": 4585920968907,
      "time_usec": 4585920968
    },
    {
      "frame_id": 388,
      "sensor_timestamp": 4585954215489,
      "time_usec": 4585954215
    },
    {
      "frame_id": 389,
      "sensor_timestamp": 4585987461827,
      "time_usec": 4585987461
    },
    {
      "frame_id": 390,
      "sensor_timestamp": 4586020708165,
      "time_usec": 4586020708
    },
    {
      "frame_id": 391,
      "sensor_timestamp": 4586053954503,
      "time_usec": 4586053954
    },
    {
      "frame_id": 392,
      "sensor_timestamp": 4586087201085,
      "time_usec": 4586087201
    },
    {
      "frame_id": 393,
      "sensor_timestamp": 4586120447423,
      "time_usec": 4586120447
    },
    {
      "frame_id": 394,
      "sensor_timestamp": 4586153693761,
      "time_usec": 4586153693
    },
    {
      "frame_id": 395,
      "sensor_timestamp": 4586186940099,
      "time_usec": 4586186940
    },
    {
      "frame_id": 396,
      "sensor_timestamp": 4586220186681,
      "time_usec": 4586220186
    },
    {
      "frame_id": 397,
      "sensor_timestamp": 4586253433019,
      "time_usec": 4586253433
    },
    {
      "frame_id": 398,
      "sensor_timestamp": 4586286679357,
      "time_usec": 4586286679
    },
    {
      "frame_id": 399,
      "sensor_timestamp": 4586319925694,
      "time_usec": 4586319925
    },
    {
      "frame_id": 400,
      "sensor_timestamp": 4586353172032,
      "time_usec": 4586353172
    },
    {
      "frame_id": 401,
      "sensor_timestamp": 4586386418614,
      "time_usec": 4586386418
    },
    {
      "frame_id": 402,
      "sensor_timestamp": 4586419664952,
      "time_usec": 4586419664
    },
    {
      "frame_id": 403,
      "sensor_timestamp": 4586452911290,
      "time_usec": 4586452911
    },
    {
      "frame_id": 404,
      "sensor_timestamp": 4586486157628,
      "time_usec": 4586486157
    },
    {
      "frame_id": 405,
      "sensor_timestamp": 4586519404210,
      "time_usec": 4586519404
    },
    {
      "frame_id": 406,
      "sensor_timestamp": 4586552650548,
      "time_usec": 4586552650
    },
    {
      "frame_id": 407,
      "sensor_timestamp": 4586585896886,
      "time_usec": 4586585896
    },
    {
      "frame_id": 408,
      "sensor_timestamp": 4586619143224,
      "time_usec": 4586619143
    },
    {
      "frame_id": 409,
      "sensor_timestamp": 4586652389806,
      "time_usec": 4586652389
    },
    {
      "frame_id": 410,
      "sensor_timestamp": 4586685636144,
      "time_usec": 4586685636
    },
    {
      "frame_id": 411,
      "sensor_timestamp": 4586718882482,
      "time_usec": 4586718882
    },
    {
      "frame_id": 412,
      "sensor_timestamp": 4586752087552,
      "time_usec": 4586752087
    },
    {
      "frame_id": 413,
      "sensor_timestamp": 4586785375402,
      "time_usec": 4586785375
    },
    {
      "frame_id": 414,
      "sensor_timestamp": 4586818621739,
      "time_usec": 4586818621
    },
    {
      "frame_id": 415,
      "sensor_timestamp": 4586851868077,
      "time_usec": 4586851868
    },
    {
      "frame_id": 416,
      "sensor_timestamp": 4586885114415,
      "time_usec": 4586885114
    },
    {
      "frame_id": 417,
      "sensor_timestamp": 4586918360997,
      "time_usec": 4586918360
    },
    {
      "frame_id": 418,
      "sensor_timestamp": 4586951607335,
      "time_usec": 4586951607
    },
    {
      "frame_id": 419,
      "sensor_timestamp": 4586984853673,
      "time_usec": 4586984853
    },
    {
      "frame_id": 420,
      "sensor_timestamp": 4587018100011,
      "time_usec": 4587018100
    },
    {
      "frame_id": 421,
      "sensor_timestamp": 4587051346593,
      "time_usec": 4587051346
    },
    {
      "frame_id": 422,
      "sensor_timestamp": 4587084592931,
      "time_usec": 4587084592
    },
    {
      "frame_id": 423,
      "sensor_timestamp": 4587117839269,
      "time_usec": 4587117839
    },
    {
      "frame_id": 424,
      "sensor_timestamp": 4587151085607,
      "time_usec": 4587151085
    },
    {
      "frame_id": 425,
      "sensor_timestamp": 4587184332189,
      "time_usec": 4587184332
    },
    {
      "frame_id": 426,
      "sensor_timestamp": 4587217578527,
      "time_usec": 4587217578
    },
    {
      "frame_id": 427,
      "sensor_timestamp": 4587250824864,
      "time_usec": 4587250824
    },
    {
      "frame_id": 428,
      "sensor_timestamp": 4587284071202,
      "time_usec": 4587284071
    },
    {
      "frame_id": 429,
      "sensor_timestamp": 4587317317784,
      "time_usec": 4587317317
    },
    {
      "frame_id": 430,
      "sensor_timestamp": 4587350564122,
      "time_usec": 4587350564
    },
    {
      "frame_id": 431,
      "sensor_timestamp": 4587383810460,
      "time_usec": 4587383810
    },
    {
      "frame_id": 432,
      "sensor_timestamp": 4587417056798,
      "time_usec": 4587417056
    },
    {
      "frame_id": 433,
      "sensor_timestamp": 4587450303380,
      "time_usec": 4587450303
    },
    {
      "frame_id": 434,
      "sensor_timestamp": 4587483549718,
      "time_usec": 4587483549
    },
    {
      "frame_id": 435,
      "sensor_timestamp": 4587516796056,
      "time_usec": 4587516796
    },
    {
      "frame_id": 436,
      "sensor_timestamp": 4587550350167,
      "time_usec": 4587550350
    },
    {
      "frame_id": 437,
      "sensor_timestamp": 4587583288732,
      "time_usec": 4587583288
    },
    {
      "frame_id": 438,
      "sensor_timestamp": 4587616535314,
      "time_usec": 4587616535
    },
    {
      "frame_id": 439,
      "sensor_timestamp": 4587649781652,
      "time_usec": 4587649781
    },
    {
      "frame_id": 440,
      "sensor_timestamp": 4587683027989,
      "time_usec": 4587683027
    },
    {
      "frame_id": 441,
      "sensor_timestamp": 4587716274327,
      "time_usec": 4587716274
    },
    {
      "frame_id": 442,
      "sensor_timestamp": 4587749520909,
      "time_usec": 4587749520
    },
    {
      "frame_id": 443,
      "sensor_timestamp": 4587782767247,
      "time_usec": 4587782767
    },
    {
      "frame_id": 444,
      "sensor_timestamp": 4587816013585,
      "time_usec": 4587816013
    },
    {
      "frame_id": 445,
      "sensor_timestamp": 4587849259923,
      "time_usec": 4587849259
    },
    {
      "frame_id": 446,
      "sensor_timestamp": 4587882506505,
      "time_usec": 4587882506
    },
    {
      "frame_id": 447,
      "sensor_timestamp": 4587915752843,
      "time_usec": 4587915752
    },
    {
      "frame_id": 448,
      "sensor_timestamp": 4587948999181,
      "time_usec": 4587948999
    },
    {
      "frame_id": 449,
      "sensor_timestamp": 4587982245519,
      "time_usec": 4587982245
    },
    {
      "frame_id": 450,
      "sensor_timestamp": 4588015492101,
      "time_usec": 4588015492
    },
    {
      "frame_id": 451,
      "sensor_timestamp": 4588048738439,
      "time_usec": 4588048738
    },
    {
      "frame_id": 452,
      "sensor_timestamp": 4588081984777,
      "time_usec": 4588081984
    },
    {
      "frame_id": 453,
      "sensor_timestamp": 4588115231114,
      "time_usec": 4588115231
    },
    {
      "frame_id": 454,
      "sensor_timestamp": 4588148477696,
      "time_usec": 4588148477
    },
    {
      "frame_id": 455,
      "sensor_timestamp": 4588181724034,
      "time_usec": 4588181724
    },
    {
      "frame_id": 456,
      "sensor_timestamp": 4588214970372,
      "time_usec": 4588214970
    },
    {
      "frame_id": 457,
      "sensor_timestamp": 4588248216710,
      "time_usec": 4588248216
    },
    {
      "frame_id": 458,
      "sensor_timestamp": 4588281463292,
      "time_usec": 4588281463
    },
    {
      "frame_id": 459,
      "sensor_timestamp": 4588314709630,
      "time_usec": 4588314709
    },
    {
      "frame_id": 460,
      "sensor_timestamp": 4588347955968,
      "time_usec": 4588347955
    },
    {
      "frame_id": 461,
      "sensor_timestamp": 4588381202306,
      "time_usec": 4588381202
    },
    {
      "frame_id": 462,
      "sensor_timestamp": 4588414448888,
      "time_usec": 4588414448
    },
    {
      "frame_id": 463,
      "sensor_timestamp": 4588447695226,
      "time_usec": 4588447695
    },
    {
      "frame_id": 464,
      "sensor_timestamp": 4588480941564,
      "time_usec": 4588480941
    },
    {
      "frame_id": 465,
      "sensor_timestamp": 4588514187902,
      "time_usec": 4588514187
    },
    {
      "frame_id": 466,
      "sensor_timestamp": 4588547434484,
      "time_usec": 4588547434
    },
    {
      "frame_id": 467,
      "sensor_timestamp": 4588580680821,
      "time_usec": 4588580680
    },
    {
      "frame_id": 468,
      "sensor_timestamp": 4588613927159,
      "time_usec": 4588613927
    },
    {
      "frame_id": 469,
      "sensor_timestamp": 4588647173497,
      "time_usec": 4588647173
    },
    {
      "frame_id": 470,
      "sensor_timestamp": 4588680419835,
      "time_usec": 4588680419
    },
    {
      "frame_id": 471,
      "sensor_timestamp": 4588713666417,
      "time_usec": 4588713666
    },
    {
      "frame_id": 472,
      "sensor_timestamp": 4588746912755,
      "time_usec": 4588746912
    },
    {
      "frame_id": 473,
      "sensor_timestamp": 4588780159093,
      "time_usec": 4588780159
    },
    {
      "frame_id": 474,
      "sensor_timestamp": 4588813405431,
      "time_usec": 4588813405
    },
    {
      "frame_id": 475,
      "sensor_timestamp": 4588846652013,
      "time_usec": 4588846652
    },
    {
      "frame_id": 476,
      "sensor_timestamp": 4588879898351,
      "time_usec": 4588879898
    },
    {
      "frame_id": 477,
      "sensor_timestamp": 4588913144689,
      "time_usec": 4588913144
    },
    {
      "frame_id": 478,
      "sensor_timestamp": 4588946391027,
      "time_usec": 4588946391
    },
    {
      "frame_id": 479,
      "sensor_timestamp": 4588979637609,
      "time_usec": 4588979637
    },
    {
      "frame_id": 480,
      "sensor_timestamp": 4589012883946,
      "time_usec": 4589012883
    },
    {
      "frame_id": 481,
      "sensor_timestamp": 4589046130284,
      "time_usec": 4589046130
    },
    {
      "frame_id": 482,
      "sensor_timestamp": 4589079376622,
      "time_usec": 4589079376
    },
    {
      "frame_id": 483,
      "sensor_timestamp": 4589112623204,
      "time_usec": 4589112623
    },
    {
      "frame_id": 484,
      "sensor_timestamp": 4589145869542,
      "time_usec": 4589145869
    },
    {
      "frame_id": 485,
      "sensor_timestamp": 4589179115880,
      "time_usec": 4589179115
    },
    {
      "frame_id": 486,
      "sensor_timestamp": 4589212362218,
      "time_usec": 4589212362
    },
    {
      "frame_id": 487,
      "sensor_timestamp": 4589245608800,
      "time_usec": 4589245608
    },
    {
      "frame_id": 488,
      "sensor_timestamp": 4589278855138,
      "time_usec": 4589278855
    },
    {
      "frame_id": 489,
      "sensor_timestamp": 4589312101476,
      "time_usec": 4589312101
    },
    {
      "frame_id": 490,
      "sensor_timestamp": 4589345347814,
      "time_usec": 4589345347
    },
    {
      "frame_id": 491,
      "sensor_timestamp": 4589378594396,
      "time_usec": 4589378594
    },
    {
      "frame_id": 492,
      "sensor_timestamp": 4589411840734,
      "time_usec": 4589411840
    },
    {
      "frame_id": 493,
      "sensor_timestamp": 4589445087071,
      "time_usec": 4589445087
    },
    {
      "frame_id": 494,
      "sensor_timestamp": 4589478333409,
      "time_usec": 4589478333
    },
    {
      "frame_id": 495,
      "sensor_timestamp": 4589511579991,
      "time_usec": 4589511579
    },
    {
      "frame_id": 496,
      "sensor_timestamp": 4589544826329,
      "time_usec": 4589544826
    },
    {
      "frame_id": 497,
      "sensor_timestamp": 4589578072667,
      "time_usec": 4589578072
    },
    {
      "frame_id": 498,
      "sensor_timestamp": 4589611319005,
      "time_usec": 4589611319
    },
    {
      "frame_id": 499,
      "sensor_timestamp": 4589644565587,
      "time_usec": 4589644565
    },
    {
      "frame_id": 500,
      "sensor_timestamp": 4589677811925,
      "time_usec": 4589677811
    },
    {
      "frame_id": 501,
      "sensor_timestamp": 4589711058263,
      "time_usec": 4589711058
    },
    {
      "frame_id": 502,
      "sensor_timestamp": 4589744304601,
      "time_usec": 4589744304
    },
    {
      "frame_id": 503,
      "sensor_timestamp": 4589777551183,
      "time_usec": 4589777551
    },
    {
      "frame_id": 504,
      "sensor_timestamp": 4589810797521,
      "time_usec": 4589810797
    },
    {
      "frame_id": 505,
      "sensor_timestamp": 4589844043859,
      "time_usec": 4589844043
    },
    {
      "frame_id": 506,
      "sensor_timestamp": 4589877290196,
      "time_usec": 4589877290
    },
    {
      "frame_id": 507,
      "sensor_timestamp": 4589910536534,
      "time_usec": 4589910536
    },
    {
      "frame_id": 508,
      "sensor_timestamp": 4589943783116,
      "time_usec": 4589943783
    },
    {
      "frame_id": 509,
      "sensor_timestamp": 4589977029454,
      "time_usec": 4589977029
    },
    {
      "frame_id": 510,
      "sensor_timestamp": 4590010275792,
      "time_usec": 4590010275
    },
    {
      "frame_id": 511,
      "sensor_timestamp": 4590043522130,
      "time_usec": 4590043522
    },
    {
      "frame_id": 512,
      "sensor_timestamp": 4590076768712,
      "time_usec": 4590076768
    },
    {
      "frame_id": 513,
      "sensor_timestamp": 4590110015050,
      "time_usec": 4590110015
    },
    {
      "frame_id": 514,
      "sensor_timestamp": 4590143261388,
      "time_usec": 4590143261
    },
    {
      "frame_id": 515,
      "sensor_timestamp": 4590176507726,
      "time_usec": 4590176507
    },
    {
      "frame_id": 516,
      "sensor_timestamp": 4590209754308,
      "time_usec": 4590209754
    },
    {
      "frame_id": 517,
      "sensor_timestamp": 4590243000646,
      "time_usec": 4590243000
    },
    {
      "frame_id": 518,
      "sensor_timestamp": 4590276246984,
      "time_usec": 4590276246
    },
    {
      "frame_id": 519,
      "sensor_timestamp": 4590309493321,
      "time_usec": 4590309493
    },
    {
      "frame_id": 520,
      "sensor_timestamp": 4590342739903,
      "time_usec": 4590342739
    },
    {
      "frame_id": 521,
      "sensor_timestamp": 4590375986241,
      "time_usec": 4590375986
    },
    {
      "frame_id": 522,
      "sensor_timestamp": 4590409232579,
      "time_usec": 4590409232
    },
    {
      "frame_id": 523,
      "sensor_timestamp": 4590442478917,
      "time_usec": 4590442478
    },
    {
      "frame_id": 524,
      "sensor_timestamp": 4590475725499,
      "time_usec": 4590475725
    },
    {
      "frame_id": 525,
      "sensor_timestamp": 4590508971837,
      "time_usec": 4590508971
    },
    {
      "frame_id": 526,
      "sensor_timestamp": 4590542218175,
      "time_usec": 4590542218
    },
    {
      "frame_id": 527,
      "sensor_timestamp": 4590575464513,
      "time_usec": 4590575464
    },
    {
      "frame_id": 528,
      "sensor_timestamp": 4590608711095,
      "time_usec": 4590608711
    },
    {
      "frame_id": 529,
      "sensor_timestamp": 4590641957433,
      "time_usec": 4590641957
    },
    {
      "frame_id": 530,
      "sensor_timestamp": 4590675203771,
      "time_usec": 4590675203
    },
    {
      "frame_id": 531,
      "sensor_timestamp": 4590708450109,
      "time_usec": 4590708450
    },
    {
      "frame_id": 532,
      "sensor_timestamp": 4590741696691,
      "time_usec": 4590741696
    },
    {
      "frame_id": 533,
      "sensor_timestamp": 4590774943028,
      "time_usec": 4590774943
    },
    {
      "frame_id": 534,
      "sensor_timestamp": 4590808189366,
      "time_usec": 4590808189
    },
    {
      "frame_id": 535,
      "sensor_timestamp": 4590841435704,
      "time_usec": 4590841435
    },
    {
      "frame_id": 536,
      "sensor_timestamp": 4590874682286,
      "time_usec": 4590874682
    },
    {
      "frame_id": 537,
      "sensor_timestamp": 4590907928624,
      "time_usec": 4590907928
    },
    {
      "frame_id": 538,
      "sensor_timestamp": 4590941174962,
      "time_usec": 4590941174
    },
    {
      "frame_id": 539,
      "sensor_timestamp": 4590974421300,
      "time_usec": 4590974421
    },
    {
      "frame_id": 540,
      "sensor_timestamp": 4591007667882,
      "time_usec": 4591007667
    },
    {
      "frame_id": 541,
      "sensor_timestamp": 4591040914220,
      "time_usec": 4591040914
    },
    {
      "frame_id": 542,
      "sensor_timestamp": 4591074160558,
      "time_usec": 4591074160
    },
    {
      "frame_id": 543,
      "sensor_timestamp": 4591107406896,
      "time_usec": 4591107406
    },
    {
      "frame_id": 544,
      "sensor_timestamp": 4591140653234,
      "time_usec": 4591140653
    },
    {
      "frame_id": 545,
      "sensor_timestamp": 4591173899816,
      "time_usec": 4591173899
    },
    {
      "frame_id": 546,
      "sensor_timestamp": 4591207146153,
      "time_usec": 4591207146
    },
    {
      "frame_id": 547,
      "sensor_timestamp": 4591240392491,
      "time_usec": 4591240392
    },
    {
      "frame_id": 548,
      "sensor_timestamp": 4591273638829,
      "time_usec": 4591273638
    },
    {
      "frame_id": 549,
      "sensor_timestamp": 4591306885411,
      "time_usec": 4591306885
    },
    {
      "frame_id": 550,
      "sensor_timestamp": 4591340131749,
      "time_usec": 4591340131
    },
    {
      "frame_id": 551,
      "sensor_timestamp": 4591373378087,
      "time_usec": 4591373378
    },
    {
      "frame_id": 552,
      "sensor_timestamp": 4591406624425,
      "time_usec": 4591406624
    },
    {
      "frame_id": 553,
      "sensor_timestamp": 4591439871007,
      "time_usec": 4591439871
    },
    {
      "frame_id": 554,
      "sensor_timestamp": 4591473117345,
      "time_usec": 4591473117
    },
    {
      "frame_id": 555,
      "sensor_timestamp": 4591506363683,
      "time_usec": 4591506363
    },
    {
      "frame_id": 556,
      "sensor_timestamp": 4591539610021,
      "time_usec": 4591539610
    },
    {
      "frame_id": 557,
      "sensor_timestamp": 4591572856603,
      "time_usec": 4591572856
    },
    {
      "frame_id": 558,
      "sensor_timestamp": 4591606102941,
      "time_usec": 4591606102
    },
    {
      "frame_id": 559,
      "sensor_timestamp": 4591639349278,
      "time_usec": 4591639349
    },
    {
      "frame_id": 560,
      "sensor_timestamp": 4591672595616,
      "time_usec": 4591672595
    },
    {
      "frame_id": 561,
