{
  "rotations": [
    {
      "x": -0.12767083942890167,
      "y": 0.06948592513799667,
      "z": 0.020005837082862854,
      "time_usec": 12456130781
    },
    {
      "x": -0.11530081182718277,
      "y": 0.06688974797725677,
      "z": 0.016340645030140877,
      "time_usec": 12456133038
    },
    {
      "x": -0.10674870014190674,
      "y": 0.06429356336593628,
      "z": 0.012675453908741474,
      "time_usec": 12456135292
    },
    {
      "x": -0.10064005106687546,
      "y": 0.058184914290905,
      "z": 0.015271631069481373,
      "time_usec": 12456137550
    },
    {
      "x": -0.0907134860754013,
      "y": 0.05803219974040985,
      "z": 0.01038470957428217,
      "time_usec": 12456139798
    },
    {
      "x": -0.0832303911447525,
      "y": 0.0555887371301651,
      "z": 0.009162978269159794,
      "time_usec": 12456142069
    },
    {
      "x": -0.0734565481543541,
      "y": 0.05421429127454758,
      "z": 0.007941247895359993,
      "time_usec": 12456144326
    },
    {
      "x": -0.06475171446800232,
      "y": 0.055283304303884506,
      "z": 0.00809396430850029,
      "time_usec": 12456146589
    },
    {
      "x": -0.05360342562198639,
      "y": 0.05406157299876213,
      "z": 0.012980886735022068,
      "time_usec": 12456148841
    },
    {
      "x": -0.04505131021142006,
      "y": 0.04902193695306778,
      "z": 0.014355333521962166,
      "time_usec": 12456151095
    },
    {
      "x": -0.03649919852614403,
      "y": 0.044135015457868576,
      "z": 0.016798794269561768,
      "time_usec": 12456153341
    },
    {
      "x": -0.024129176512360573,
      "y": 0.041691552847623825,
      "z": 0.01924225501716137,
      "time_usec": 12456155611
    },
    {
      "x": -0.018020525574684143,
      "y": 0.039248090237379074,
      "z": 0.025503624230623245,
      "time_usec": 12456157864
    },
    {
      "x": -0.01191187184303999,
      "y": 0.03191770985722542,
      "z": 0.03039054572582245,
      "time_usec": 12456160130
    },
    {
      "x": -0.004428773187100887,
      "y": 0.03191770985722542,
      "z": 0.0354301854968071,
      "time_usec": 12456162385
    },
    {
      "x": 0.001679879380390048,
      "y": 0.02825251780450344,
      "z": 0.039095375686883926,
      "time_usec": 12456164644
    },
    {
      "x": 0.0065668015740811825,
      "y": 0.024587325751781464,
      "z": 0.042760565876960754,
      "time_usec": 12456166899
    },
    {
      "x": 0.010231993161141872,
      "y": 0.024587325751781464,
      "z": 0.045204028487205505,
      "time_usec": 12456169157
    },
    {
      "x": 0.015118914656341076,
      "y": 0.024434609338641167,
      "z": 0.050243668258190155,
      "time_usec": 12456171414
    },
    {
      "x": 0.015118914656341076,
      "y": 0.020922135561704636,
      "z": 0.05268712714314461,
      "time_usec": 12456173668
    },
    {
      "x": 0.015118914656341076,
      "y": 0.01970040425658226,
      "z": 0.056352317333221436,
      "time_usec": 12456175916
    },
    {
      "x": 0.012675453908741474,
      "y": 0.020922135561704636,
      "z": 0.056352317333221436,
      "time_usec": 12456178186
    },
    {
      "x": 0.008857546374201775,
      "y": 0.02229658141732216,
      "z": 0.06368270516395569,
      "time_usec": 12456180445
    },
    {
      "x": 3.054326225537807E-4,
      "y": 0.022449297830462456,
      "z": 0.06841690838336945,
      "time_usec": 12456182710
    },
    {
      "x": -0.009621127508580685,
      "y": 0.02015855349600315,
      "z": 0.06719517707824707,
      "time_usec": 12456184954
    },
    {
      "x": -0.02076941914856434,
      "y": 0.017867809161543846,
      "z": 0.07208210229873657,
      "time_usec": 12456187216
    },
    {
      "x": -0.029474247246980667,
      "y": 0.016798794269561768,
      "z": 0.07437284290790558,
      "time_usec": 12456189470
    },
    {
      "x": -0.038179077208042145,
      "y": 0.012217304669320583,
      "z": 0.07925976812839508,
      "time_usec": 12456191726
    },
    {
      "x": -0.05314527451992035,
      "y": 0.0064140851609408855,
      "z": 0.07910704612731934,
      "time_usec": 12456193983
    },
    {
      "x": -0.06551529467105865,
      "y": 0.001679879380390048,
      "z": 0.08521570265293121,
      "time_usec": 12456196246
    },
    {
      "x": -0.07299839705228806,
      "y": -0.005345070734620094,
      "z": 0.08888089656829834,
      "time_usec": 12456198504
    },
    {
      "x": -0.08048149943351746,
      "y": -0.013591751456260681,
      "z": 0.09376781433820724,
      "time_usec": 12456200760
    },
    {
      "x": -0.09040805697441101,
      "y": -0.020616702735424042,
      "z": 0.10094548016786575,
      "time_usec": 12456203005
    },
    {
      "x": -0.09926560521125793,
      "y": -0.02779436856508255,
      "z": 0.10216721147298813,
      "time_usec": 12456205274
    },
    {
      "x": -0.10430523753166199,
      "y": -0.04214970022439957,
      "z": 0.1082758679986,
      "time_usec": 12456207532
    },
    {
      "x": -0.10797043144702911,
      "y": -0.04932736977934837,
      "z": 0.10323622822761536,
      "time_usec": 12456209792
    },
    {
      "x": -0.11178833991289139,
      "y": -0.05757404863834381,
      "z": 0.10690141469240189,
      "time_usec": 12456212041
    },
    {
      "x": -0.12049316614866257,
      "y": -0.06123924255371094,
      "z": 0.0981965884566307,
      "time_usec": 12456214300
    },
    {
      "x": -0.12049316614866257,
      "y": -0.06123924255371094,
      "z": 0.0981965884566307,
      "time_usec": 12456216559
    },
    {
      "x": -0.12293662875890732,
      "y": -0.0659734457731247,
      "z": 0.09575312584638596,
      "time_usec": 12456218808
    },
    {
      "x": -0.12431107461452484,
      "y": -0.07192938029766083,
      "z": 0.09575312584638596,
      "time_usec": 12456221071
    },
    {
      "x": -0.12919799983501434,
      "y": -0.07559457421302795,
      "z": 0.09575312584638596,
      "time_usec": 12456223330
    },
    {
      "x": -0.12797626852989197,
      "y": -0.08032877743244171,
      "z": 0.09208793938159943,
      "time_usec": 12456225595
    },
    {
      "x": -0.12919799983501434,
      "y": -0.08155050873756409,
      "z": 0.09086620807647705,
      "time_usec": 12456227851
    },
    {
      "x": -0.12797626852989197,
      "y": -0.08643743395805359,
      "z": 0.0884227454662323,
      "time_usec": 12456230107
    },
    {
      "x": -0.1281289905309677,
      "y": -0.09010262042284012,
      "z": 0.08704829961061478,
      "time_usec": 12456232363
    },
    {
      "x": -0.12553280591964722,
      "y": -0.0913243517279625,
      "z": 0.08460483700037003,
      "time_usec": 12456234617
    },
    {
      "x": -0.12446379661560059,
      "y": -0.09605856239795685,
      "z": 0.08338310569524765,
      "time_usec": 12456236879
    },
    {
      "x": -0.11942415684461594,
      "y": -0.09743300825357437,
      "z": 0.07987063378095627,
      "time_usec": 12456239134
    },
    {
      "x": -0.11698069423437119,
      "y": -0.09865473955869675,
      "z": 0.07483099400997162,
      "time_usec": 12456241394
    },
    {
      "x": -0.11331550031900406,
      "y": -0.10231992602348328,
      "z": 0.07254024595022202,
      "time_usec": 12456243646
    },
    {
      "x": -0.1108720451593399,
      "y": -0.1059851199388504,
      "z": 0.06994406878948212,
      "time_usec": 12456245909
    },
    {
      "x": -0.10720685124397278,
      "y": -0.10965031385421753,
      "z": 0.06765332818031311,
      "time_usec": 12456248166
    },
    {
      "x": -0.10094548016786575,
      "y": -0.11224649101495743,
      "z": 0.06154467165470123,
      "time_usec": 12456250425
    },
    {
      "x": -0.09483683109283447,
      "y": -0.12079860270023346,
      "z": 0.057879481464624405,
      "time_usec": 12456252679
    },
    {
      "x": -0.08994990587234497,
      "y": -0.1281289905309677,
      "z": 0.05421429127454758,
      "time_usec": 12456254930
    },
    {
      "x": -0.08124507963657379,
      "y": -0.13057245314121246,
      "z": 0.051770828664302826,
      "time_usec": 12456257196
    },
    {
      "x": -0.07391469180583954,
      "y": -0.13545936346054077,
      "z": 0.048105638474226,
      "time_usec": 12456259452
    },
    {
      "x": -0.06765332818031311,
      "y": -0.13805554807186127,
      "z": 0.04444044828414917,
      "time_usec": 12456261707
    },
    {
      "x": -0.06154467165470123,
      "y": -0.14294247329235077,
      "z": 0.04199698567390442,
      "time_usec": 12456263961
    },
    {
      "x": -0.05421429127454758,
      "y": -0.14553864300251007,
      "z": 0.03955352306365967,
      "time_usec": 12456266225
    },
    {
      "x": -0.04795292019844055,
      "y": -0.13836097717285156,
      "z": 0.039706241339445114,
      "time_usec": 12456268482
    },
    {
      "x": -0.039248090237379074,
      "y": -0.13484850525856018,
      "z": 0.04092797264456749,
      "time_usec": 12456270734
    },
    {
      "x": -0.030543262138962746,
      "y": -0.13011430203914642,
      "z": 0.039706241339445114,
      "time_usec": 12456272985
    },
    {
      "x": -0.023060163483023643,
      "y": -0.11942415684461594,
      "z": 0.04230241850018501,
      "time_usec": 12456275247
    },
    {
      "x": -0.016798794269561768,
      "y": -0.11102475970983505,
      "z": 0.04352414980530739,
      "time_usec": 12456277500
    },
    {
      "x": -0.012980886735022068,
      "y": -0.1014036312699318,
      "z": 0.043676864355802536,
      "time_usec": 12456279772
    },
    {
      "x": -0.006719517521560192,
      "y": -0.09437867999076843,
      "z": 0.04489859566092491,
      "time_usec": 12456282024
    },
    {
      "x": -0.0029016099870204926,
      "y": -0.08231408894062042,
      "z": 0.041233405470848083,
      "time_usec": 12456284282
    },
    {
      "x": -0.0029016099870204926,
      "y": -0.08002334833145142,
      "z": 0.04245513305068016,
      "time_usec": 12456286541
    },
    {
      "x": -0.001679879380390048,
      "y": -0.07391469180583954,
      "z": 0.041233405470848083,
      "time_usec": 12456288800
    },
    {
      "x": 0.005803219974040985,
      "y": -0.06811147183179855,
      "z": 0.03894266113638878,
      "time_usec": 12456291057
    },
    {
      "x": 0.005803219974040985,
      "y": -0.0705549344420433,
      "z": 0.03894266113638878,
      "time_usec": 12456293309
    },
    {
      "x": 0.005803219974040985,
      "y": -0.07162395119667053,
      "z": 0.03894266113638878,
      "time_usec": 12456295573
    },
    {
      "x": 0.008246680721640587,
      "y": -0.0705549344420433,
      "z": 0.03527746722102165,
      "time_usec": 12456297828
    },
    {
      "x": 0.005803219974040985,
      "y": -0.07651086896657944,
      "z": 0.030237829312682152,
      "time_usec": 12456300088
    },
    {
      "x": 0.008246680721640587,
      "y": -0.07422012835741043,
      "z": 0.031612277030944824,
      "time_usec": 12456302343
    },
    {
      "x": 0.010690141469240189,
      "y": -0.07895433157682419,
      "z": 0.03039054572582245,
      "time_usec": 12456304596
    },
    {
      "x": 0.014355333521962166,
      "y": -0.08750644326210022,
      "z": 0.029168816283345222,
      "time_usec": 12456306859
    },
    {
      "x": 0.018020525574684143,
      "y": -0.0887281745672226,
      "z": 0.029168816283345222,
      "time_usec": 12456309116
    },
    {
      "x": 0.020463986322283745,
      "y": -0.09239336848258972,
      "z": 0.027947084978222847,
      "time_usec": 12456311373
    },
    {
      "x": 0.022907447069883347,
      "y": -0.098502017557621,
      "z": 0.025503624230623245,
      "time_usec": 12456313624
    },
    {
      "x": 0.022907447069883347,
      "y": -0.10567969083786011,
      "z": 0.02168571576476097,
      "time_usec": 12456315882
    },
    {
      "x": 0.022907447069883347,
      "y": -0.11056660860776901,
      "z": 0.016798794269561768,
      "time_usec": 12456318145
    },
    {
      "x": 0.026572637259960175,
      "y": -0.1189660057425499,
      "z": 0.015577063895761967,
      "time_usec": 12456320404
    },
    {
      "x": 0.02519819140434265,
      "y": -0.12629638612270355,
      "z": 0.014355333521962166,
      "time_usec": 12456322660
    },
    {
      "x": 0.023976460099220276,
      "y": -0.1287398487329483,
      "z": 0.008246680721640587,
      "time_usec": 12456324913
    },
    {
      "x": 0.02519819140434265,
      "y": -0.12996158003807068,
      "z": 0.007024950347840786,
      "time_usec": 12456327176
    },
    {
      "x": 0.026419922709465027,
      "y": -0.12996158003807068,
      "z": 0.005803219974040985,
      "time_usec": 12456329433
    },
    {
      "x": 0.029016099870204926,
      "y": -0.12751811742782593,
      "z": 0.003359758760780096,
      "time_usec": 12456331690
    },
    {
      "x": 0.024129176512360573,
      "y": -0.12034045159816742,
      "z": 0.002138028386980295,
      "time_usec": 12456333942
    },
    {
      "x": 0.024129176512360573,
      "y": -0.1215621829032898,
      "z": 9.162978967651725E-4,
      "time_usec": 12456336203
    },
    {
      "x": 0.024129176512360573,
      "y": -0.11071932315826416,
      "z": 9.162978967651725E-4,
      "time_usec": 12456338455
    },
    {
      "x": 0.01924225501716137,
      "y": -0.10461067408323288,
      "z": -3.054326225537807E-4,
      "time_usec": 12456340707
    },
    {
      "x": 0.01817324012517929,
      "y": -0.09865473955869675,
      "z": -0.001527163083665073,
      "time_usec": 12456342971
    },
    {
      "x": 0.01191187184303999,
      "y": -0.09254608303308487,
      "z": -0.004123340360820293,
      "time_usec": 12456345231
    },
    {
      "x": 0.005803219974040985,
      "y": -0.08765916526317596,
      "z": -0.0029016099870204926,
      "time_usec": 12456347495
    },
    {
      "x": 0.004734205547720194,
      "y": -0.08277224004268646,
      "z": -0.007788531947880983,
      "time_usec": 12456349749
    },
    {
      "x": -3.054326225537807E-4,
      "y": -0.08155050873756409,
      "z": -0.007788531947880983,
      "time_usec": 12456351993
    },
    {
      "x": -0.0027488935738801956,
      "y": -0.08155050873756409,
      "z": -0.007788531947880983,
      "time_usec": 12456354258
    },
    {
      "x": -0.005192354787141085,
      "y": -0.08399397134780884,
      "z": -0.012675453908741474,
      "time_usec": 12456356515
    },
    {
      "x": -0.010231993161141872,
      "y": -0.08506298810243607,
      "z": -0.014049900695681572,
      "time_usec": 12456358768
    },
    {
      "x": -0.011453723534941673,
      "y": -0.08628471940755844,
      "z": -0.014049900695681572,
      "time_usec": 12456361030
    },
    {
      "x": -0.015118914656341076,
      "y": -0.08261952549219131,
      "z": -0.014049900695681572,
      "time_usec": 12456363289
    },
    {
      "x": -0.022449297830462456,
      "y": -0.08017606288194656,
      "z": -0.015271631069481373,
      "time_usec": 12456365554
    },
    {
      "x": -0.02733621932566166,
      "y": -0.07284568250179291,
      "z": -0.015271631069481373,
      "time_usec": 12456367811
    },
    {
      "x": -0.028557950630784035,
      "y": -0.06918048858642578,
      "z": -0.012828170321881771,
      "time_usec": 12456370063
    },
    {
      "x": -0.034666601568460464,
      "y": -0.058337632566690445,
      "z": -0.012828170321881771,
      "time_usec": 12456372309
    },
    {
      "x": -0.03588833287358284,
      "y": -0.05345070734620094,
      "z": -0.01038470957428217,
      "time_usec": 12456374574
    },
    {
      "x": -0.03955352306365967,
      "y": -0.04489859566092491,
      "z": -0.009162978269159794,
      "time_usec": 12456376835
    },
    {
      "x": -0.043218716979026794,
      "y": -0.0377209298312664,
      "z": -0.006719517521560192,
      "time_usec": 12456379099
    },
    {
      "x": -0.04688390716910362,
      "y": -0.03405573591589928,
      "z": -0.00427605677396059,
      "time_usec": 12456381354
    },
    {
      "x": -0.048105638474226,
      "y": -0.031612277030944824,
      "z": -0.006719517521560192,
      "time_usec": 12456383606
    },
    {
      "x": -0.05054909735918045,
      "y": -0.027947084978222847,
      "z": -0.006719517521560192,
      "time_usec": 12456385867
    },
    {
      "x": -0.05054909735918045,
      "y": -0.03039054572582245,
      "z": -0.003054326167330146,
      "time_usec": 12456388125
    },
    {
      "x": -0.04932736977934837,
      "y": -0.02672535367310047,
      "z": -0.005497787147760391,
      "time_usec": 12456390384
    },
    {
      "x": -0.048105638474226,
      "y": -0.027947084978222847,
      "z": -0.009162978269159794,
      "time_usec": 12456392636
    },
    {
      "x": -0.0455094613134861,
      "y": -0.025656340643763542,
      "z": -0.01160643994808197,
      "time_usec": 12456394884
    },
    {
      "x": -0.046731192618608475,
      "y": -0.028099801391363144,
      "z": -0.012828170321881771,
      "time_usec": 12456397155
    },
    {
      "x": -0.04795292019844055,
      "y": -0.028099801391363144,
      "z": -0.015271631069481373,
      "time_usec": 12456399413
    },
    {
      "x": -0.04184427112340927,
      "y": -0.030543262138962746,
      "z": -0.016493361443281174,
      "time_usec": 12456401670
    },
    {
      "x": -0.040622539818286896,
      "y": -0.028099801391363144,
      "z": -0.016493361443281174,
      "time_usec": 12456403917
    },
    {
      "x": -0.03436116874217987,
      "y": -0.029474247246980667,
      "z": -0.01771509274840355,
      "time_usec": 12456406184
    },
    {
      "x": -0.03451388701796532,
      "y": -0.03191770985722542,
      "z": -0.016493361443281174,
      "time_usec": 12456408442
    },
    {
      "x": -0.02825251780450344,
      "y": -0.030695978552103043,
      "z": -0.016493361443281174,
      "time_usec": 12456410702
    },
    {
      "x": -0.024587325751781464,
      "y": -0.030695978552103043,
      "z": -0.015118914656341076,
      "time_usec": 12456412949
    },
    {
      "x": -0.023365596309304237,
      "y": -0.033139441162347794,
      "z": -0.015118914656341076,
      "time_usec": 12456415208
    },
    {
      "x": -0.018478672951459885,
      "y": -0.039248090237379074,
      "z": -0.015118914656341076,
      "time_usec": 12456417468
    },
    {
      "x": -0.013591751456260681,
      "y": -0.044135015457868576,
      "z": -0.013897184282541275,
      "time_usec": 12456419714
    },
    {
      "x": -0.013591751456260681,
      "y": -0.04886921867728233,
      "z": -0.012675453908741474,
      "time_usec": 12456421974
    },
    {
      "x": -0.009926560334861279,
      "y": -0.05619960278272629,
      "z": -0.012675453908741474,
      "time_usec": 12456424238
    },
    {
      "x": -0.008704829961061478,
      "y": -0.059864792972803116,
      "z": -0.012675453908741474,
      "time_usec": 12456426504
    },
    {
      "x": -0.0074830991216003895,
      "y": -0.06108652427792549,
      "z": -0.011453723534941673,
      "time_usec": 12456428761
    },
    {
      "x": -0.006261368747800589,
      "y": -0.06230825558304787,
      "z": -0.011453723534941673,
      "time_usec": 12456431014
    },
    {
      "x": -0.005039638374000788,
      "y": -0.06108652427792549,
      "z": -0.0065668015740811825,
      "time_usec": 12456433268
    },
    {
      "x": -0.005039638374000788,
      "y": -0.05497787147760391,
      "z": -0.0065668015740811825,
      "time_usec": 12456435532
    },
    {
      "x": -0.00366519158706069,
      "y": -0.047800205647945404,
      "z": -0.004123340360820293,
      "time_usec": 12456437790
    },
    {
      "x": -0.004886921960860491,
      "y": -0.03695734590291977,
      "z": 9.162978967651725E-4,
      "time_usec": 12456440055
    },
    {
      "x": 1.5271631127689034E-4,
      "y": -0.021380282938480377,
      "z": 9.162978967651725E-4,
      "time_usec": 12456442301
    },
    {
      "x": 0.001527163083665073,
      "y": -0.014202617108821869,
      "z": 9.162978967651725E-4,
      "time_usec": 12456444554
    },
    {
      "x": 0.005192354787141085,
      "y": -0.004581489134579897,
      "z": 0.004734205547720194,
      "time_usec": 12456446815
    },
    {
      "x": 0.010231993161141872,
      "y": 0.003817907767370343,
      "z": 0.007177666760981083,
      "time_usec": 12456449075
    },
    {
      "x": 0.01771509274840355,
      "y": 0.010995574295520782,
      "z": 0.008399397134780884,
      "time_usec": 12456451332
    },
    {
      "x": 0.01771509274840355,
      "y": 0.01817324012517929,
      "z": 0.00855211354792118,
      "time_usec": 12456453586
    },
    {
      "x": 0.020311269909143448,
      "y": 0.022907447069883347,
      "z": 0.00733038317412138,
      "time_usec": 12456455847
    },
    {
      "x": 0.023976460099220276,
      "y": 0.026419922709465027,
      "z": 0.004886921960860491,
      "time_usec": 12456458101
    },
    {
      "x": 0.026572637259960175,
      "y": 0.030085112899541855,
      "z": 0.00366519158706069,
      "time_usec": 12456460351
    },
    {
      "x": 0.026572637259960175,
      "y": 0.03237585723400116,
      "z": 0.0012217304902151227,
      "time_usec": 12456462618
    },
    {
      "x": 0.027947084978222847,
      "y": 0.03955352306365967,
      "z": -0.0,
      "time_usec": 12456464870
    },
    {
      "x": 0.03039054572582245,
      "y": 0.034666601568460464,
      "z": -0.004886921960860491,
      "time_usec": 12456467133
    },
    {
      "x": 0.031612277030944824,
      "y": 0.037110064178705215,
      "z": -0.0012217304902151227,
      "time_usec": 12456469393
    },
    {
      "x": 0.031612277030944824,
      "y": 0.03588833287358284,
      "z": -0.0024434609804302454,
      "time_usec": 12456471647
    },
    {
      "x": 0.03527746722102165,
      "y": 0.034666601568460464,
      "z": -0.0024434609804302454,
      "time_usec": 12456473901
    },
    {
      "x": 0.031612277030944824,
      "y": 0.033597588539123535,
      "z": -0.0,
      "time_usec": 12456476164
    },
    {
      "x": 0.0328340083360672,
      "y": 0.034666601568460464,
      "z": -0.004886921960860491,
      "time_usec": 12456478417
    },
    {
      "x": 0.0377209298312664,
      "y": 0.03833179548382759,
      "z": -0.0024434609804302454,
      "time_usec": 12456480665
    },
    {
      "x": 0.03894266113638878,
      "y": 0.03695734590291977,
      "z": -0.004886921960860491,
      "time_usec": 12456482929
    },
    {
      "x": 0.042760565876960754,
      "y": 0.03940080851316452,
      "z": -0.00733038317412138,
      "time_usec": 12456485188
    },
    {
      "x": 0.04642575979232788,
      "y": 0.0429132841527462,
      "z": -0.007177666760981083,
      "time_usec": 12456487454
    },
    {
      "x": 0.04902193695306778,
      "y": 0.0429132841527462,
      "z": -0.010842857882380486,
      "time_usec": 12456489709
    },
    {
      "x": 0.04902193695306778,
      "y": 0.041691552847623825,
      "z": -0.015882495790719986,
      "time_usec": 12456491965
    },
    {
      "x": 0.04902193695306778,
      "y": 0.045204028487205505,
      "z": -0.015882495790719986,
      "time_usec": 12456494217
    },
    {
      "x": 0.05146539583802223,
      "y": 0.04886921867728233,
      "z": -0.01817324012517929,
      "time_usec": 12456496478
    },
    {
      "x": 0.055283304303884506,
      "y": 0.048716504126787186,
      "z": -0.01817324012517929,
      "time_usec": 12456498733
    },
    {
      "x": 0.05406157299876213,
      "y": 0.05604688450694084,
      "z": -0.01817324012517929,
      "time_usec": 12456500995
    },
    {
      "x": 0.05650503560900688,
      "y": 0.055894169956445694,
      "z": -0.019394971430301666,
      "time_usec": 12456503248
    },
    {
      "x": 0.061391957104206085,
      "y": 0.05467243865132332,
      "z": -0.020616702735424042,
      "time_usec": 12456505511
    },
    {
      "x": 0.058948494493961334,
      "y": 0.05711590126156807,
      "z": -0.019394971430301666,
      "time_usec": 12456507768
    },
    {
      "x": 0.05772676691412926,
      "y": 0.05711590126156807,
      "z": -0.020616702735424042,
      "time_usec": 12456510024
    },
    {
      "x": 0.058948494493961334,
      "y": 0.05711590126156807,
      "z": -0.019394971430301666,
      "time_usec": 12456512282
    },
    {
      "x": 0.06017022579908371,
      "y": 0.05467243865132332,
      "z": -0.019394971430301666,
      "time_usec": 12456514531
    },
    {
      "x": 0.06643159687519073,
      "y": 0.052228979766368866,
      "z": -0.019394971430301666,
      "time_usec": 12456516786
    },
    {
      "x": 0.07131851464509964,
      "y": 0.052228979766368866,
      "z": -0.01817324012517929,
      "time_usec": 12456519056
    },
    {
      "x": 0.07498370856046677,
      "y": 0.053297992795705795,
      "z": -0.016798794269561768,
      "time_usec": 12456521312
    },
    {
      "x": 0.07880161702632904,
      "y": 0.05451972410082817,
      "z": -0.013133603148162365,
      "time_usec": 12456523567
    },
    {
      "x": 0.08994990587234497,
      "y": 0.05803219974040985,
      "z": -0.013133603148162365,
      "time_usec": 12456525827
    },
    {
      "x": 0.09972374886274338,
      "y": 0.05665775015950203,
      "z": -0.012980886735022068,
      "time_usec": 12456528084
    },
    {
      "x": 0.1059851199388504,
      "y": 0.05543602257966995,
      "z": -0.010537425056099892,
      "time_usec": 12456530343
    },
    {
      "x": 0.11453723162412643,
      "y": 0.04444044828414917,
      "z": -0.00809396430850029,
      "time_usec": 12456532597
    },
    {
      "x": 0.12431107461452484,
      "y": 0.029932396486401558,
      "z": -0.004428773187100887,
      "time_usec": 12456534850
    },
    {
      "x": 0.12782354652881622,
      "y": 0.01664607785642147,
      "z": -0.006872233934700489,
      "time_usec": 12456537108
    },
    {
      "x": 0.13011430203914642,
      "y": -0.010995574295520782,
      "z": -0.0032070425804704428,
      "time_usec": 12456539371
    },
    {
      "x": 0.12247848510742188,
      "y": -0.04459316283464432,
      "z": -0.005803219974040985,
      "time_usec": 12456541628
    },
    {
      "x": 0.11102475970983505,
      "y": -0.07590000331401825,
      "z": -0.014508049935102463,
      "time_usec": 12456543882
    },
    {
      "x": 0.10354165732860565,
      "y": -0.09987647086381912,
      "z": -0.02076941914856434,
      "time_usec": 12456546143
    },
    {
      "x": 0.09346238523721695,
      "y": -0.1189660057425499,
      "z": -0.025656340643763542,
      "time_usec": 12456548401
    },
    {
      "x": 0.08597928285598755,
      "y": -0.12858712673187256,
      "z": -0.02825251780450344,
      "time_usec": 12456550658
    },
    {
      "x": 0.08597928285598755,
      "y": -0.13576480746269226,
      "z": -0.030695978552103043,
      "time_usec": 12456552909
    },
    {
      "x": 0.08216137439012527,
      "y": -0.14049901068210602,
      "z": -0.030695978552103043,
      "time_usec": 12456555167
    },
    {
      "x": 0.07849618047475815,
      "y": -0.13927727937698364,
      "z": -0.027030786499381065,
      "time_usec": 12456557430
    },
    {
      "x": 0.07849618047475815,
      "y": -0.13927727937698364,
      "z": -0.023365596309304237,
      "time_usec": 12456559689
    },
    {
      "x": 0.07971791177988052,
      "y": -0.13805554807186127,
      "z": -0.020922135561704636,
      "time_usec": 12456561946
    },
    {
      "x": 0.07467827945947647,
      "y": -0.13316862285137177,
      "z": -0.016035212203860283,
      "time_usec": 12456564197
    },
    {
      "x": 0.076052725315094,
      "y": -0.1258382350206375,
      "z": -0.01114829070866108,
      "time_usec": 12456566459
    },
    {
      "x": 0.06872233748435974,
      "y": -0.11499538272619247,
      "z": -0.008704829961061478,
      "time_usec": 12456568713
    },
    {
      "x": 0.07009678333997726,
      "y": -0.09926560521125793,
      "z": -0.006108652334660292,
      "time_usec": 12456570975
    },
    {
      "x": 0.06643159687519073,
      "y": -0.08597928285598755,
      "z": -0.00366519158706069,
      "time_usec": 12456573227
    },
    {
      "x": 0.06169738993048668,
      "y": -0.06673702597618103,
      "z": -0.0012217304902151227,
      "time_usec": 12456575492
    },
    {
      "x": 0.05803219974040985,
      "y": -0.04505131021142006,
      "z": -0.0012217304902151227,
      "time_usec": 12456577749
    },
    {
      "x": 0.05207626149058342,
      "y": -0.02932153269648552,
      "z": -0.006108652334660292,
      "time_usec": 12456579993
    },
    {
      "x": 0.047189339995384216,
      "y": -0.018478672951459885,
      "z": -0.010995574295520782,
      "time_usec": 12456582256
    },
    {
      "x": 0.043676864355802536,
      "y": -0.010079276748001575,
      "z": -0.016035212203860283,
      "time_usec": 12456584513
    },
    {
      "x": 0.04245513305068016,
      "y": -0.007635815534740686,
      "z": -0.020922135561704636,
      "time_usec": 12456586774
    },
    {
      "x": 0.038637228310108185,
      "y": -0.01237002108246088,
      "z": -0.027030786499381065,
      "time_usec": 12456589031
    },
    {
      "x": 0.032528575509786606,
      "y": -0.016035212203860283,
      "z": -0.033139441162347794,
      "time_usec": 12456591291
    },
    {
      "x": 0.02886338345706463,
      "y": -0.02076941914856434,
      "z": -0.040622539818286896,
      "time_usec": 12456593543
    },
    {
      "x": 0.02626720629632473,
      "y": -0.028099801391363144,
      "z": -0.04917465150356293,
      "time_usec": 12456595799
    },
    {
      "x": 0.01878410577774048,
      "y": -0.03405573591589928,
      "z": -0.0529925599694252,
      "time_usec": 12456598061
    },
    {
      "x": 0.016340645030140877,
      "y": -0.03634648025035858,
      "z": -0.057879481464624405,
      "time_usec": 12456600322
    },
    {
      "x": 0.0039706239476799965,
      "y": -0.03741549700498581,
      "z": -0.05421429127454758,
      "time_usec": 12456602579
    },
    {
      "x": -0.003359758760780096,
      "y": -0.03375030308961868,
      "z": -0.05192354694008827,
      "time_usec": 12456604830
    },
    {
      "x": -0.007024950347840786,
      "y": -0.030085112899541855,
      "z": -0.04948008432984352,
      "time_usec": 12456607088
    },
    {
      "x": -0.010842857882380486,
      "y": -0.02871066704392433,
      "z": -0.04581489413976669,
      "time_usec": 12456609350
    },
    {
      "x": -0.01572977937757969,
      "y": -0.02871066704392433,
      "z": -0.04214970022439957,
      "time_usec": 12456611608
    },
    {
      "x": -0.02076941914856434,
      "y": -0.024892758578062057,
      "z": -0.033597588539123535,
      "time_usec": 12456613858
    },
    {
      "x": -0.02076941914856434,
      "y": -0.022449297830462456,
      "z": -0.029932396486401558,
      "time_usec": 12456616111
    },
    {
      "x": -0.02076941914856434,
      "y": -0.022449297830462456,
      "z": -0.022449297830462456,
      "time_usec": 12456618380
    },
    {
      "x": -0.021991148591041565,
      "y": -0.017562376335263252,
      "z": -0.020005837082862854,
      "time_usec": 12456620638
    },
    {
      "x": -0.019394971430301666,
      "y": -0.012828170321881771,
      "z": -0.015118914656341076,
      "time_usec": 12456622893
    },
    {
      "x": -0.01572977937757969,
      "y": -0.01038470957428217,
      "z": -0.013897184282541275,
      "time_usec": 12456625147
    },
    {
      "x": -0.009468411095440388,
      "y": -0.002138028386980295,
      "z": -0.011301007121801376,
      "time_usec": 12456627410
    },
    {
      "x": -0.002138028386980295,
      "y": 0.001527163083665073,
      "z": -0.007635815534740686,
      "time_usec": 12456629668
    },
    {
      "x": 0.004123340360820293,
      "y": 0.0025961773935705423,
      "z": -0.005192354787141085,
      "time_usec": 12456631925
    },
    {
      "x": 0.014049900695681572,
      "y": 0.00366519158706069,
      "z": -0.005039638374000788,
      "time_usec": 12456634177
    },
    {
      "x": 0.021380282938480377,
      "y": 0.00366519158706069,
      "z": -0.0025961773935705423,
      "time_usec": 12456636436
    },
    {
      "x": 0.02886338345706463,
      "y": 0.005955935921519995,
      "z": 0.0024434609804302454,
      "time_usec": 12456638698
    },
    {
      "x": 0.032528575509786606,
      "y": 0.01191187184303999,
      "z": 0.006108652334660292,
      "time_usec": 12456640953
    },
    {
      "x": 0.03375030308961868,
      "y": 0.013133603148162365,
      "z": 0.00855211354792118,
      "time_usec": 12456643203
    },
    {
      "x": 0.04001167416572571,
      "y": 0.013133603148162365,
      "z": 0.010995574295520782,
      "time_usec": 12456645467
    },
    {
      "x": 0.041233405470848083,
      "y": 0.014202617108821869,
      "z": 0.00855211354792118,
      "time_usec": 12456647722
    },
    {
      "x": 0.03878994286060333,
      "y": 0.01664607785642147,
      "z": 0.009773843921720982,
      "time_usec": 12456649986
    },
    {
      "x": 0.03878994286060333,
      "y": 0.01664607785642147,
      "z": 0.00733038317412138,
      "time_usec": 12456652241
    },
    {
      "x": 0.04489859566092491,
      "y": 0.014202617108821869,
      "z": 0.00855211354792118,
      "time_usec": 12456654494
    },
    {
      "x": 0.04612032696604729,
      "y": 0.010537425056099892,
      "z": 0.00855211354792118,
      "time_usec": 12456656756
    },
    {
      "x": 0.04489859566092491,
      "y": 0.007024950347840786,
      "z": 0.010995574295520782,
      "time_usec": 12456659018
    },
    {
      "x": 0.05345070734620094,
      "y": -0.0027488935738801956,
      "z": 0.005039638374000788,
      "time_usec": 12456661271
    },
    {
      "x": 0.058337632566690445,
      "y": -0.012522737495601177,
      "z": -0.0,
      "time_usec": 12456663523
    },
    {
      "x": 0.06444628536701202,
      "y": -0.01863138936460018,
      "z": -0.00733038317412138,
      "time_usec": 12456665787
    },
    {
      "x": 0.06948592513799667,
      "y": -0.029626963660120964,
      "z": -0.015882495790719986,
      "time_usec": 12456668052
    },
    {
      "x": 0.07299839705228806,
      "y": -0.039248090237379074,
      "z": -0.021991148591041565,
      "time_usec": 12456670303
    },
    {
      "x": 0.0754418596625328,
      "y": -0.050243668258190155,
      "z": -0.02932153269648552,
      "time_usec": 12456672555
    },
    {
      "x": 0.07422012835741043,
      "y": -0.05619960278272629,
      "z": -0.030543262138962746,
      "time_usec": 12456674800
    },
    {
      "x": 0.07299839705228806,
      "y": -0.059864792972803116,
      "z": -0.03176499158143997,
      "time_usec": 12456677069
    },
    {
      "x": 0.06918048858642578,
      "y": -0.06215553730726242,
      "z": -0.03191770985722542,
      "time_usec": 12456679317
    },
    {
      "x": 0.06429356336593628,
      "y": -0.060933809727430344,
      "z": -0.02825251780450344,
      "time_usec": 12456681589
    },
    {
      "x": 0.060475658625364304,
      "y": -0.06200282275676727,
      "z": -0.018478672951459885,
      "time_usec": 12456683840
    },
    {
      "x": 0.056810468435287476,
      "y": -0.0607810914516449,
      "z": -0.01725694350898266,
      "time_usec": 12456686105
    },
    {
      "x": 0.054367005825042725,
      "y": -0.055894169956445694,
      "z": -0.01114829070866108,
      "time_usec": 12456688361
    },
    {
      "x": 0.05192354694008827,
      "y": -0.05451972410082817,
      "z": -0.0074830991216003895,
      "time_usec": 12456690619
    },
    {
      "x": 0.048105638474226,
      "y": -0.053297992795705795,
      "z": -0.005039638374000788,
      "time_usec": 12456692877
    },
    {
      "x": 0.05192354694008827,
      "y": -0.04612032696604729,
      "z": -0.00366519158706069,
      "time_usec": 12456695126
    },
    {
      "x": 0.04948008432984352,
      "y": -0.03527746722102165,
      "z": -0.0012217304902151227,
      "time_usec": 12456697389
    },
    {
      "x": 0.047189339995384216,
      "y": -0.02672535367310047,
      "z": -0.0,
      "time_usec": 12456699646
    },
    {
      "x": 0.04841107130050659,
      "y": -0.018325956538319588,
      "z": 0.0012217304902151227,
      "time_usec": 12456701904
    },
    {
      "x": 0.052228979766368866,
      "y": -0.009926560334861279,
      "z": 0.004886921960860491,
      "time_usec": 12456704156
    },
    {
      "x": 0.05849034711718559,
      "y": -4.5814894838258624E-4,
      "z": 0.008704829961061478,
      "time_usec": 12456706420
    },
    {
      "x": 0.060933809727430344,
      "y": 0.005650503560900688,
      "z": 0.01114829070866108,
      "time_usec": 12456708676
    },
    {
      "x": 0.0633772686123848,
      "y": 0.005497787147760391,
      "z": 0.01237002108246088,
      "time_usec": 12456710934
    },
    {
      "x": 0.06459899991750717,
      "y": 0.005497787147760391,
      "z": 0.01237002108246088,
      "time_usec": 12456713186
    },
    {
      "x": 0.06215553730726242,
      "y": 0.004428773187100887,
      "z": 0.014813481830060482,
      "time_usec": 12456715450
    },
    {
      "x": 0.060933809727430344,
      "y": -4.5814894838258624E-4,
      "z": 0.013591751456260681,
      "time_usec": 12456717710
    },
    {
      "x": 0.05711590126156807,
      "y": -0.0039706239476799965,
      "z": 0.013591751456260681,
      "time_usec": 12456719965
    },
    {
      "x": 0.050854530185461044,
      "y": -0.012217304669320583,
      "z": 0.01725694350898266,
      "time_usec": 12456722219
    },
    {
      "x": 0.04230241850018501,
      "y": -0.010995574295520782,
      "z": 0.01710422709584236,
      "time_usec": 12456724471
    },
    {
      "x": 0.036041051149368286,
      "y": -0.008399397134780884,
      "z": 0.024434609338641167,
      "time_usec": 12456726727
    },
    {
      "x": 0.027488935738801956,
      "y": 0.0013744467869400978,
      "z": 0.02687807008624077,
      "time_usec": 12456728994
    },
    {
      "x": 0.017562376335263252,
      "y": 0.008704829961061478,
      "z": 0.02932153269648552,
      "time_usec": 12456731250
    },
    {
      "x": 0.009010262787342072,
      "y": 0.016035212203860283,
      "z": 0.03176499158143997,
      "time_usec": 12456733505
    },
    {
      "x": 0.001679879380390048,
      "y": 0.02932153269648552,
      "z": 0.036651913076639175,
      "time_usec": 12456735764
    },
    {
      "x": -0.004428773187100887,
      "y": 0.0354301854968071,
      "z": 0.0354301854968071,
      "time_usec": 12456738020
    },
    {
      "x": -0.015577063895761967,
      "y": 0.03680463135242462,
      "z": 0.03649919852614403,
      "time_usec": 12456740278
    },
    {
      "x": -0.01924225501716137,
      "y": 0.03329215571284294,
      "z": 0.03405573591589928,
      "time_usec": 12456742524
    },
    {
      "x": -0.02428189292550087,
      "y": 0.028557950630784035,
      "z": 0.031612277030944824,
      "time_usec": 12456744789
    },
    {
      "x": -0.03298672288656235,
      "y": 0.026114489883184433,
      "z": 0.02779436856508255,
      "time_usec": 12456747050
    },
    {
      "x": -0.03787364438176155,
      "y": 0.018936822190880775,
      "z": 0.018020525574684143,
      "time_usec": 12456749312
    },
    {
      "x": -0.041691552847623825,
      "y": 0.010537425056099892,
      "z": 0.012980886735022068,
      "time_usec": 12456751567
    },
    {
      "x": -0.046731192618608475,
      "y": -0.005039638374000788,
      "z": 0.00809396430850029,
      "time_usec": 12456753820
    },
    {
      "x": -0.0529925599694252,
      "y": -0.021838432177901268,
      "z": 0.00427605677396059,
      "time_usec": 12456756082
    },
    {
      "x": -0.054367005825042725,
      "y": -0.035124752670526505,
      "z": -0.001832595793530345,
      "time_usec": 12456758339
    },
    {
      "x": -0.056810468435287476,
      "y": -0.044745877385139465,
      "z": -0.006872233934700489,
      "time_usec": 12456760599
    },
    {
      "x": -0.055741455405950546,
      "y": -0.054367005825042725,
      "z": -0.010537425056099892,
      "time_usec": 12456762853
    },
    {
      "x": -0.05451972410082817,
      "y": -0.05925392732024193,
      "z": -0.012980886735022068,
      "time_usec": 12456765106
    },
    {
      "x": -0.05207626149058342,
      "y": -0.07009678333997726,
      "z": -0.01542434748262167,
      "time_usec": 12456767368
    },
    {
      "x": -0.05100724846124649,
      "y": -0.0858265683054924,
      "z": -0.01664607785642147,
      "time_usec": 12456769626
    },
    {
      "x": -0.049785517156124115,
      "y": -0.09789115190505981,
      "z": -0.020311269909143448,
      "time_usec": 12456771884
    },
    {
      "x": -0.04489859566092491,
      "y": -0.10995574295520782,
      "z": -0.017867809161543846,
      "time_usec": 12456774136
    },
    {
      "x": -0.04260785132646561,
      "y": -0.11957687139511108,
      "z": -0.020311269909143448,
      "time_usec": 12456776397
    },
    {
      "x": -0.04382958263158798,
      "y": -0.12079860270023346,
      "z": -0.020311269909143448,
      "time_usec": 12456778646
    },
    {
      "x": -0.04260785132646561,
      "y": -0.1267545372247696,
      "z": -0.017867809161543846,
      "time_usec": 12456780900
    },
    {
      "x": -0.03649919852614403,
      "y": -0.13530665636062622,
      "z": -0.020311269909143448,
      "time_usec": 12456783165
    },
    {
      "x": -0.03527746722102165,
      "y": -0.14248432219028473,
      "z": -0.021532999351620674,
      "time_usec": 12456785430
    },
    {
      "x": -0.031612277030944824,
      "y": -0.14614951610565186,
      "z": -0.02519819140434265,
      "time_usec": 12456787689
    },
    {
      "x": -0.027947084978222847,
      "y": -0.15103642642498016,
      "z": -0.02519819140434265,
      "time_usec": 12456789944
    },
    {
      "x": -0.031612277030944824,
      "y": -0.15225815773010254,
      "z": -0.02779436856508255,
      "time_usec": 12456792199
    },
    {
      "x": -0.03420845419168472,
      "y": -0.16065755486488342,
      "z": -0.030237829312682152,
      "time_usec": 12456794452
    },
    {
      "x": -0.030543262138962746,
      "y": -0.16065755486488342,
      "z": -0.035124752670526505,
      "time_usec": 12456796712
    },
    {
      "x": -0.03176499158143997,
      "y": -0.1595885455608368,
      "z": -0.035124752670526505,
      "time_usec": 12456798972
    },
    {
      "x": -0.031612277030944824,
      "y": -0.15714508295059204,
      "z": -0.04001167416572571,
      "time_usec": 12456801231
    },
    {
      "x": -0.039095375686883926,
      "y": -0.15821409225463867,
      "z": -0.043676864355802536,
      "time_usec": 12456803482
    },
    {
      "x": -0.039095375686883926,
      "y": -0.15821409225463867,
      "z": -0.041233405470848083,
      "time_usec": 12456805741
    },
    {
      "x": -0.04398229718208313,
      "y": -0.15577064454555511,
      "z": -0.04382958263158798,
      "time_usec": 12456808003
    },
    {
      "x": -0.05009094998240471,
      "y": -0.1508837193250656,
      "z": -0.04138612002134323,
      "time_usec": 12456810261
    },
    {
      "x": -0.05513058975338936,
      "y": -0.14844025671482086,
      "z": -0.03894266113638878,
      "time_usec": 12456812517
    },
    {
      "x": -0.058795779943466187,
      "y": -0.1459967941045761,
      "z": -0.03649919852614403,
      "time_usec": 12456814771
    },
    {
      "x": -0.06368270516395569,
      "y": -0.144622340798378,
      "z": -0.029168816283345222,
      "time_usec": 12456817040
    },
    {
      "x": -0.06368270516395569,
      "y": -0.14217889308929443,
      "z": -0.02428189292550087,
      "time_usec": 12456819279
    },
    {
      "x": -0.06612616032361984,
      "y": -0.13607023656368256,
      "z": -0.019394971430301666,
      "time_usec": 12456821546
    },
    {
      "x": -0.06979135423898697,
      "y": -0.12996158003807068,
      "z": -0.016951510682702065,
      "time_usec": 12456823796
    },
    {
      "x": -0.07360926270484924,
      "y": -0.1287398487329483,
      "z": -0.013286318629980087,
      "time_usec": 12456826063
    },
    {
      "x": -0.076052725315094,
      "y": -0.12140946835279465,
      "z": -0.009468411095440388,
      "time_usec": 12456828319
    },
    {
      "x": -0.078343465924263,
      "y": -0.11301007121801376,
      "z": -0.008246680721640587,
      "time_usec": 12456830578
    },
    {
      "x": -0.08078692853450775,
      "y": -0.10567969083786011,
      "z": -0.007024950347840786,
      "time_usec": 12456832833
    },
    {
      "x": -0.08445212244987488,
      "y": -0.10094548016786575,
      "z": -0.004581489134579897,
      "time_usec": 12456835086
    },
    {
      "x": -0.08689557760953903,
      "y": -0.09010262042284012,
      "z": -0.005803219974040985,
      "time_usec": 12456837348
    },
    {
      "x": -0.09056077152490616,
      "y": -0.08155050873756409,
      "z": -0.004581489134579897,
      "time_usec": 12456839602
    },
    {
      "x": -0.09178250283002853,
      "y": -0.07559457421302795,
      "z": -0.005803219974040985,
      "time_usec": 12456841851
    },
    {
      "x": -0.09407325088977814,
      "y": -0.06352998316287994,
      "z": -0.004581489134579897,
      "time_usec": 12456844115
    },
    {
      "x": -0.09529497474431992,
      "y": -0.05742133408784866,
      "z": -0.004581489134579897,
      "time_usec": 12456846378
    },
    {
      "x": -0.09773843735456467,
      "y": -0.04657847434282303,
      "z": -0.005803219974040985,
      "time_usec": 12456848639
    },
    {
      "x": -0.09758572280406952,
      "y": -0.04306599870324135,
      "z": -0.009468411095440388,
      "time_usec": 12456850894
    },
    {
      "x": -0.0988074541091919,
      "y": -0.034666601568460464,
      "z": -0.01191187184303999,
      "time_usec": 12456853145
    },
    {
      "x": -0.1010981947183609,
      "y": -0.024892758578062057,
      "z": -0.013133603148162365,
      "time_usec": 12456855407
    },
    {
      "x": -0.10735956579446793,
      "y": -0.02015855349600315,
      "z": -0.01817324012517929,
      "time_usec": 12456857665
    },
    {
      "x": -0.1134682223200798,
      "y": -0.014049900695681572,
      "z": -0.021838432177901268,
      "time_usec": 12456859924
    },
    {
      "x": -0.11835514008998871,
      "y": -0.009162978269159794,
      "z": -0.02672535367310047,
      "time_usec": 12456862178
    },
    {
      "x": -0.12324206531047821,
      "y": -0.00427605677396059,
      "z": -0.029168816283345222,
      "time_usec": 12456864431
    },
    {
      "x": -0.1281289905309677,
      "y": -6.108652451075613E-4,
      "z": -0.029168816283345222,
      "time_usec": 12456866691
    },
    {
      "x": -0.13439035415649414,
      "y": -0.004123340360820293,
      "z": -0.02687807008624077,
      "time_usec": 12456868953
    },
    {
      "x": -0.14294247329235077,
      "y": -0.0064140851609408855,
      "z": -0.028099801391363144,
      "time_usec": 12456871209
    },
    {
      "x": -0.15164729952812195,
      "y": -0.0064140851609408855,
      "z": -0.02687807008624077,
      "time_usec": 12456873462
    },
    {
      "x": -0.15913039445877075,
      "y": -0.012217304669320583,
      "z": -0.02580905705690384,
      "time_usec": 12456875719
    },
    {
      "x": -0.16294831037521362,
      "y": -0.019394971430301666,
      "z": -0.020922135561704636,
      "time_usec": 12456877981
    },
    {
      "x": -0.16798794269561768,
      "y": -0.02779436856508255,
      "z": -0.018478672951459885,
      "time_usec": 12456880240
    },
    {
      "x": -0.17043140530586243,
      "y": -0.036041051149368286,
      "z": -0.014813481830060482,
      "time_usec": 12456882496
    },
    {
      "x": -0.17180584371089935,
      "y": -0.043218716979026794,
      "z": -0.009926560334861279,
      "time_usec": 12456884751
    },
    {
      "x": -0.17806722223758698,
      "y": -0.05161811411380768,
      "z": -0.005039638374000788,
      "time_usec": 12456887019
    },
    {
      "x": -0.17440202832221985,
      "y": -0.06475171446800232,
      "z": -0.0025961773935705423,
      "time_usec": 12456889269
    },
    {
      "x": -0.17211128771305084,
      "y": -0.0708603709936142,
      "z": -1.5271631127689034E-4,
      "time_usec": 12456891526
    },
    {
      "x": -0.17088955640792847,
      "y": -0.07559457421302795,
      "z": 0.003512475173920393,
      "time_usec": 12456893774
    },
    {
      "x": -0.1635591685771942,
      "y": -0.07925976812839508,
      "z": 0.004734205547720194,
      "time_usec": 12456896029
    },
    {
      "x": -0.1598939746618271,
      "y": -0.08659014850854874,
      "z": 0.005955935921519995,
      "time_usec": 12456898298
    },
    {
      "x": -0.14996741712093353,
      "y": -0.09392052888870239,
      "z": 0.009773843921720982,
      "time_usec": 12456900557
    },
    {
      "x": -0.1488984078168869,
      "y": -0.09987647086381912,
      "z": 0.010995574295520782,
      "time_usec": 12456902816
    },
    {
      "x": -0.1440114825963974,
      "y": -0.10354165732860565,
      "z": 0.010995574295520782,
      "time_usec": 12456905066
    },
    {
      "x": -0.1414152979850769,
      "y": -0.1059851199388504,
      "z": 0.010995574295520782,
      "time_usec": 12456907328
    },
    {
      "x": -0.14278975129127502,
      "y": -0.10965031385421753,
      "z": 0.009773843921720982,
      "time_usec": 12456909585
    },
    {
      "x": -0.13408492505550385,
      "y": -0.10980302840471268,
      "z": 0.012217304669320583,
      "time_usec": 12456911843
    },
    {
      "x": -0.13286319375038147,
      "y": -0.10735956579446793,
      "z": 0.010995574295520782,
      "time_usec": 12456914097
    },
    {
      "x": -0.1290452778339386,
      "y": -0.10262536257505417,
      "z": 0.009773843921720982,
      "time_usec": 12456916357
    },
    {
      "x": -0.12782354652881622,
      "y": -0.1014036312699318,
      "z": 0.009773843921720982,
      "time_usec": 12456918615
    },
    {
      "x": -0.12538009881973267,
      "y": -0.09666942805051804,
      "z": 0.013591751456260681,
      "time_usec": 12456920872
    },
    {
      "x": -0.1215621829032898,
      "y": -0.09178250283002853,
      "z": 0.013591751456260681,
      "time_usec": 12456923126
    },
    {
      "x": -0.12400564551353455,
      "y": -0.08338310569524765,
      "z": 0.01237002108246088,
      "time_usec": 12456925387
    },
    {
      "x": -0.1215621829032898,
      "y": -0.07742717117071152,
      "z": 0.016035212203860283,
      "time_usec": 12456927644
    },
    {
      "x": -0.1189660057425499,
      "y": -0.07376197725534439,
      "z": 0.014813481830060482,
      "time_usec": 12456929903
    },
    {
      "x": -0.11530081182718277,
      "y": -0.06780604273080826,
      "z": 0.016035212203860283,
      "time_usec": 12456932158
    },
    {
      "x": -0.11392636597156525,
      "y": -0.06551529467105865,
      "z": 0.013591751456260681,
      "time_usec": 12456934408
    },
    {
      "x": -0.11392636597156525,
      "y": -0.06062837690114975,
      "z": 0.014966198243200779,
      "time_usec": 12456936662
    },
    {
      "x": -0.10644327104091644,
      "y": -0.05955936014652252,
      "z": 0.013744467869400978,
      "time_usec": 12456938932
    },
    {
      "x": -0.10399980843067169,
      "y": -0.05726861581206322,
      "z": 0.013744467869400978,
      "time_usec": 12456941188
    },
    {
      "x": -0.10155634582042694,
      "y": -0.05360342562198639,
      "z": 0.014966198243200779,
      "time_usec": 12456943438
    },
    {
      "x": -0.09773843735456467,
      "y": -0.05375614017248154,
      "z": 0.010079276748001575,
      "time_usec": 12456945711
    },
    {
      "x": -0.09162978827953339,
      "y": -0.05253441259264946,
      "z": 0.012522737495601177,
      "time_usec": 12456947961
    },
    {
      "x": -0.08918632566928864,
      "y": -0.05146539583802223,
      "z": 0.011453723534941673,
      "time_usec": 12456950219
    },
    {
      "x": -0.08536841720342636,
      "y": -0.047800205647945404,
      "z": 0.007788531947880983,
      "time_usec": 12456952460
    },
    {
      "x": -0.07910704612731934,
      "y": -0.044287730008363724,
      "z": 0.0065668015740811825,
      "time_usec": 12456954730
    },
    {
      "x": -0.07177666574716568,
      "y": -0.043218716979026794,
      "z": 0.007788531947880983,
      "time_usec": 12456956991
    },
    {
      "x": -0.07040221989154816,
      "y": -0.03848451003432274,
      "z": 0.004123340360820293,
      "time_usec": 12456959253
    },
    {
      "x": -0.07162395119667053,
      "y": -0.03726277872920036,
      "z": 0.004123340360820293,
      "time_usec": 12456961505
    },
    {
      "x": -0.06918048858642578,
      "y": -0.03726277872920036,
      "z": 0.004123340360820293,
      "time_usec": 12456963757
    },
    {
      "x": -0.06673702597618103,
      "y": -0.03848451003432274,
      "z": 0.005345070734620094,
      "time_usec": 12456966016
    },
    {
      "x": -0.06551529467105865,
      "y": -0.04459316283464432,
      "z": 0.004123340360820293,
      "time_usec": 12456968278
    },
    {
      "x": -0.0656680166721344,
      "y": -0.05543602257966995,
      "z": 0.0029016099870204926,
      "time_usec": 12456970536
    },
    {
      "x": -0.07070764899253845,
      "y": -0.06368270516395569,
      "z": 0.001679879380390048,
      "time_usec": 12456972792
    },
    {
      "x": -0.07192938029766083,
      "y": -0.07452555745840073,
      "z": -7.635815418325365E-4,
      "time_usec": 12456975042
    },
    {
      "x": -0.07452555745840073,
      "y": -0.08659014850854874,
      "z": -0.003359758760780096,
      "time_usec": 12456977305
    },
    {
      "x": -0.08200865983963013,
      "y": -0.09010262042284012,
      "z": -0.008246680721640587,
      "time_usec": 12456979552
    },
    {
      "x": -0.0832303911447525,
      "y": -0.09605856239795685,
      "z": -0.009468411095440388,
      "time_usec": 12456981823
    },
    {
      "x": -0.0832303911447525,
      "y": -0.10461067408323288,
      "z": -0.012064588256180286,
      "time_usec": 12456984074
    },
    {
      "x": -0.08704829961061478,
      "y": -0.10934487730264664,
      "z": -0.010842857882380486,
      "time_usec": 12456986340
    },
    {
      "x": -0.08949175477027893,
      "y": -0.11530081182718277,
      "z": -0.013286318629980087,
      "time_usec": 12456988595
    },
    {
      "x": -0.09086620807647705,
      "y": -0.12018773704767227,
      "z": -0.01572977937757969,
      "time_usec": 12456990850
    },
    {
      "x": -0.09208793938159943,
      "y": -0.11774427443742752,
      "z": -0.016951510682702065,
      "time_usec": 12456993097
    },
    {
      "x": -0.0907134860754013,
      "y": -0.11652254313230515,
      "z": -0.01817324012517929,
      "time_usec": 12456995368
    },
    {
      "x": -0.0907134860754013,
      "y": -0.11530081182718277,
      "z": -0.01817324012517929,
      "time_usec": 12456997624
    },
    {
      "x": -0.08827003091573715,
      "y": -0.11178833991289139,
      "z": -0.020616702735424042,
      "time_usec": 12456999885
    },
    {
      "x": -0.0832303911447525,
      "y": -0.11056660860776901,
      "z": -0.019394971430301666,
      "time_usec": 12457002137
    },
    {
      "x": -0.07467827945947647,
      "y": -0.1082758679986,
      "z": -0.020616702735424042,
      "time_usec": 12457004390
    },
    {
      "x": -0.07467827945947647,
      "y": -0.10949759185314178,
      "z": -0.019394971430301666,
      "time_usec": 12457006650
    },
    {
      "x": -0.0659734457731247,
      "y": -0.11453723162412643,
      "z": -0.022907447069883347,
      "time_usec": 12457008911
    },
    {
      "x": -0.059864792972803116,
      "y": -0.12171489745378494,
      "z": -0.02168571576476097,
      "time_usec": 12457011168
    },
    {
      "x": -0.05375614017248154,
      "y": -0.12553280591964722,
      "z": -0.022907447069883347,
      "time_usec": 12457013415
    },
    {
      "x": -0.04764748737215996,
      "y": -0.13148874044418335,
      "z": -0.01924225501716137,
      "time_usec": 12457015671
    },
    {
      "x": -0.040164388716220856,
      "y": -0.13530665636062622,
      "z": -0.020463986322283745,
      "time_usec": 12457017942
    },
    {
      "x": -0.031612277030944824,
      "y": -0.13775011897087097,
      "z": -0.021532999351620674,
      "time_usec": 12457020201
    },
    {
      "x": -0.027947084978222847,
      "y": -0.13775011897087097,
      "z": -0.020311269909143448,
      "time_usec": 12457022455
    },
    {
      "x": -0.02535090781748295,
      "y": -0.13668109476566315,
      "z": -0.017867809161543846,
      "time_usec": 12457024700
    },
    {
      "x": -0.020463986322283745,
      "y": -0.13301590085029602,
      "z": -0.01664607785642147,
      "time_usec": 12457026970
    },
    {
      "x": -0.020463986322283745,
      "y": -0.13179416954517365,
      "z": -0.012980886735022068,
      "time_usec": 12457029228
    },
    {
      "x": -0.016798794269561768,
      "y": -0.1342376321554184,
      "z": -0.015271631069481373,
      "time_usec": 12457031486
    },
    {
      "x": -0.016798794269561768,
      "y": -0.12950342893600464,
      "z": -0.01038470957428217,
      "time_usec": 12457033727
    },
    {
      "x": -0.01542434748262167,
      "y": -0.1258382350206375,
      "z": -0.01160643994808197,
      "time_usec": 12457035987
    },
    {
      "x": -0.01664607785642147,
      "y": -0.12339477986097336,
      "z": -0.012828170321881771,
      "time_usec": 12457038257
    },
    {
      "x": -0.01664607785642147,
      "y": -0.11621711403131485,
      "z": -0.007941247895359993,
      "time_usec": 12457040518
    },
    {
      "x": -0.016493361443281174,
      "y": -0.10903944820165634,
      "z": -0.009162978269159794,
      "time_usec": 12457042774
    },
    {
      "x": -0.016493361443281174,
      "y": -0.10293079167604446,
      "z": -0.007941247895359993,
      "time_usec": 12457045018
    },
    {
      "x": -0.018936822190880775,
      "y": -0.09926560521125793,
      "z": -0.005497787147760391,
      "time_usec": 12457047279
    },
    {
      "x": -0.02015855349600315,
      "y": -0.0884227454662323,
      "z": -0.00427605677396059,
      "time_usec": 12457049529
    },
    {
      "x": -0.015118914656341076,
      "y": -0.07895433157682419,
      "z": -0.0029016099870204926,
      "time_usec": 12457051789
    },
    {
      "x": -0.01878410577774048,
      "y": -0.06811147183179855,
      "z": -0.001679879380390048,
      "time_usec": 12457054047
    },
    {
      "x": -0.014966198243200779,
      "y": -0.060933809727430344,
      "z": -0.0029016099870204926,
      "time_usec": 12457056320
    },
    {
      "x": -0.01618792861700058,
      "y": -0.052381694316864014,
      "z": 7.635815418325365E-4,
      "time_usec": 12457058576
    },
    {
      "x": -0.016035212203860283,
      "y": -0.042760565876960754,
      "z": 0.0019853119738399982,
      "time_usec": 12457060821
    },
    {
      "x": -0.016035212203860283,
      "y": -0.03436116874217987,
      "z": 7.635815418325365E-4,
      "time_usec": 12457063083
    },
    {
      "x": -0.016035212203860283,
      "y": -0.03191770985722542,
      "z": 0.0019853119738399982,
      "time_usec": 12457065330
    },
    {
      "x": -0.01725694350898266,
      "y": -0.028405234217643738,
      "z": 0.0019853119738399982,
      "time_usec": 12457067595
    },
    {
      "x": -0.01970040425658226,
      "y": -0.03191770985722542,
      "z": 0.0032070425804704428,
      "time_usec": 12457069859
    },
    {
      "x": -0.024587325751781464,
      "y": -0.03191770985722542,
      "z": -4.5814894838258624E-4,
      "time_usec": 12457072106
    },
    {
      "x": -0.02580905705690384,
      "y": -0.03191770985722542,
      "z": 7.635815418325365E-4,
      "time_usec": 12457074366
    },
    {
      "x": -0.028405234217643738,
