{
  "rotations": [
    {
      "x": 0.12400564551353455,
      "y": 0.22678372263908386,
      "z": 0.11010845750570297,
      "time_usec": 4572614210
    },
    {
      "x": 0.13973543047904968,
      "y": 0.18814650177955627,
      "z": 0.11255192011594772,
      "time_usec": 4572616480
    },
    {
      "x": 0.15302173793315887,
      "y": 0.1411098688840866,
      "z": 0.11133018881082535,
      "time_usec": 4572618737
    },
    {
      "x": 0.16142113506793976,
      "y": 0.1036943718791008,
      "z": 0.11010845750570297,
      "time_usec": 4572620998
    },
    {
      "x": 0.16233743727207184,
      "y": 0.06398813426494598,
      "z": 0.10506882518529892,
      "time_usec": 4572623253
    },
    {
      "x": 0.1508837193250656,
      "y": 0.029168816283345222,
      "z": 0.10384709388017654,
      "time_usec": 4572625510
    },
    {
      "x": 0.1408044397830963,
      "y": 4.5814894838258624E-4,
      "z": 0.10002918541431427,
      "time_usec": 4572627766
    },
    {
      "x": 0.1270599663257599,
      "y": -0.02580905705690384,
      "z": 0.09498954564332962,
      "time_usec": 4572630023
    },
    {
      "x": 0.11331550031900406,
      "y": -0.04260785132646561,
      "z": 0.08994990587234497,
      "time_usec": 4572632281
    },
    {
      "x": 0.09957103431224823,
      "y": -0.056810468435287476,
      "z": 0.09346238523721695,
      "time_usec": 4572634538
    },
    {
      "x": 0.08720101416110992,
      "y": -0.06398813426494598,
      "z": 0.08475755155086517,
      "time_usec": 4572636796
    },
    {
      "x": 0.07849618047475815,
      "y": -0.07101308554410934,
      "z": 0.08720101416110992,
      "time_usec": 4572639053
    },
    {
      "x": 0.06734789162874222,
      "y": -0.07452555745840073,
      "z": 0.0858265683054924,
      "time_usec": 4572641308
    },
    {
      "x": 0.05619960278272629,
      "y": -0.0731511116027832,
      "z": 0.08338310569524765,
      "time_usec": 4572643558
    },
    {
      "x": 0.046273041516542435,
      "y": -0.07422012835741043,
      "z": 0.08460483700037003,
      "time_usec": 4572645824
    },
    {
      "x": 0.03894266113638878,
      "y": -0.07177666574716568,
      "z": 0.07956519722938538,
      "time_usec": 4572648081
    },
    {
      "x": 0.029016099870204926,
      "y": -0.06918048858642578,
      "z": 0.07590000331401825,
      "time_usec": 4572650341
    },
    {
      "x": 0.020463986322283745,
      "y": -0.05955936014652252,
      "z": 0.06963863968849182,
      "time_usec": 4572652596
    },
    {
      "x": 0.013133603148162365,
      "y": -0.05345070734620094,
      "z": 0.06719517707824707,
      "time_usec": 4572654853
    },
    {
      "x": 0.010690141469240189,
      "y": -0.04749477282166481,
      "z": 0.06352998316287994,
      "time_usec": 4572657107
    },
    {
      "x": 0.005803219974040985,
      "y": -0.03894266113638878,
      "z": 0.06230825558304787,
      "time_usec": 4572659368
    },
    {
      "x": 0.0010690141934901476,
      "y": -0.03176499158143997,
      "z": 0.059864792972803116,
      "time_usec": 4572661626
    },
    {
      "x": 0.0022907445672899485,
      "y": -0.025656340643763542,
      "z": 0.05497787147760391,
      "time_usec": 4572663883
    },
    {
      "x": -0.005039638374000788,
      "y": -0.019547687843441963,
      "z": 0.05497787147760391,
      "time_usec": 4572666141
    },
    {
      "x": -0.008704829961061478,
      "y": -0.01710422709584236,
      "z": 0.05360342562198639,
      "time_usec": 4572668390
    },
    {
      "x": -0.013591751456260681,
      "y": -0.009926560334861279,
      "z": 0.052381694316864014,
      "time_usec": 4572670649
    },
    {
      "x": -0.01725694350898266,
      "y": -0.0074830991216003895,
      "z": 0.048716504126787186,
      "time_usec": 4572672910
    },
    {
      "x": -0.022143865004181862,
      "y": -0.0013744467869400978,
      "z": 0.048716504126787186,
      "time_usec": 4572675165
    },
    {
      "x": -0.02580905705690384,
      "y": 0.004581489134579897,
      "z": 0.046273041516542435,
      "time_usec": 4572677422
    },
    {
      "x": -0.02580905705690384,
      "y": 0.007024950347840786,
      "z": 0.046273041516542435,
      "time_usec": 4572679679
    },
    {
      "x": -0.029474247246980667,
      "y": 0.014355333521962166,
      "z": 0.046273041516542435,
      "time_usec": 4572681938
    },
    {
      "x": -0.02825251780450344,
      "y": 0.017867809161543846,
      "z": 0.04138612002134323,
      "time_usec": 4572684186
    },
    {
      "x": -0.029474247246980667,
      "y": 0.01542434748262167,
      "z": 0.03649919852614403,
      "time_usec": 4572686452
    },
    {
      "x": -0.033139441162347794,
      "y": 0.020311269909143448,
      "z": 0.0377209298312664,
      "time_usec": 4572688707
    },
    {
      "x": -0.03176499158143997,
      "y": 0.02382374368607998,
      "z": 0.03405573591589928,
      "time_usec": 4572690974
    },
    {
      "x": -0.030543262138962746,
      "y": 0.02382374368607998,
      "z": 0.0328340083360672,
      "time_usec": 4572693227
    },
    {
      "x": -0.02321287989616394,
      "y": 0.026114489883184433,
      "z": 0.03527746722102165,
      "time_usec": 4572695484
    },
    {
      "x": -0.01817324012517929,
      "y": 0.032070424407720566,
      "z": 0.031612277030944824,
      "time_usec": 4572697741
    },
    {
      "x": -0.015577063895761967,
      "y": 0.03436116874217987,
      "z": 0.025503624230623245,
      "time_usec": 4572699992
    },
    {
      "x": -0.008246680721640587,
      "y": 0.035582900047302246,
      "z": 0.02672535367310047,
      "time_usec": 4572702248
    },
    {
      "x": -0.006872233934700489,
      "y": 0.039095375686883926,
      "z": 0.028099801391363144,
      "time_usec": 4572704513
    },
    {
      "x": 0.003054326167330146,
      "y": 0.04138612002134323,
      "z": 0.02321287989616394,
      "time_usec": 4572706772
    },
    {
      "x": 0.01160643994808197,
      "y": 0.04245513305068016,
      "z": 0.025656340643763542,
      "time_usec": 4572709028
    },
    {
      "x": 0.017867809161543846,
      "y": 0.04963280260562897,
      "z": 0.024587325751781464,
      "time_usec": 4572711282
    },
    {
      "x": 0.024129176512360573,
      "y": 0.0507018156349659,
      "z": 0.022143865004181862,
      "time_usec": 4572713530
    },
    {
      "x": 0.026572637259960175,
      "y": 0.05421429127454758,
      "z": 0.016035212203860283,
      "time_usec": 4572715802
    },
    {
      "x": 0.03527746722102165,
      "y": 0.058948494493961334,
      "z": 0.016035212203860283,
      "time_usec": 4572718056
    },
    {
      "x": 0.03894266113638878,
      "y": 0.058948494493961334,
      "z": 0.014813481830060482,
      "time_usec": 4572720313
    },
    {
      "x": 0.039095375686883926,
      "y": 0.06490442901849747,
      "z": 0.013591751456260681,
      "time_usec": 4572722572
    },
    {
      "x": 0.039095375686883926,
      "y": 0.06612616032361984,
      "z": 0.01237002108246088,
      "time_usec": 4572724826
    },
    {
      "x": 0.04153883829712868,
      "y": 0.06368270516395569,
      "z": 0.009926560334861279,
      "time_usec": 4572727074
    },
    {
      "x": 0.04398229718208313,
      "y": 0.058795779943466187,
      "z": 0.01114829070866108,
      "time_usec": 4572729339
    },
    {
      "x": 0.045204028487205505,
      "y": 0.05757404863834381,
      "z": 0.008704829961061478,
      "time_usec": 4572731598
    },
    {
      "x": 0.045204028487205505,
      "y": 0.05406157299876213,
      "z": 0.01114829070866108,
      "time_usec": 4572733850
    },
    {
      "x": 0.04642575979232788,
      "y": 0.05161811411380768,
      "z": 0.01237002108246088,
      "time_usec": 4572736116
    },
    {
      "x": 0.04764748737215996,
      "y": 0.04917465150356293,
      "z": 0.014813481830060482,
      "time_usec": 4572738367
    },
    {
      "x": 0.046273041516542435,
      "y": 0.0455094613134861,
      "z": 0.013591751456260681,
      "time_usec": 4572740628
    },
    {
      "x": 0.046273041516542435,
      "y": 0.043218716979026794,
      "z": 0.01725694350898266,
      "time_usec": 4572742884
    },
    {
      "x": 0.04749477282166481,
      "y": 0.036041051149368286,
      "z": 0.01970040425658226,
      "time_usec": 4572745135
    },
    {
      "x": 0.048716504126787186,
      "y": 0.03237585723400116,
      "z": 0.01725694350898266,
      "time_usec": 4572747403
    },
    {
      "x": 0.04612032696604729,
      "y": 0.026419922709465027,
      "z": 0.018478672951459885,
      "time_usec": 4572749655
    },
    {
      "x": 0.04734205827116966,
      "y": 0.015577063895761967,
      "z": 0.01725694350898266,
      "time_usec": 4572751918
    },
    {
      "x": 0.04963280260562897,
      "y": 0.005803219974040985,
      "z": 0.01725694350898266,
      "time_usec": 4572754161
    },
    {
      "x": 0.047189339995384216,
      "y": -0.003817907767370343,
      "z": 0.01237002108246088,
      "time_usec": 4572756432
    },
    {
      "x": 0.04581489413976669,
      "y": -0.014508049935102463,
      "z": 0.013591751456260681,
      "time_usec": 4572758683
    },
    {
      "x": 0.04581489413976669,
      "y": -0.026572637259960175,
      "z": 0.010995574295520782,
      "time_usec": 4572760946
    },
    {
      "x": 0.038179077208042145,
      "y": -0.04092797264456749,
      "z": 0.00733038317412138,
      "time_usec": 4572763190
    },
    {
      "x": 0.03695734590291977,
      "y": -0.0529925599694252,
      "z": 0.005955935921519995,
      "time_usec": 4572765459
    },
    {
      "x": 0.030695978552103043,
      "y": -0.061391957104206085,
      "z": 0.004734205547720194,
      "time_usec": 4572767718
    },
    {
      "x": 0.028099801391363144,
      "y": -0.0685696229338646,
      "z": 0.0010690141934901476,
      "time_usec": 4572769974
    },
    {
      "x": 0.020616702735424042,
      "y": -0.07681630551815033,
      "z": 0.002138028386980295,
      "time_usec": 4572772233
    },
    {
      "x": 0.016951510682702065,
      "y": -0.08155050873756409,
      "z": 0.003359758760780096,
      "time_usec": 4572774489
    },
    {
      "x": 0.010690141469240189,
      "y": -0.08277224004268646,
      "z": 9.162978967651725E-4,
      "time_usec": 4572776747
    },
    {
      "x": 0.0032070425804704428,
      "y": -0.08750644326210022,
      "z": 0.003359758760780096,
      "time_usec": 4572778999
    },
    {
      "x": -4.5814894838258624E-4,
      "y": -0.08735372871160507,
      "z": 0.0032070425804704428,
      "time_usec": 4572781258
    },
    {
      "x": -0.0065668015740811825,
      "y": -0.08246681094169617,
      "z": 0.004428773187100887,
      "time_usec": 4572783506
    },
    {
      "x": -0.01160643994808197,
      "y": -0.08002334833145142,
      "z": 0.005650503560900688,
      "time_usec": 4572785778
    },
    {
      "x": -0.014049900695681572,
      "y": -0.07880161702632904,
      "z": 0.0019853119738399982,
      "time_usec": 4572788033
    },
    {
      "x": -0.02015855349600315,
      "y": -0.07864890247583389,
      "z": 0.005650503560900688,
      "time_usec": 4572790289
    },
    {
      "x": -0.022602014243602753,
      "y": -0.07742717117071152,
      "z": 0.0019853119738399982,
      "time_usec": 4572792548
    },
    {
      "x": -0.025045474991202354,
      "y": -0.07513642311096191,
      "z": -4.5814894838258624E-4,
      "time_usec": 4572794804
    },
    {
      "x": -0.031154127791523933,
      "y": -0.06902777403593063,
      "z": -0.001832595793530345,
      "time_usec": 4572797059
    },
    {
      "x": -0.03481931984424591,
      "y": -0.06536258012056351,
      "z": -0.001832595793530345,
      "time_usec": 4572799315
    },
    {
      "x": -0.036041051149368286,
      "y": -0.06414084881544113,
      "z": -6.108652451075613E-4,
      "time_usec": 4572801574
    },
    {
      "x": -0.04108068719506264,
      "y": -0.060475658625364304,
      "z": -0.003054326167330146,
      "time_usec": 4572803823
    },
    {
      "x": -0.04108068719506264,
      "y": -0.06169738993048668,
      "z": -0.00427605677396059,
      "time_usec": 4572806093
    },
    {
      "x": -0.04214970022439957,
      "y": -0.054367005825042725,
      "z": -0.005497787147760391,
      "time_usec": 4572808343
    },
    {
      "x": -0.04337143152952194,
      "y": -0.050854530185461044,
      "z": -0.006719517521560192,
      "time_usec": 4572810601
    },
    {
      "x": -0.04459316283464432,
      "y": -0.04596760869026184,
      "z": -0.006719517521560192,
      "time_usec": 4572812847
    },
    {
      "x": -0.04337143152952194,
      "y": -0.03878994286060333,
      "z": -0.00427605677396059,
      "time_usec": 4572815107
    },
    {
      "x": -0.043218716979026794,
      "y": -0.029168816283345222,
      "z": -0.00427605677396059,
      "time_usec": 4572817369
    },
    {
      "x": -0.043218716979026794,
      "y": -0.02321287989616394,
      "z": -0.0029016099870204926,
      "time_usec": 4572819627
    },
    {
      "x": -0.03940080851316452,
      "y": -0.016035212203860283,
      "z": -0.001679879380390048,
      "time_usec": 4572821894
    },
    {
      "x": -0.038179077208042145,
      "y": -0.009926560334861279,
      "z": -0.001679879380390048,
      "time_usec": 4572824139
    },
    {
      "x": -0.03680463135242462,
      "y": -0.0027488935738801956,
      "z": -4.5814894838258624E-4,
      "time_usec": 4572826397
    },
    {
      "x": -0.035582900047302246,
      "y": 0.0032070425804704428,
      "z": -4.5814894838258624E-4,
      "time_usec": 4572828659
    },
    {
      "x": -0.03176499158143997,
      "y": 0.006719517521560192,
      "z": -0.001679879380390048,
      "time_usec": 4572830925
    },
    {
      "x": -0.028099801391363144,
      "y": 0.014049900695681572,
      "z": 0.003359758760780096,
      "time_usec": 4572833187
    },
    {
      "x": -0.025503624230623245,
      "y": 0.01878410577774048,
      "z": -3.054326225537807E-4,
      "time_usec": 4572835436
    },
    {
      "x": -0.020616702735424042,
      "y": 0.02474004216492176,
      "z": 0.003359758760780096,
      "time_usec": 4572837682
    },
    {
      "x": -0.01924225501716137,
      "y": 0.03191770985722542,
      "z": 0.002138028386980295,
      "time_usec": 4572839946
    },
    {
      "x": -0.012980886735022068,
      "y": 0.039095375686883926,
      "z": 0.003512475173920393,
      "time_usec": 4572842208
    },
    {
      "x": -0.010537425056099892,
      "y": 0.046273041516542435,
      "z": 0.0022907445672899485,
      "time_usec": 4572844465
    },
    {
      "x": -0.01038470957428217,
      "y": 0.049785517156124115,
      "z": 0.0022907445672899485,
      "time_usec": 4572846722
    },
    {
      "x": -0.003054326167330146,
      "y": 0.052228979766368866,
      "z": 0.004734205547720194,
      "time_usec": 4572848975
    },
    {
      "x": -0.00427605677396059,
      "y": 0.05345070734620094,
      "z": 0.004734205547720194,
      "time_usec": 4572851236
    },
    {
      "x": -0.001679879380390048,
      "y": 0.06185010448098183,
      "z": 0.006108652334660292,
      "time_usec": 4572853487
    },
    {
      "x": 0.0019853119738399982,
      "y": 0.06780604273080826,
      "z": 0.006108652334660292,
      "time_usec": 4572855753
    },
    {
      "x": 0.004581489134579897,
      "y": 0.07131851464509964,
      "z": 0.00855211354792118,
      "time_usec": 4572858008
    },
    {
      "x": 0.005803219974040985,
      "y": 0.07727445662021637,
      "z": 0.009773843921720982,
      "time_usec": 4572860263
    },
    {
      "x": 0.007024950347840786,
      "y": 0.0858265683054924,
      "z": 0.013439035043120384,
      "time_usec": 4572862519
    },
    {
      "x": 0.012064588256180286,
      "y": 0.08567385375499725,
      "z": 0.01725694350898266,
      "time_usec": 4572864780
    },
    {
      "x": 0.014508049935102463,
      "y": 0.08811730891466141,
      "z": 0.01970040425658226,
      "time_usec": 4572867035
    },
    {
      "x": 0.014508049935102463,
      "y": 0.08689557760953903,
      "z": 0.018478672951459885,
      "time_usec": 4572869292
    },
    {
      "x": 0.014508049935102463,
      "y": 0.08689557760953903,
      "z": 0.01970040425658226,
      "time_usec": 4572871550
    },
    {
      "x": 0.01572977937757969,
      "y": 0.08338310569524765,
      "z": 0.023365596309304237,
      "time_usec": 4572873798
    },
    {
      "x": 0.01191187184303999,
      "y": 0.07620543986558914,
      "z": 0.02580905705690384,
      "time_usec": 4572876068
    },
    {
      "x": 0.005650503560900688,
      "y": 0.07147123664617538,
      "z": 0.025656340643763542,
      "time_usec": 4572878320
    },
    {
      "x": 6.108652451075613E-4,
      "y": 0.06185010448098183,
      "z": 0.025656340643763542,
      "time_usec": 4572880577
    },
    {
      "x": -0.00809396430850029,
      "y": 0.05726861581206322,
      "z": 0.028099801391363144,
      "time_usec": 4572882826
    },
    {
      "x": -0.018020525574684143,
      "y": 0.051312681287527084,
      "z": 0.02428189292550087,
      "time_usec": 4572885098
    },
    {
      "x": -0.02535090781748295,
      "y": 0.044135015457868576,
      "z": 0.023060163483023643,
      "time_usec": 4572887354
    },
    {
      "x": -0.031612277030944824,
      "y": 0.03588833287358284,
      "z": 0.02168571576476097,
      "time_usec": 4572889610
    },
    {
      "x": -0.036651913076639175,
      "y": 0.03222314268350601,
      "z": 0.01924225501716137,
      "time_usec": 4572891865
    },
    {
      "x": -0.0403171069920063,
      "y": 0.027488935738801956,
      "z": 0.018020525574684143,
      "time_usec": 4572894113
    },
    {
      "x": -0.04657847434282303,
      "y": 0.02519819140434265,
      "z": 0.01924225501716137,
      "time_usec": 4572896384
    },
    {
      "x": -0.04902193695306778,
      "y": 0.02275473065674305,
      "z": 0.017867809161543846,
      "time_usec": 4572898636
    },
    {
      "x": -0.052839845418930054,
      "y": 0.020463986322283745,
      "z": 0.01542434748262167,
      "time_usec": 4572900901
    },
    {
      "x": -0.05772676691412926,
      "y": 0.020463986322283745,
      "z": 0.011759156361222267,
      "time_usec": 4572903147
    },
    {
      "x": -0.061391957104206085,
      "y": 0.02168571576476097,
      "z": 0.01542434748262167,
      "time_usec": 4572905401
    },
    {
      "x": -0.06398813426494598,
      "y": 0.01572977937757969,
      "z": 0.012980886735022068,
      "time_usec": 4572907668
    },
    {
      "x": -0.06887505948543549,
      "y": 0.016951510682702065,
      "z": 0.01038470957428217,
      "time_usec": 4572909923
    },
    {
      "x": -0.07254024595022202,
      "y": 0.020616702735424042,
      "z": 0.009162978269159794,
      "time_usec": 4572912190
    },
    {
      "x": -0.07254024595022202,
      "y": 0.023060163483023643,
      "z": 0.005497787147760391,
      "time_usec": 4572914448
    },
    {
      "x": -0.07498370856046677,
      "y": 0.026572637259960175,
      "z": -0.001832595793530345,
      "time_usec": 4572916699
    },
    {
      "x": -0.076052725315094,
      "y": 0.029016099870204926,
      "z": -0.003054326167330146,
      "time_usec": 4572918948
    },
    {
      "x": -0.07864890247583389,
      "y": 0.02779436856508255,
      "z": -0.009162978269159794,
      "time_usec": 4572921197
    },
    {
      "x": -0.07987063378095627,
      "y": 0.029016099870204926,
      "z": -0.01038470957428217,
      "time_usec": 4572923457
    },
    {
      "x": -0.08475755155086517,
      "y": 0.030237829312682152,
      "z": -0.01542434748262167,
      "time_usec": 4572925713
    },
    {
      "x": -0.0884227454662323,
      "y": 0.035124752670526505,
      "z": -0.01542434748262167,
      "time_usec": 4572927972
    },
    {
      "x": -0.08720101416110992,
      "y": 0.036193765699863434,
      "z": -0.019089538604021072,
      "time_usec": 4572930231
    },
    {
      "x": -0.08704829961061478,
      "y": 0.03741549700498581,
      "z": -0.020311269909143448,
      "time_usec": 4572932488
    },
    {
      "x": -0.08827003091573715,
      "y": 0.03985895588994026,
      "z": -0.017867809161543846,
      "time_usec": 4572934745
    },
    {
      "x": -0.08704829961061478,
      "y": 0.04352414980530739,
      "z": -0.019089538604021072,
      "time_usec": 4572937002
    },
    {
      "x": -0.08338310569524765,
      "y": 0.04948008432984352,
      "z": -0.01771509274840355,
      "time_usec": 4572939261
    },
    {
      "x": -0.08200865983963013,
      "y": 0.05665775015950203,
      "z": -0.015271631069481373,
      "time_usec": 4572941517
    },
    {
      "x": -0.078343465924263,
      "y": 0.06505715101957321,
      "z": -0.01160643994808197,
      "time_usec": 4572943777
    },
    {
      "x": -0.0757472887635231,
      "y": 0.07590000331401825,
      "z": -0.014049900695681572,
      "time_usec": 4572946045
    },
    {
      "x": -0.07070764899253845,
      "y": 0.08185594528913498,
      "z": -0.009010262787342072,
      "time_usec": 4572948294
    },
    {
      "x": -0.06444628536701202,
      "y": 0.09376781433820724,
      "z": -0.011453723534941673,
      "time_usec": 4572950557
    },
    {
      "x": -0.06185010448098183,
      "y": 0.1033889427781105,
      "z": -0.011453723534941673,
      "time_usec": 4572952815
    },
    {
      "x": -0.059406645596027374,
      "y": 0.11407908797264099,
      "z": -0.008857546374201775,
      "time_usec": 4572955075
    },
    {
      "x": -0.05314527451992035,
      "y": 0.12247848510742188,
      "z": -0.008857546374201775,
      "time_usec": 4572957330
    },
    {
      "x": -0.04932736977934837,
      "y": 0.13209961354732513,
      "z": -0.008857546374201775,
      "time_usec": 4572959582
    },
    {
      "x": -0.0503963828086853,
      "y": 0.1417207419872284,
      "z": -0.010079276748001575,
      "time_usec": 4572961843
    },
    {
      "x": -0.05406157299876213,
      "y": 0.1466076523065567,
      "z": -0.011301007121801376,
      "time_usec": 4572964095
    },
    {
      "x": -0.0503963828086853,
      "y": 0.14767667651176453,
      "z": -0.010079276748001575,
      "time_usec": 4572966360
    },
    {
      "x": -0.04795292019844055,
      "y": 0.14767667651176453,
      "z": -0.012522737495601177,
      "time_usec": 4572968612
    },
    {
      "x": -0.05161811411380768,
      "y": 0.15012013912200928,
      "z": -0.012522737495601177,
      "time_usec": 4572970876
    },
    {
      "x": -0.052839845418930054,
      "y": 0.1466076523065567,
      "z": -0.008857546374201775,
      "time_usec": 4572973134
    },
    {
      "x": -0.057879481464624405,
      "y": 0.1466076523065567,
      "z": -0.010079276748001575,
      "time_usec": 4572975389
    },
    {
      "x": -0.057879481464624405,
      "y": 0.14416420459747314,
      "z": -0.007635815534740686,
      "time_usec": 4572977644
    },
    {
      "x": -0.06154467165470123,
      "y": 0.14187344908714294,
      "z": -0.005192354787141085,
      "time_usec": 4572979897
    },
    {
      "x": -0.06536258012056351,
      "y": 0.13836097717285156,
      "z": -0.0039706239476799965,
      "time_usec": 4572982160
    },
    {
      "x": -0.06780604273080826,
      "y": 0.1359175145626068,
      "z": -0.0039706239476799965,
      "time_usec": 4572984419
    },
    {
      "x": -0.07024950534105301,
      "y": 0.1408044397830963,
      "z": -3.054326225537807E-4,
      "time_usec": 4572986676
    },
    {
      "x": -0.06902777403593063,
      "y": 0.13958270847797394,
      "z": -0.0039706239476799965,
      "time_usec": 4572988927
    },
    {
      "x": -0.07024950534105301,
      "y": 0.1359175145626068,
      "z": -0.005192354787141085,
      "time_usec": 4572991190
    },
    {
      "x": -0.07284568250179291,
      "y": 0.1336267739534378,
      "z": -0.009010262787342072,
      "time_usec": 4572993445
    },
    {
      "x": -0.06780604273080826,
      "y": 0.12858712673187256,
      "z": -0.013897184282541275,
      "time_usec": 4572995693
    },
    {
      "x": -0.06780604273080826,
      "y": 0.1238529309630394,
      "z": -0.01878410577774048,
      "time_usec": 4572997961
    },
    {
      "x": -0.06673702597618103,
      "y": 0.1189660057425499,
      "z": -0.017562376335263252,
      "time_usec": 4573000210
    },
    {
      "x": -0.0679587572813034,
      "y": 0.11423180252313614,
      "z": -0.02367102913558483,
      "time_usec": 4573002465
    },
    {
      "x": -0.06918048858642578,
      "y": 0.11301007121801376,
      "z": -0.024892758578062057,
      "time_usec": 4573004726
    },
    {
      "x": -0.0679587572813034,
      "y": 0.10812314599752426,
      "z": -0.028557950630784035,
      "time_usec": 4573006990
    },
    {
      "x": -0.06551529467105865,
      "y": 0.10445795953273773,
      "z": -0.02977968007326126,
      "time_usec": 4573009246
    },
    {
      "x": -0.06673702597618103,
      "y": 0.10812314599752426,
      "z": -0.031001411378383636,
      "time_usec": 4573011505
    },
    {
      "x": -0.0679587572813034,
      "y": 0.10812314599752426,
      "z": -0.02977968007326126,
      "time_usec": 4573013756
    },
    {
      "x": -0.06658431142568588,
      "y": 0.11285735666751862,
      "z": -0.03344487398862839,
      "time_usec": 4573016021
    },
    {
      "x": -0.06902777403593063,
      "y": 0.12018773704767227,
      "z": -0.03222314268350601,
      "time_usec": 4573018276
    },
    {
      "x": -0.06414084881544113,
      "y": 0.12599095702171326,
      "z": -0.03588833287358284,
      "time_usec": 4573020531
    },
    {
      "x": -0.06154467165470123,
      "y": 0.1368338167667389,
      "z": -0.037110064178705215,
      "time_usec": 4573022793
    },
    {
      "x": -0.05772676691412926,
      "y": 0.14034628868103027,
      "z": -0.03955352306365967,
      "time_usec": 4573025049
    },
    {
      "x": -0.055283304303884506,
      "y": 0.14385876059532166,
      "z": -0.043218716979026794,
      "time_usec": 4573027306
    },
    {
      "x": -0.04902193695306778,
      "y": 0.14508049190044403,
      "z": -0.04688390716910362,
      "time_usec": 4573029558
    },
    {
      "x": -0.04535674303770065,
      "y": 0.1485929638147354,
      "z": -0.046731192618608475,
      "time_usec": 4573031821
    },
    {
      "x": -0.04153883829712868,
      "y": 0.152105450630188,
      "z": -0.0455094613134861,
      "time_usec": 4573034078
    },
    {
      "x": -0.03787364438176155,
      "y": 0.152105450630188,
      "z": -0.04306599870324135,
      "time_usec": 4573036335
    },
    {
      "x": -0.03527746722102165,
      "y": 0.15683965384960175,
      "z": -0.046731192618608475,
      "time_usec": 4573038588
    },
    {
      "x": -0.03405573591589928,
      "y": 0.1592831164598465,
      "z": -0.046731192618608475,
      "time_usec": 4573040851
    },
    {
      "x": -0.03405573591589928,
      "y": 0.154396191239357,
      "z": -0.0455094613134861,
      "time_usec": 4573043107
    },
    {
      "x": -0.0354301854968071,
      "y": 0.1508837193250656,
      "z": -0.0455094613134861,
      "time_usec": 4573045366
    },
    {
      "x": -0.039095375686883926,
      "y": 0.1485929638147354,
      "z": -0.04184427112340927,
      "time_usec": 4573047620
    },
    {
      "x": -0.03787364438176155,
      "y": 0.14737124741077423,
      "z": -0.04306599870324135,
      "time_usec": 4573049875
    },
    {
      "x": -0.0403171069920063,
      "y": 0.1485929638147354,
      "z": -0.03695734590291977,
      "time_usec": 4573052142
    },
    {
      "x": -0.0429132841527462,
      "y": 0.14019356667995453,
      "z": -0.03940080851316452,
      "time_usec": 4573054394
    },
    {
      "x": -0.044135015457868576,
      "y": 0.13790282607078552,
      "z": -0.032070424407720566,
      "time_usec": 4573056653
    },
    {
      "x": -0.041691552847623825,
      "y": 0.13668109476566315,
      "z": -0.03084869496524334,
      "time_usec": 4573058902
    },
    {
      "x": -0.04306599870324135,
      "y": 0.1342376321554184,
      "z": -0.028405234217643738,
      "time_usec": 4573061161
    },
    {
      "x": -0.044287730008363724,
      "y": 0.1270599663257599,
      "z": -0.02229658141732216,
      "time_usec": 4573063422
    },
    {
      "x": -0.04199698567390442,
      "y": 0.11988230794668198,
      "z": -0.017409659922122955,
      "time_usec": 4573065680
    },
    {
      "x": -0.04077525436878204,
      "y": 0.1186605766415596,
      "z": -0.013744467869400978,
      "time_usec": 4573067932
    },
    {
      "x": -0.04199698567390442,
      "y": 0.10903944820165634,
      "z": -0.010079276748001575,
      "time_usec": 4573070188
    },
    {
      "x": -0.039706241339445114,
      "y": 0.0981965884566307,
      "z": -0.0064140851609408855,
      "time_usec": 4573072448
    },
    {
      "x": -0.039706241339445114,
      "y": 0.09468411654233932,
      "z": -0.0027488935738801956,
      "time_usec": 4573074711
    },
    {
      "x": -0.036041051149368286,
      "y": 0.08857546001672745,
      "z": -0.001527163083665073,
      "time_usec": 4573076968
    },
    {
      "x": -0.038637228310108185,
      "y": 0.08032877743244171,
      "z": 0.005803219974040985,
      "time_usec": 4573079220
    },
    {
      "x": -0.041233405470848083,
      "y": 0.07192938029766083,
      "z": 0.003359758760780096,
      "time_usec": 4573081481
    },
    {
      "x": -0.043676864355802536,
      "y": 0.06108652427792549,
      "z": 0.003359758760780096,
      "time_usec": 4573083733
    },
    {
      "x": -0.04993823543190956,
      "y": 0.05390885844826698,
      "z": 0.004428773187100887,
      "time_usec": 4573085990
    },
    {
      "x": -0.05375614017248154,
      "y": 0.04444044828414917,
      "z": 0.0019853119738399982,
      "time_usec": 4573088252
    },
    {
      "x": -0.056352317333221436,
      "y": 0.03726277872920036,
      "z": 0.0019853119738399982,
      "time_usec": 4573090506
    },
    {
      "x": -0.06123924255371094,
      "y": 0.032528575509786606,
      "z": 0.004428773187100887,
      "time_usec": 4573092770
    },
    {
      "x": -0.06383541971445084,
      "y": 0.026572637259960175,
      "z": 0.00809396430850029,
      "time_usec": 4573095026
    },
    {
      "x": -0.06643159687519073,
      "y": 0.01817324012517929,
      "z": 0.006719517521560192,
      "time_usec": 4573097282
    },
    {
      "x": -0.06643159687519073,
      "y": 0.01817324012517929,
      "z": 0.010537425056099892,
      "time_usec": 4573099534
    },
    {
      "x": -0.06154467165470123,
      "y": 0.016951510682702065,
      "z": 0.020311269909143448,
      "time_usec": 4573101796
    },
    {
      "x": -0.05650503560900688,
      "y": 0.019394971430301666,
      "z": 0.023976460099220276,
      "time_usec": 4573104049
    },
    {
      "x": -0.044135015457868576,
      "y": 0.01924225501716137,
      "z": 0.026572637259960175,
      "time_usec": 4573106299
    },
    {
      "x": -0.025656340643763542,
      "y": 0.01771509274840355,
      "z": 0.025503624230623245,
      "time_usec": 4573108563
    },
    {
      "x": -0.012064588256180286,
      "y": 0.023518312722444534,
      "z": 0.029168816283345222,
      "time_usec": 4573110827
    },
    {
      "x": -9.162978967651725E-4,
      "y": 0.023518312722444534,
      "z": 0.03420845419168472,
      "time_usec": 4573113088
    },
    {
      "x": 0.009010262787342072,
      "y": 0.02580905705690384,
      "z": 0.03787364438176155,
      "time_usec": 4573115341
    },
    {
      "x": 0.016493361443281174,
      "y": 0.03420845419168472,
      "z": 0.044135015457868576,
      "time_usec": 4573117591
    },
    {
      "x": 0.021380282938480377,
      "y": 0.03894266113638878,
      "z": 0.05146539583802223,
      "time_usec": 4573119850
    },
    {
      "x": 0.026419922709465027,
      "y": 0.04734205827116966,
      "z": 0.05406157299876213,
      "time_usec": 4573122112
    },
    {
      "x": 0.030085112899541855,
      "y": 0.055741455405950546,
      "z": 0.05772676691412926,
      "time_usec": 4573124371
    },
    {
      "x": 0.03145955875515938,
      "y": 0.06536258012056351,
      "z": 0.06505715101957321,
      "time_usec": 4573126627
    },
    {
      "x": 0.029016099870204926,
      "y": 0.07147123664617538,
      "z": 0.06872233748435974,
      "time_usec": 4573128880
    },
    {
      "x": 0.030237829312682152,
      "y": 0.07498370856046677,
      "z": 0.07009678333997726,
      "time_usec": 4573131139
    },
    {
      "x": 0.030237829312682152,
      "y": 0.07498370856046677,
      "z": 0.07131851464509964,
      "time_usec": 4573133399
    },
    {
      "x": 0.030237829312682152,
      "y": 0.08231408894062042,
      "z": 0.07254024595022202,
      "time_usec": 4573135657
    },
    {
      "x": 0.0328340083360672,
      "y": 0.08231408894062042,
      "z": 0.07254024595022202,
      "time_usec": 4573137911
    },
    {
      "x": 0.031612277030944824,
      "y": 0.08704829961061478,
      "z": 0.07376197725534439,
      "time_usec": 4573140155
    },
    {
      "x": 0.03039054572582245,
      "y": 0.0907134860754013,
      "z": 0.07376197725534439,
      "time_usec": 4573142415
    },
    {
      "x": 0.0328340083360672,
      "y": 0.09193521738052368,
      "z": 0.07376197725534439,
      "time_usec": 4573144685
    },
    {
      "x": 0.04153883829712868,
      "y": 0.09056077152490616,
      "z": 0.07131851464509964,
      "time_usec": 4573146945
    },
    {
      "x": 0.04398229718208313,
      "y": 0.09285151958465576,
      "z": 0.07131851464509964,
      "time_usec": 4573149198
    },
    {
      "x": 0.05146539583802223,
      "y": 0.09758572280406952,
      "z": 0.07391469180583954,
      "time_usec": 4573151453
    },
    {
      "x": 0.058948494493961334,
      "y": 0.10002918541431427,
      "z": 0.07635815441608429,
      "time_usec": 4573153708
    },
    {
      "x": 0.06627888232469559,
      "y": 0.09987647086381912,
      "z": 0.07635815441608429,
      "time_usec": 4573155970
    },
    {
      "x": 0.07376197725534439,
      "y": 0.1033889427781105,
      "z": 0.07773260027170181,
      "time_usec": 4573158214
    },
    {
      "x": 0.0861319974064827,
      "y": 0.10919216275215149,
      "z": 0.08017606288194656,
      "time_usec": 4573160472
    },
    {
      "x": 0.0936150997877121,
      "y": 0.11514809727668762,
      "z": 0.08277224004268646,
      "time_usec": 4573162731
    },
    {
      "x": 0.09865473955869675,
      "y": 0.12476922571659088,
      "z": 0.08155050873756409,
      "time_usec": 4573165002
    },
    {
      "x": 0.10231992602348328,
      "y": 0.13439035415649414,
      "z": 0.08414668589830399,
      "time_usec": 4573167248
    },
    {
      "x": 0.10735956579446793,
      "y": 0.14508049190044403,
      "z": 0.08536841720342636,
      "time_usec": 4573169513
    },
    {
      "x": 0.11728613078594208,
      "y": 0.1485929638147354,
      "z": 0.08659014850854874,
      "time_usec": 4573171773
    },
    {
      "x": 0.11972958594560623,
      "y": 0.14737124741077423,
      "z": 0.08659014850854874,
      "time_usec": 4573174033
    },
    {
      "x": 0.11988230794668198,
      "y": 0.1498146951198578,
      "z": 0.08918632566928864,
      "time_usec": 4573176288
    },
    {
      "x": 0.11728613078594208,
      "y": 0.15103642642498016,
      "z": 0.08781187981367111,
      "time_usec": 4573178540
    },
    {
      "x": 0.1186605766415596,
      "y": 0.15347988903522491,
      "z": 0.09162978827953339,
      "time_usec": 4573180799
    },
    {
      "x": 0.11362093687057495,
      "y": 0.1511891484260559,
      "z": 0.09651670604944229,
      "time_usec": 4573183049
    },
    {
      "x": 0.11728613078594208,
      "y": 0.14996741712093353,
      "z": 0.1014036312699318,
      "time_usec": 4573185318
    },
    {
      "x": 0.11972958594560623,
      "y": 0.15592335164546967,
      "z": 0.10751228034496307,
      "time_usec": 4573187567
    },
    {
      "x": 0.11850785464048386,
      "y": 0.15592335164546967,
      "z": 0.1111774742603302,
      "time_usec": 4573189829
    },
    {
      "x": 0.1160643994808197,
      "y": 0.1511891484260559,
      "z": 0.11362093687057495,
      "time_usec": 4573192088
    },
    {
      "x": 0.1085812970995903,
      "y": 0.14767667651176453,
      "z": 0.11362093687057495,
      "time_usec": 4573194347
    },
    {
      "x": 0.10231992602348328,
      "y": 0.13698652386665344,
      "z": 0.11224649101495743,
      "time_usec": 4573196603
    },
    {
      "x": 0.0936150997877121,
      "y": 0.12629638612270355,
      "z": 0.11224649101495743,
      "time_usec": 4573198855
    },
    {
      "x": 0.08475755155086517,
      "y": 0.11316278576850891,
      "z": 0.1108720451593399,
      "time_usec": 4573201116
    },
    {
      "x": 0.076052725315094,
      "y": 0.0988074541091919,
      "z": 0.10842858254909515,
      "time_usec": 4573203363
    },
    {
      "x": 0.06612616032361984,
      "y": 0.08811730891466141,
      "z": 0.10583240538835526,
      "time_usec": 4573205633
    },
    {
      "x": 0.05849034711718559,
      "y": 0.07498370856046677,
      "z": 0.10461067408323288,
      "time_usec": 4573207888
    },
    {
      "x": 0.049785517156124115,
      "y": 0.06658431142568588,
      "z": 0.10445795953273773,
      "time_usec": 4573210142
    },
    {
      "x": 0.03985895588994026,
      "y": 0.05711590126156807,
      "z": 0.10812314599752426,
      "time_usec": 4573212389
    },
    {
      "x": 0.03237585723400116,
      "y": 0.04886921867728233,
      "z": 0.11041389405727386,
      "time_usec": 4573214649
    },
    {
      "x": 0.02733621932566166,
      "y": 0.04046982154250145,
      "z": 0.11041389405727386,
      "time_usec": 4573216919
    },
    {
      "x": 0.01863138936460018,
      "y": 0.037110064178705215,
      "z": 0.11774427443742752,
      "time_usec": 4573219175
    },
    {
      "x": 0.014813481830060482,
      "y": 0.029932396486401558,
      "z": 0.12018773704767227,
      "time_usec": 4573221436
    },
    {
      "x": 0.013591751456260681,
      "y": 0.03481931984424591,
      "z": 0.12751811742782593,
      "time_usec": 4573223681
    },
    {
      "x": 0.01114829070866108,
      "y": 0.043218716979026794,
      "z": 0.13607023656368256,
      "time_usec": 4573225949
    },
    {
      "x": 0.008704829961061478,
      "y": 0.051770828664302826,
      "z": 0.14340060949325562,
      "time_usec": 4573228204
    },
    {
      "x": 0.011301007121801376,
      "y": 0.058948494493961334,
      "z": 0.1508837193250656,
      "time_usec": 4573230463
    },
    {
      "x": 0.014966198243200779,
      "y": 0.06627888232469559,
      "z": 0.1569923609495163,
      "time_usec": 4573232720
    },
    {
      "x": 0.01618792861700058,
      "y": 0.07101308554410934,
      "z": 0.16569720208644867,
      "time_usec": 4573234977
    },
    {
      "x": 0.017409659922122955,
      "y": 0.07223481684923172,
      "z": 0.16691893339157104,
      "time_usec": 4573237232
    },
    {
      "x": 0.020005837082862854,
      "y": 0.07941248267889023,
      "z": 0.1693623960018158,
      "time_usec": 4573239480
    },
    {
      "x": 0.017562376335263252,
      "y": 0.08307767659425735,
      "z": 0.1693623960018158,
      "time_usec": 4573241749
    },
    {
      "x": 0.020005837082862854,
      "y": 0.08674286305904388,
      "z": 0.16814066469669342,
      "time_usec": 4573244007
    },
    {
      "x": 0.021380282938480377,
      "y": 0.08659014850854874,
      "z": 0.1644754707813263,
      "time_usec": 4573246265
    },
    {
      "x": 0.025045474991202354,
      "y": 0.08659014850854874,
      "z": 0.16203200817108154,
      "time_usec": 4573248514
    },
    {
      "x": 0.027488935738801956,
      "y": 0.08536841720342636,
      "z": 0.16203200817108154,
      "time_usec": 4573250773
    },
    {
      "x": 0.02871066704392433,
      "y": 0.08765916526317596,
      "z": 0.16081027686595917,
      "time_usec": 4573253032
    },
    {
      "x": 0.030085112899541855,
      "y": 0.09254608303308487,
      "z": 0.15836681425571442,
      "time_usec": 4573255282
    },
    {
      "x": 0.036193765699863434,
      "y": 0.09483683109283447,
      "z": 0.1547016203403473,
      "time_usec": 4573257551
    },
    {
      "x": 0.04245513305068016,
      "y": 0.09834930300712585,
      "z": 0.1560760736465454,
      "time_usec": 4573259802
    },
    {
      "x": 0.04505131021142006,
      "y": 0.10552696883678436,
      "z": 0.15729780495166779,
      "time_usec": 4573262065
    },
    {
      "x": 0.04749477282166481,
      "y": 0.11270463466644287,
      "z": 0.15485434234142303,
      "time_usec": 4573264309
    },
    {
      "x": 0.051312681287527084,
      "y": 0.12110403180122375,
      "z": 0.15485434234142303,
      "time_usec": 4573266579
    },
    {
      "x": 0.056352317333221436,
      "y": 0.1293507218360901,
      "z": 0.15241087973117828,
      "time_usec": 4573268831
    },
    {
      "x": 0.05757404863834381,
      "y": 0.13545936346054077,
      "z": 0.1537853181362152,
      "time_usec": 4573271097
    },
    {
      "x": 0.06383541971445084,
      "y": 0.13408492505550385,
      "z": 0.14767667651176453,
      "time_usec": 4573273353
    },
    {
      "x": 0.06383541971445084,
      "y": 0.1365283876657486,
      "z": 0.14523321390151978,
      "time_usec": 4573275607
    },
    {
      "x": 0.06872233748435974,
      "y": 0.13271047174930573,
      "z": 0.14034628868103027,
      "time_usec": 4573277851
    },
    {
      "x": 0.06872233748435974,
      "y": 0.13041973114013672,
      "z": 0.13790282607078552,
      "time_usec": 4573280118
    },
    {
      "x": 0.06887505948543549,
      "y": 0.13271047174930573,
      "z": 0.1316414624452591,
      "time_usec": 4573282380
    },
    {
      "x": 0.07376197725534439,
      "y": 0.12660181522369385,
      "z": 0.1267545372247696,
      "time_usec": 4573284641
    },
    {
      "x": 0.07131851464509964,
      "y": 0.1290452778339386,
      "z": 0.12308934330940247,
      "time_usec": 4573286895
    },
    {
      "x": 0.07131851464509964,
      "y": 0.12538009881973267,
      "z": 0.11942415684461594,
      "time_usec": 4573289147
    },
    {
      "x": 0.07376197725534439,
      "y": 0.12293662875890732,
      "z": 0.11453723162412643,
      "time_usec": 4573291408
    },
    {
      "x": 0.07254024595022202,
      "y": 0.11804971098899841,
      "z": 0.1059851199388504,
      "time_usec": 4573293660
    },
    {
      "x": 0.07116580009460449,
      "y": 0.1108720451593399,
      "z": 0.10216721147298813,
      "time_usec": 4573295924
    },
    {
      "x": 0.06994406878948212,
      "y": 0.10965031385421753,
      "z": 0.10216721147298813,
      "time_usec": 4573298176
    },
    {
      "x": 0.06750060617923737,
      "y": 0.1036943718791008,
      "z": 0.098502017557621,
      "time_usec": 4573300433
    },
    {
      "x": 0.06123924255371094,
      "y": 0.09407325088977814,
      "z": 0.09605856239795685,
      "time_usec": 4573302683
    },
    {
      "x": 0.059864792972803116,
      "y": 0.08078692853450775,
      "z": 0.09468411654233932,
      "time_usec": 4573304954
    },
    {
      "x": 0.05619960278272629,
      "y": 0.07727445662021637,
      "z": 0.0910189226269722,
      "time_usec": 4573307210
    },
    {
      "x": 0.05115996301174164,
      "y": 0.06658431142568588,
      "z": 0.09224065393209457,
      "time_usec": 4573309464
    },
    {
      "x": 0.04230241850018501,
      "y": 0.05207626149058342,
      "z": 0.08597928285598755,
      "time_usec": 4573311726
    },
    {
      "x": 0.036041051149368286,
      "y": 0.0377209298312664,
      "z": 0.08475755155086517,
      "time_usec": 4573313983
    },
    {
      "x": 0.02733621932566166,
      "y": 0.02229658141732216,
      "z": 0.0809396430850029,
      "time_usec": 4573316240
    },
    {
      "x": 0.021074850112199783,
      "y": 0.006719517521560192,
      "z": 0.07590000331401825,
      "time_usec": 4573318493
    },
    {
      "x": 0.013591751456260681,
      "y": -0.0065668015740811825,
      "z": 0.0685696229338646,
      "time_usec": 4573320761
    },
    {
      "x": 0.006108652334660292,
      "y": -0.01725694350898266,
      "z": 0.06108652427792549,
      "time_usec": 4573323011
    },
    {
      "x": 0.0010690141934901476,
      "y": -0.028099801391363144,
      "z": 0.05864306539297104,
      "time_usec": 4573325270
    },
    {
      "x": -0.005192354787141085,
      "y": -0.03527746722102165,
      "z": 0.05849034711718559,
      "time_usec": 4573327523
    },
    {
      "x": -0.011453723534941673,
      "y": -0.043676864355802536,
      "z": 0.052381694316864014,
      "time_usec": 4573329779
    },
    {
      "x": -0.016493361443281174,
      "y": -0.05314527451992035,
      "z": 0.048716504126787186,
      "time_usec": 4573332040
    },
    {
      "x": -0.022602014243602753,
      "y": -0.05910121276974678,
      "z": 0.04612032696604729,
      "time_usec": 4573334295
    },
    {
      "x": -0.02886338345706463,
      "y": -0.06154467165470123,
      "z": 0.04489859566092491,
      "time_usec": 4573336555
    },
    {
      "x": -0.032528575509786606,
      "y": -0.06261368840932846,
      "z": 0.041233405470848083,
      "time_usec": 4573338804
    },
    {
      "x": -0.03390302136540413,
      "y": -0.06979135423898697,
      "z": 0.03985895588994026,
      "time_usec": 4573341059
    },
    {
      "x": -0.03145955875515938,
      "y": -0.0734565481543541,
      "z": 0.03985895588994026,
      "time_usec": 4573343328
    },
    {
      "x": -0.03145955875515938,
      "y": -0.0734565481543541,
      "z": 0.03741549700498581,
      "time_usec": 4573345587
    },
    {
      "x": -0.035124752670526505,
      "y": -0.0734565481543541,
      "z": 0.03985895588994026,
      "time_usec": 4573347844
    },
    {
      "x": -0.03634648025035858,
      "y": -0.07467827945947647,
      "z": 0.03985895588994026,
      "time_usec": 4573350093
    },
    {
      "x": -0.04001167416572571,
      "y": -0.0734565481543541,
      "z": 0.04108068719506264,
      "time_usec": 4573352356
    },
    {
      "x": -0.04001167416572571,
      "y": -0.07223481684923172,
      "z": 0.04108068719506264,
      "time_usec": 4573354611
    },
    {
      "x": -0.03634648025035858,
      "y": -0.07223481684923172,
      "z": 0.03985895588994026,
      "time_usec": 4573356871
    },
    {
      "x": -0.03878994286060333,
      "y": -0.07590000331401825,
      "z": 0.036193765699863434,
      "time_usec": 4573359123
    },
    {
      "x": -0.03634648025035858,
      "y": -0.07101308554410934,
      "z": 0.03497203439474106,
      "time_usec": 4573361385
    },
    {
      "x": -0.030085112899541855,
      "y": -0.06750060617923737,
      "z": 0.03375030308961868,
      "time_usec": 4573363637
    },
    {
      "x": -0.026419922709465027,
      "y": -0.06276640295982361,
      "z": 0.03390302136540413,
      "time_usec": 4573365888
    },
    {
      "x": -0.02015855349600315,
      "y": -0.0555887371301651,
      "z": 0.035124752670526505,
      "time_usec": 4573368143
    },
    {
      "x": -0.010231993161141872,
      "y": -0.049785517156124115,
      "z": 0.03145955875515938,
      "time_usec": 4573370410
    },
    {
      "x": -0.005192354787141085,
      "y": -0.04505131021142006,
      "z": 0.031612277030944824,
      "time_usec": 4573372675
    },
    {
      "x": 0.0024434609804302454,
      "y": -0.030695978552103043,
      "z": 0.02672535367310047,
      "time_usec": 4573374931
    },
    {
      "x": 0.008704829961061478,
      "y": -0.02122756652534008,
      "z": 0.027947084978222847,
      "time_usec": 4573377182
    },
    {
      "x": 0.011301007121801376,
      "y": -0.005650503560900688,
      "z": 0.028099801391363144,
      "time_usec": 4573379440
    },
    {
      "x": 0.017562376335263252,
      "y": 0.0027488935738801956,
      "z": 0.025656340643763542,
      "time_usec": 4573381701
    },
    {
      "x": 0.022602014243602753,
      "y": 0.01710422709584236,
      "z": 0.02076941914856434,
      "time_usec": 4573383961
    },
    {
      "x": 0.02015855349600315,
      "y": 0.030237829312682152,
      "z": 0.01710422709584236,
      "time_usec": 4573386214
    },
    {
      "x": 0.02275473065674305,
      "y": 0.038637228310108185,
      "z": 0.013439035043120384,
      "time_usec": 4573388460
    },
    {
      "x": 0.024129176512360573,
      "y": 0.04581489413976669,
      "z": 0.010995574295520782,
      "time_usec": 4573390729
    },
    {
      "x": 0.026572637259960175,
      "y": 0.05543602257966995,
      "z": 0.009926560334861279,
      "time_usec": 4573392987
    },
    {
      "x": 0.02672535367310047,
      "y": 0.06017022579908371,
      "z": 0.006261368747800589,
      "time_usec": 4573395245
    },
    {
      "x": 0.02672535367310047,
      "y": 0.06505715101957321,
      "z": 0.0025961773935705423,
      "time_usec": 4573397501
    },
    {
      "x": 0.031612277030944824,
      "y": 0.06017022579908371,
      "z": 0.0025961773935705423,
      "time_usec": 4573399755
    },
    {
      "x": 0.03405573591589928,
      "y": 0.05772676691412926,
      "z": 0.0025961773935705423,
      "time_usec": 4573402019
    },
    {
      "x": 0.03039054572582245,
      "y": 0.05772676691412926,
      "z": -0.0012217304902151227,
      "time_usec": 4573404274
    },
    {
      "x": 0.03405573591589928,
      "y": 0.05161811411380768,
      "z": -0.0010690141934901476,
      "time_usec": 4573406531
    },
    {
      "x": 0.03527746722102165,
      "y": 0.04077525436878204,
      "z": -0.0024434609804302454,
      "time_usec": 4573408783
    },
    {
      "x": 0.03894266113638878,
      "y": 0.034666601568460464,
      "z": -0.00733038317412138,
      "time_usec": 4573411046
    },
    {
      "x": 0.041233405470848083,
      "y": 0.025045474991202354,
      "z": -0.00733038317412138,
      "time_usec": 4573413303
    },
    {
      "x": 0.043676864355802536,
      "y": 0.012980886735022068,
      "z": -0.009773843921720982,
      "time_usec": 4573415562
    },
    {
      "x": 0.04612032696604729,
      "y": -0.001527163083665073,
      "z": -0.009773843921720982,
      "time_usec": 4573417818
    },
    {
      "x": 0.05207626149058342,
      "y": -0.013591751456260681,
      "z": -0.010995574295520782,
      "time_usec": 4573420068
    },
    {
      "x": 0.05207626149058342,
      "y": -0.028099801391363144,
      "z": -0.01466076634824276,
      "time_usec": 4573422320
    },
    {
      "x": 0.0507018156349659,
      "y": -0.0377209298312664,
      "z": -0.020922135561704636,
      "time_usec": 4573424589
    },
    {
      "x": 0.0555887371301651,
      "y": -0.04856378585100174,
      "z": -0.021991148591041565,
      "time_usec": 4573426847
    },
    {
      "x": 0.05314527451992035,
      "y": -0.058184914290905,
      "z": -0.029474247246980667,
      "time_usec": 4573429102
    },
    {
      "x": 0.0529925599694252,
      "y": -0.06918048858642578,
      "z": -0.03436116874217987,
      "time_usec": 4573431362
    },
    {
      "x": 0.048105638474226,
      "y": -0.07391469180583954,
      "z": -0.038179077208042145,
      "time_usec": 4573433619
    },
    {
      "x": 0.046731192618608475,
      "y": -0.07757988572120667,
      "z": -0.044287730008363724,
      "time_usec": 4573435880
    },
    {
      "x": 0.0455094613134861,
      "y": -0.08109235763549805,
      "z": -0.046731192618608475,
      "time_usec": 4573438141
    },
    {
      "x": 0.040622539818286896,
      "y": -0.08231408894062042,
      "z": -0.0503963828086853,
      "time_usec": 4573440385
    },
    {
      "x": 0.03573561832308769,
      "y": -0.08338310569524765,
      "z": -0.0529925599694252,
      "time_usec": 4573442648
    },
    {
      "x": 0.03451388701796532,
      "y": -0.08231408894062042,
      "z": -0.05910121276974678,
      "time_usec": 4573444902
    },
    {
      "x": 0.032070424407720566,
      "y": -0.08231408894062042,
      "z": -0.06398813426494598,
      "time_usec": 4573447159
    },
    {
      "x": 0.02825251780450344,
      "y": -0.0858265683054924,
      "z": -0.06643159687519073,
      "time_usec": 4573449415
    },
    {
      "x": 0.022143865004181862,
      "y": -0.0858265683054924,
      "z": -0.06765332818031311,
      "time_usec": 4573451677
    },
    {
      "x": 0.022143865004181862,
      "y": -0.08827003091573715,
      "z": -0.07147123664617538,
      "time_usec": 4573453936
    },
    {
      "x": 0.022143865004181862,
      "y": -0.08933904021978378,
      "z": -0.07024950534105301,
      "time_usec": 4573456193
    },
    {
      "x": 0.019547687843441963,
      "y": -0.09300423413515091,
      "z": -0.07269296050071716,
      "time_usec": 4573458445
    },
    {
      "x": 0.018325956538319588,
      "y": -0.09896016865968704,
      "z": -0.07147123664617538,
      "time_usec": 4573460704
    },
    {
      "x": 0.021991148591041565,
      "y": -0.10384709388017654,
      "z": -0.07391469180583954,
      "time_usec": 4573462964
    },
    {
      "x": 0.020616702735424042,
      "y": -0.10980302840471268,
      "z": -0.07147123664617538,
      "time_usec": 4573465219
    },
    {
      "x": 0.021838432177901268,
      "y": -0.11591167747974396,
      "z": -0.07024950534105301,
      "time_usec": 4573467465
    },
    {
      "x": 0.02428189292550087,
      "y": -0.12186761945486069,
      "z": -0.06902777403593063,
      "time_usec": 4573469730
    },
    {
      "x": 0.027947084978222847,
      "y": -0.13041973114013672,
      "z": -0.07024950534105301,
      "time_usec": 4573471990
    },
    {
      "x": 0.024129176512360573,
      "y": -0.13759739696979523,
      "z": -0.06780604273080826,
      "time_usec": 4573474242
    },
    {
      "x": 0.02535090781748295,
      "y": -0.1411098688840866,
      "z": -0.06658431142568588,
      "time_usec": 4573476508
    },
    {
      "x": 0.023976460099220276,
      "y": -0.1495092660188675,
      "z": -0.06658431142568588,
      "time_usec": 4573478759
    },
    {
      "x": 0.02275473065674305,
      "y": -0.154396191239357,
      "z": -0.06902777403593063,
      "time_usec": 4573481025
    },
    {
      "x": 0.020311269909143448,
      "y": -0.154396191239357,
      "z": -0.07040221989154816,
      "time_usec": 4573483279
    },
    {
      "x": 0.01542434748262167,
      "y": -0.15546520054340363,
      "z": -0.07040221989154816,
      "time_usec": 4573485538
    },
    {
      "x": 0.01160643994808197,
      "y": -0.156686931848526,
      "z": -0.07040221989154816,
      "time_usec": 4573487793
    },
    {
      "x": 0.005497787147760391,
      "y": -0.1589776873588562,
      "z": -0.07284568250179291,
      "time_usec": 4573490048
    },
    {
      "x": 4.5814894838258624E-4,
      "y": -0.15653422474861145,
      "z": -0.07284568250179291,
      "time_usec": 4573492310
    },
    {
      "x": -0.004428773187100887,
      "y": -0.15042556822299957,
      "z": -0.07422012835741043,
      "time_usec": 4573494566
    },
    {
      "x": -0.011759156361222267,
      "y": -0.1443169116973877,
      "z": -0.07788532227277756,
      "time_usec": 4573496823
    },
    {
      "x": -0.017867809161543846,
      "y": -0.14187344908714294,
      "z": -0.07910704612731934,
      "time_usec": 4573499075
    },
    {
      "x": -0.027641652151942253,
      "y": -0.1333213448524475,
      "z": -0.08155050873756409,
      "time_usec": 4573501338
    },
    {
      "x": -0.038637228310108185,
      "y": -0.11759155988693237,
      "z": -0.08170322328805923,
      "time_usec": 4573503592
    },
    {
      "x": -0.044745877385139465,
      "y": -0.11026117950677872,
      "z": -0.08414668589830399,
      "time_usec": 4573505838
    },
    {
      "x": -0.05451972410082817,
      "y": -0.09926560521125793,
      "z": -0.08292495459318161,
      "time_usec": 4573508096
    },
    {
      "x": -0.058184914290905,
      "y": -0.08964447677135468,
      "z": -0.08781187981367111,
      "time_usec": 4573510360
    },
    {
      "x": -0.06062837690114975,
      "y": -0.08002334833145142,
      "z": -0.09269879758358002,
      "time_usec": 4573512615
    },
    {
      "x": -0.06291911751031876,
      "y": -0.07040221989154816,
      "z": -0.09514226019382477,
      "time_usec": 4573514882
    },
    {
      "x": -0.06658431142568588,
      "y": -0.06673702597618103,
      "z": -0.0988074541091919,
      "time_usec": 4573517124
    },
    {
      "x": -0.07024950534105301,
      "y": -0.05955936014652252,
      "z": -0.10384709388017654,
      "time_usec": 4573519383
    },
    {
      "x": -0.07269296050071716,
      "y": -0.058337632566690445,
      "z": -0.10751228034496307,
      "time_usec": 4573521638
    },
    {
      "x": -0.07635815441608429,
      "y": -0.05711590126156807,
      "z": -0.1111774742603302,
      "time_usec": 4573523898
    },
    {
      "x": -0.07757988572120667,
      "y": -0.06322455406188965,
      "z": -0.11484266817569733,
      "time_usec": 4573526158
    },
    {
      "x": -0.08017606288194656,
      "y": -0.06322455406188965,
      "z": -0.11850785464048386,
      "time_usec": 4573528423
    },
    {
      "x": -0.08261952549219131,
      "y": -0.06200282275676727,
      "z": -0.12110403180122375,
      "time_usec": 4573530681
    },
    {
      "x": -0.08384125679731369,
      "y": -0.06673702597618103,
      "z": -0.1235474944114685,
      "time_usec": 4573532940
    },
    {
      "x": -0.08506298810243607,
      "y": -0.06551529467105865,
      "z": -0.12599095702171326,
      "time_usec": 4573535186
    },
    {
      "x": -0.08506298810243607,
      "y": -0.07391469180583954,
      "z": -0.1235474944114685,
      "time_usec": 4573537453
    },
    {
      "x": -0.08888089656829834,
      "y": -0.07147123664617538,
      "z": -0.12232576310634613,
      "time_usec": 4573539696
    },
    {
      "x": -0.09010262042284012,
      "y": -0.06902777403593063,
      "z": -0.12232576310634613,
      "time_usec": 4573541956
    },
    {
      "x": -0.0887281745672226,
      "y": -0.06902777403593063,
      "z": -0.11988230794668198,
      "time_usec": 4573544214
    },
    {
      "x": -0.09010262042284012,
      "y": -0.06780604273080826,
      "z": -0.11621711403131485,
      "time_usec": 4573546484
    },
    {
      "x": -0.09239336848258972,
      "y": -0.058184914290905,
      "z": -0.1137736514210701,
      "time_usec": 4573548736
    },
    {
      "x": -0.09239336848258972,
      "y": -0.055741455405950546,
      "z": -0.11255192011594772,
      "time_usec": 4573550985
    },
    {
      "x": -0.09605856239795685,
      "y": -0.05207626149058342,
      "z": -0.11133018881082535,
      "time_usec": 4573553240
    },
    {
      "x": -0.096211276948452,
      "y": -0.05207626149058342,
      "z": -0.10644327104091644,
      "time_usec": 4573555499
    },
    {
      "x": -0.09743300825357437,
      "y": -0.04963280260562897,
      "z": -0.10522153973579407,
      "time_usec": 4573557762
    },
    {
      "x": -0.09728029370307922,
      "y": -0.047189339995384216,
      "z": -0.10018189996480942,
      "time_usec": 4573560023
    },
    {
      "x": -0.09987647086381912,
      "y": -0.048258353024721146,
      "z": -0.09911288321018219,
      "time_usec": 4573562277
    },
    {
      "x": -0.09728029370307922,
      "y": -0.04230241850018501,
      "z": -0.09529497474431992,
      "time_usec": 4573564542
    },
    {
      "x": -0.098502017557621,
      "y": -0.038637228310108185,
      "z": -0.09285151958465576,
      "time_usec": 4573566787
    },
    {
      "x": -0.09987647086381912,
      "y": -0.038637228310108185,
      "z": -0.08796459436416626,
      "time_usec": 4573569047
    },
    {
      "x": -0.09605856239795685,
      "y": -0.03145955875515938,
      "z": -0.08429940044879913,
      "time_usec": 4573571314
    },
    {
      "x": -0.09239336848258972,
