{
  "accelerations": [
    {
      "x": 9.821938514709473,
      "y": -0.11485548317432404,
      "z": 0.09990034252405167,
      "time_usec": 213824146187
    },
    {
      "x": 9.802796363830566,
      "y": -0.11485548317432404,
      "z": 0.09032905846834183,
      "time_usec": 213824148444
    },
    {
      "x": 9.754940032958984,
      "y": -0.16749759018421173,
      "z": 0.09511470049619675,
      "time_usec": 213824150702
    },
    {
      "x": 9.674181938171387,
      "y": -0.20518454909324646,
      "z": 0.1136590763926506,
      "time_usec": 213824152959
    },
    {
      "x": 9.640682220458984,
      "y": -0.243469700217247,
      "z": 0.11844471842050552,
      "time_usec": 213824155216
    },
    {
      "x": 9.611968994140625,
      "y": -0.28594231605529785,
      "z": 0.1704886108636856,
      "time_usec": 213824157474
    },
    {
      "x": 9.620942115783691,
      "y": -0.3290131092071533,
      "z": 0.20398813486099243,
      "time_usec": 213824159732
    },
    {
      "x": 9.649057388305664,
      "y": -0.3290131092071533,
      "z": 0.26141586899757385,
      "time_usec": 213824161989
    },
    {
      "x": 9.681958198547363,
      "y": -0.3487538993358612,
      "z": 0.30927231907844543,
      "time_usec": 213824164247
    },
    {
      "x": 9.695717811584473,
      "y": -0.3774677813053131,
      "z": 0.357128769159317,
      "time_usec": 213824166504
    },
    {
      "x": 9.724431037902832,
      "y": -0.38225340843200684,
      "z": 0.3768695592880249,
      "time_usec": 213824168761
    },
    {
      "x": 9.771689414978027,
      "y": -0.38225340843200684,
      "z": 0.381655216217041,
      "time_usec": 213824171018
    },
    {
      "x": 9.80518913269043,
      "y": -0.38285163044929504,
      "z": 0.3290131092071533,
      "time_usec": 213824173273
    },
    {
      "x": 9.857233047485352,
      "y": -0.37806597352027893,
      "z": 0.3248256742954254,
      "time_usec": 213824175535
    },
    {
      "x": 9.862616539001465,
      "y": -0.35892340540885925,
      "z": 0.2961117923259735,
      "time_usec": 213824177793
    },
    {
      "x": 9.89551830291748,
      "y": -0.3595215976238251,
      "z": 0.2626122832298279,
      "time_usec": 213824180051
    },
    {
      "x": 9.89551830291748,
      "y": -0.3595215976238251,
      "z": 0.25363919138908386,
      "time_usec": 213824182307
    },
    {
      "x": 9.90568733215332,
      "y": -0.3451646566390991,
      "z": 0.2392822653055191,
      "time_usec": 213824184563
    },
    {
      "x": 9.915258407592773,
      "y": -0.3116651475429535,
      "z": 0.2392822653055191,
      "time_usec": 213824186821
    },
    {
      "x": 9.915258407592773,
      "y": -0.32123643159866333,
      "z": 0.24885354936122894,
      "time_usec": 213824189079
    },
    {
      "x": 9.93380355834961,
      "y": -0.3116651475429535,
      "z": 0.24406790733337402,
      "time_usec": 213824191337
    },
    {
      "x": 9.90987491607666,
      "y": -0.3403790295124054,
      "z": 0.25363919138908386,
      "time_usec": 213824193595
    },
    {
      "x": 9.890732765197754,
      "y": -0.3690928816795349,
      "z": 0.2626122832298279,
      "time_usec": 213824195854
    },
    {
      "x": 9.876375198364258,
      "y": -0.388235479593277,
      "z": 0.267397940158844,
      "time_usec": 213824198112
    },
    {
      "x": 9.871589660644531,
      "y": -0.4217349886894226,
      "z": 0.25304099917411804,
      "time_usec": 213824200367
    },
    {
      "x": 9.838089942932129,
      "y": -0.4546363055706024,
      "z": 0.2721835672855377,
      "time_usec": 213824202625
    },
    {
      "x": 9.814162254333496,
      "y": -0.4737788736820221,
      "z": 0.28654050827026367,
      "time_usec": 213824204882
    },
    {
      "x": 9.790233612060547,
      "y": -0.5120640397071838,
      "z": 0.2955136001110077,
      "time_usec": 213824207140
    },
    {
      "x": 9.756733894348145,
      "y": -0.5359922647476196,
      "z": 0.31465616822242737,
      "time_usec": 213824209395
    },
    {
      "x": 9.732806205749512,
      "y": -0.5497509837150574,
      "z": 0.3242274820804596,
      "time_usec": 213824211645
    },
    {
      "x": 9.714262008666992,
      "y": -0.544965386390686,
      "z": 0.3194418251514435,
      "time_usec": 213824213913
    },
    {
      "x": 9.690333366394043,
      "y": -0.5545366406440735,
      "z": 0.3475574851036072,
      "time_usec": 213824216170
    },
    {
      "x": 9.652048110961914,
      "y": -0.5688936114311218,
      "z": 0.3236292600631714,
      "time_usec": 213824218430
    },
    {
      "x": 9.623932838439941,
      "y": -0.5778666734695435,
      "z": 0.2949153780937195,
      "time_usec": 213824220687
    },
    {
      "x": 9.585647583007812,
      "y": -0.5826523303985596,
      "z": 0.2805584669113159,
      "time_usec": 213824222941
    },
    {
      "x": 9.528818130493164,
      "y": -0.5778666734695435,
      "z": 0.2560320198535919,
      "time_usec": 213824225194
    },
    {
      "x": 9.500701904296875,
      "y": -0.5868397355079651,
      "z": 0.26560330390930176,
      "time_usec": 213824227456
    },
    {
      "x": 9.481559753417969,
      "y": -0.5868397355079651,
      "z": 0.2512463629245758,
      "time_usec": 213824229715
    },
    {
      "x": 9.448657989501953,
      "y": -0.5724828243255615,
      "z": 0.24167509377002716,
      "time_usec": 213824231975
    },
    {
      "x": 9.443872451782227,
      "y": -0.5676971673965454,
      "z": 0.21774685382843018,
      "time_usec": 213824234232
    },
    {
      "x": 9.434301376342773,
      "y": -0.5581258535385132,
      "z": 0.23629122972488403,
      "time_usec": 213824236496
    },
    {
      "x": 9.4390869140625,
      "y": -0.5676971673965454,
      "z": 0.23629122972488403,
      "time_usec": 213824238744
    },
    {
      "x": 9.4390869140625,
      "y": -0.5485545992851257,
      "z": 0.2273181527853012,
      "time_usec": 213824241001
    },
    {
      "x": 9.4390869140625,
      "y": -0.5389832854270935,
      "z": 0.21296121180057526,
      "time_usec": 213824243253
    },
    {
      "x": 9.449256896972656,
      "y": -0.5150550603866577,
      "z": 0.18424734473228455,
      "time_usec": 213824245512
    },
    {
      "x": 9.468399047851562,
      "y": -0.5102694034576416,
      "z": 0.16510476171970367,
      "time_usec": 213824247775
    },
    {
      "x": 9.477970123291016,
      "y": -0.47676992416381836,
      "z": 0.16510476171970367,
      "time_usec": 213824250034
    },
    {
      "x": 9.482755661010742,
      "y": -0.47676992416381836,
      "z": 0.1459621787071228,
      "time_usec": 213824252290
    },
    {
      "x": 9.501898765563965,
      "y": -0.41515472531318665,
      "z": 0.14117653667926788,
      "time_usec": 213824254542
    },
    {
      "x": 9.53061294555664,
      "y": -0.4103690981864929,
      "z": 0.1417747437953949,
      "time_usec": 213824256805
    },
    {
      "x": 9.553942680358887,
      "y": -0.41515472531318665,
      "z": 0.1417747437953949,
      "time_usec": 213824259062
    },
    {
      "x": 9.573683738708496,
      "y": -0.381655216217041,
      "z": 0.12741780281066895,
      "time_usec": 213824261320
    },
    {
      "x": 9.601799011230469,
      "y": -0.39182472229003906,
      "z": 0.09870393574237823,
      "time_usec": 213824263572
    },
    {
      "x": 9.630513191223145,
      "y": -0.372682124376297,
      "z": 0.08973085135221481,
      "time_usec": 213824265835
    },
    {
      "x": 9.644869804382324,
      "y": -0.3535395562648773,
      "z": 0.10408778488636017,
      "time_usec": 213824268093
    },
    {
      "x": 9.654440879821777,
      "y": -0.36311084032058716,
      "z": 0.1136590763926506,
      "time_usec": 213824270350
    },
    {
      "x": 9.67777156829834,
      "y": -0.372682124376297,
      "z": 0.11844471842050552,
      "time_usec": 213824272602
    },
    {
      "x": 9.725627899169922,
      "y": -0.3445664644241333,
      "z": 0.137587308883667,
      "time_usec": 213824274865
    },
    {
      "x": 9.777671813964844,
      "y": -0.3397808074951172,
      "z": 0.14297115802764893,
      "time_usec": 213824277123
    },
    {
      "x": 9.763314247131348,
      "y": -0.33499518036842346,
      "z": 0.1621137410402298,
      "time_usec": 213824279382
    },
    {
      "x": 9.80100154876709,
      "y": -0.349352091550827,
      "z": 0.1860419660806656,
      "time_usec": 213824281636
    },
    {
      "x": 9.81535816192627,
      "y": -0.35892340540885925,
      "z": 0.2147558331489563,
      "time_usec": 213824283887
    },
    {
      "x": 9.824930191040039,
      "y": -0.3684946894645691,
      "z": 0.20997019112110138,
      "time_usec": 213824286141
    },
    {
      "x": 9.820143699645996,
      "y": -0.3684946894645691,
      "z": 0.2147558331489563,
      "time_usec": 213824288410
    },
    {
      "x": 9.80100154876709,
      "y": -0.38285163044929504,
      "z": 0.22911277413368225,
      "time_usec": 213824290668
    },
    {
      "x": 9.77707290649414,
      "y": -0.4019941985607147,
      "z": 0.243469700217247,
      "time_usec": 213824292923
    },
    {
      "x": 9.80100154876709,
      "y": -0.38763725757598877,
      "z": 0.267397940158844,
      "time_usec": 213824295183
    },
    {
      "x": 9.795618057250977,
      "y": -0.397208571434021,
      "z": 0.3002992272377014,
      "time_usec": 213824297440
    },
    {
      "x": 9.814760208129883,
      "y": -0.397208571434021,
      "z": 0.2961117923259735,
      "time_usec": 213824299699
    },
    {
      "x": 9.800403594970703,
      "y": -0.397208571434021,
      "z": 0.3194418251514435,
      "time_usec": 213824301954
    },
    {
      "x": 9.800403594970703,
      "y": -0.41156548261642456,
      "z": 0.3242274820804596,
      "time_usec": 213824304210
    },
    {
      "x": 9.795618057250977,
      "y": -0.4163511395454407,
      "z": 0.3290131092071533,
      "time_usec": 213824306470
    },
    {
      "x": 9.795618057250977,
      "y": -0.4211367964744568,
      "z": 0.31465616822242737,
      "time_usec": 213824308728
    },
    {
      "x": 9.79083251953125,
      "y": -0.4546363055706024,
      "z": 0.3194418251514435,
      "time_usec": 213824310985
    },
    {
      "x": 9.828518867492676,
      "y": -0.43549370765686035,
      "z": 0.3008974492549896,
      "time_usec": 213824313238
    },
    {
      "x": 9.814760208129883,
      "y": -0.44027936458587646,
      "z": 0.30568310618400574,
      "time_usec": 213824315495
    },
    {
      "x": 9.814760208129883,
      "y": -0.44027936458587646,
      "z": 0.2961117923259735,
      "time_usec": 213824317754
    },
    {
      "x": 9.81954574584961,
      "y": -0.4450650215148926,
      "z": 0.2961117923259735,
      "time_usec": 213824320004
    },
    {
      "x": 9.81954574584961,
      "y": -0.4498506486415863,
      "z": 0.28654050827026367,
      "time_usec": 213824322274
    },
    {
      "x": 9.80937671661377,
      "y": -0.46420758962631226,
      "z": 0.31046873331069946,
      "time_usec": 213824324525
    },
    {
      "x": 9.79083251953125,
      "y": -0.4498506486415863,
      "z": 0.2907279431819916,
      "time_usec": 213824326791
    },
    {
      "x": 9.795618057250977,
      "y": -0.4498506486415863,
      "z": 0.28654050827026367,
      "time_usec": 213824329045
    },
    {
      "x": 9.800403594970703,
      "y": -0.4498506486415863,
      "z": 0.2913261651992798,
      "time_usec": 213824331303
    },
    {
      "x": 9.795618057250977,
      "y": -0.4546363055706024,
      "z": 0.3002992272377014,
      "time_usec": 213824333556
    },
    {
      "x": 9.78126049041748,
      "y": -0.46899324655532837,
      "z": 0.28594231605529785,
      "time_usec": 213824335818
    },
    {
      "x": 9.795618057250977,
      "y": -0.4498506486415863,
      "z": 0.30508488416671753,
      "time_usec": 213824338076
    },
    {
      "x": 9.79083251953125,
      "y": -0.4450650215148926,
      "z": 0.28594231605529785,
      "time_usec": 213824340334
    },
    {
      "x": 9.771689414978027,
      "y": -0.4546363055706024,
      "z": 0.28115665912628174,
      "time_usec": 213824342586
    },
    {
      "x": 9.786046028137207,
      "y": -0.46899324655532837,
      "z": 0.2626122832298279,
      "time_usec": 213824344848
    },
    {
      "x": 9.757332801818848,
      "y": -0.4737788736820221,
      "z": 0.25244277715682983,
      "time_usec": 213824347106
    },
    {
      "x": 9.743574142456055,
      "y": -0.45942193269729614,
      "z": 0.25244277715682983,
      "time_usec": 213824349366
    },
    {
      "x": 9.729216575622559,
      "y": -0.46839502453804016,
      "z": 0.25244277715682983,
      "time_usec": 213824351620
    },
    {
      "x": 9.724431037902832,
      "y": -0.47796630859375,
      "z": 0.26201409101486206,
      "time_usec": 213824353873
    },
    {
      "x": 9.719645500183105,
      "y": -0.4731806814670563,
      "z": 0.25722843408584595,
      "time_usec": 213824356136
    },
    {
      "x": 9.733404159545898,
      "y": -0.47796630859375,
      "z": 0.2955136001110077,
      "time_usec": 213824358395
    },
    {
      "x": 9.724431037902832,
      "y": -0.47796630859375,
      "z": 0.23808585107326508,
      "time_usec": 213824360651
    },
    {
      "x": 9.756733894348145,
      "y": -0.5066801905632019,
      "z": 0.4247260093688965,
      "time_usec": 213824362903
    },
    {
      "x": 9.738788604736328,
      "y": -0.48813581466674805,
      "z": 0.23808585107326508,
      "time_usec": 213824365166
    },
    {
      "x": 9.756733894348145,
      "y": -0.5306084156036377,
      "z": 0.4103690981864929,
      "time_usec": 213824367424
    },
    {
      "x": 9.742377281188965,
      "y": -0.5401797294616699,
      "z": 0.3577269911766052,
      "time_usec": 213824369682
    },
    {
      "x": 9.728020668029785,
      "y": -0.544965386390686,
      "z": 0.3433700501918793,
      "time_usec": 213824371935
    },
    {
      "x": 9.746564865112305,
      "y": -0.5832505226135254,
      "z": 0.45284169912338257,
      "time_usec": 213824374181
    },
    {
      "x": 9.742377281188965,
      "y": -0.5736792087554932,
      "z": 0.3720839321613312,
      "time_usec": 213824376442
    },
    {
      "x": 9.736993789672852,
      "y": -0.6119644045829773,
      "z": 0.41994038224220276,
      "time_usec": 213824378711
    },
    {
      "x": 9.722636222839355,
      "y": -0.6119644045829773,
      "z": 0.42412781715393066,
      "time_usec": 213824380971
    },
    {
      "x": 9.751350402832031,
      "y": -0.6167500615119934,
      "z": 0.4055834412574768,
      "time_usec": 213824383227
    },
    {
      "x": 9.736993789672852,
      "y": -0.6263213157653809,
      "z": 0.4336991012096405,
      "time_usec": 213824385487
    },
    {
      "x": 9.756135940551758,
      "y": -0.6125625967979431,
      "z": 0.39601215720176697,
      "time_usec": 213824387741
    },
    {
      "x": 9.760921478271484,
      "y": -0.607776939868927,
      "z": 0.3577269911766052,
      "time_usec": 213824390000
    },
    {
      "x": 9.794421195983887,
      "y": -0.607776939868927,
      "z": 0.33858439326286316,
      "time_usec": 213824392256
    },
    {
      "x": 9.818349838256836,
      "y": -0.6221339106559753,
      "z": 0.33439695835113525,
      "time_usec": 213824394516
    },
    {
      "x": 9.823135375976562,
      "y": -0.6029912829399109,
      "z": 0.30568310618400574,
      "time_usec": 213824396771
    },
    {
      "x": 9.842277526855469,
      "y": -0.584446907043457,
      "z": 0.2721835672855377,
      "time_usec": 213824399029
    },
    {
      "x": 9.833304405212402,
      "y": -0.5557330846786499,
      "z": 0.25782662630081177,
      "time_usec": 213824401285
    },
    {
      "x": 9.838089942932129,
      "y": -0.527019202709198,
      "z": 0.2386840581893921,
      "time_usec": 213824403539
    },
    {
      "x": 9.833903312683105,
      "y": -0.4983053207397461,
      "z": 0.1908276081085205,
      "time_usec": 213824405801
    },
    {
      "x": 9.796216011047363,
      "y": -0.4450650215148926,
      "z": 0.1333998590707779,
      "time_usec": 213824408059
    },
    {
      "x": 9.768099784851074,
      "y": -0.44027936458587646,
      "z": 0.11425728350877762,
      "time_usec": 213824410318
    },
    {
      "x": 9.78245735168457,
      "y": -0.4019941985607147,
      "z": 0.07118647545576096,
      "time_usec": 213824412571
    },
    {
      "x": 9.76391315460205,
      "y": -0.38285163044929504,
      "z": 0.06161518394947052,
      "time_usec": 213824414827
    },
    {
      "x": 9.744770050048828,
      "y": -0.38763725757598877,
      "z": 0.06161518394947052,
      "time_usec": 213824417089
    },
    {
      "x": 9.739984512329102,
      "y": -0.38763725757598877,
      "z": 0.0568295381963253,
      "time_usec": 213824419347
    },
    {
      "x": 9.76391315460205,
      "y": -0.37806597352027893,
      "z": 0.0568295381963253,
      "time_usec": 213824421605
    },
    {
      "x": 9.777671813964844,
      "y": -0.40677985548973083,
      "z": 0.06161518394947052,
      "time_usec": 213824423857
    },
    {
      "x": 9.79681396484375,
      "y": -0.4265206456184387,
      "z": 0.04247260093688965,
      "time_usec": 213824426119
    },
    {
      "x": 9.777671813964844,
      "y": -0.4450650215148926,
      "z": 0.047258246690034866,
      "time_usec": 213824428377
    },
    {
      "x": 9.763314247131348,
      "y": -0.4737788736820221,
      "z": 0.07597211748361588,
      "time_usec": 213824430635
    },
    {
      "x": 9.753743171691895,
      "y": -0.48813581466674805,
      "z": 0.09032905846834183,
      "time_usec": 213824432887
    },
    {
      "x": 9.724431037902832,
      "y": -0.550349235534668,
      "z": 0.12323036789894104,
      "time_usec": 213824435149
    },
    {
      "x": 9.714859962463379,
      "y": -0.5599204897880554,
      "z": 0.17108681797981262,
      "time_usec": 213824437407
    },
    {
      "x": 9.695717811584473,
      "y": -0.5832505226135254,
      "z": 0.21415762603282928,
      "time_usec": 213824439665
    },
    {
      "x": 9.67657470703125,
      "y": -0.5593222975730896,
      "z": 0.2667997181415558,
      "time_usec": 213824441921
    },
    {
      "x": 9.690333366394043,
      "y": -0.5880361795425415,
      "z": 0.3002992272377014,
      "time_usec": 213824444176
    },
    {
      "x": 9.685547828674316,
      "y": -0.597607433795929,
      "z": 0.3188436031341553,
      "time_usec": 213824446437
    },
    {
      "x": 9.708877563476562,
      "y": -0.6071787476539612,
      "z": 0.3481557071208954,
      "time_usec": 213824448695
    },
    {
      "x": 9.718449592590332,
      "y": -0.6071787476539612,
      "z": 0.3481557071208954,
      "time_usec": 213824450952
    },
    {
      "x": 9.742377281188965,
      "y": -0.6125625967979431,
      "z": 0.3242274820804596,
      "time_usec": 213824453206
    },
    {
      "x": 9.751948356628418,
      "y": -0.6173482537269592,
      "z": 0.3481557071208954,
      "time_usec": 213824455467
    },
    {
      "x": 9.770493507385254,
      "y": -0.6125625967979431,
      "z": 0.3529413342475891,
      "time_usec": 213824457721
    },
    {
      "x": 9.794421195983887,
      "y": -0.5982056856155396,
      "z": 0.3481557071208954,
      "time_usec": 213824459970
    },
    {
      "x": 9.823135375976562,
      "y": -0.6221339106559753,
      "z": 0.3200400173664093,
      "time_usec": 213824462239
    },
    {
      "x": 9.837491989135742,
      "y": -0.6227321028709412,
      "z": 0.30568310618400574,
      "time_usec": 213824464494
    },
    {
      "x": 9.851848602294922,
      "y": -0.646660327911377,
      "z": 0.27696922421455383,
      "time_usec": 213824466759
    },
    {
      "x": 9.875777244567871,
      "y": -0.617946445941925,
      "z": 0.27696922421455383,
      "time_usec": 213824469012
    },
    {
      "x": 9.875777244567871,
      "y": -0.5892325639724731,
      "z": 0.2721835672855377,
      "time_usec": 213824471269
    },
    {
      "x": 9.875777244567871,
      "y": -0.5796613097190857,
      "z": 0.2913261651992798,
      "time_usec": 213824473522
    },
    {
      "x": 9.894919395446777,
      "y": -0.5605186820030212,
      "z": 0.28175488114356995,
      "time_usec": 213824475784
    },
    {
      "x": 9.885348320007324,
      "y": -0.5461617708206177,
      "z": 0.28175488114356995,
      "time_usec": 213824478042
    },
    {
      "x": 9.866206169128418,
      "y": -0.5413761138916016,
      "z": 0.2721835672855377,
      "time_usec": 213824480300
    },
    {
      "x": 9.870991706848145,
      "y": -0.5365904569625854,
      "z": 0.2913261651992798,
      "time_usec": 213824482551
    },
    {
      "x": 9.856635093688965,
      "y": -0.5461617708206177,
      "z": 0.2961117923259735,
      "time_usec": 213824484812
    },
    {
      "x": 9.837491989135742,
      "y": -0.5653043389320374,
      "z": 0.28175488114356995,
      "time_usec": 213824487072
    },
    {
      "x": 9.832706451416016,
      "y": -0.5796613097190857,
      "z": 0.2721835672855377,
      "time_usec": 213824489331
    },
    {
      "x": 9.7998046875,
      "y": -0.5838487148284912,
      "z": 0.28175488114356995,
      "time_usec": 213824491587
    },
    {
      "x": 9.77109146118164,
      "y": -0.5886343717575073,
      "z": 0.28594231605529785,
      "time_usec": 213824493841
    },
    {
      "x": 9.733404159545898,
      "y": -0.5886343717575073,
      "z": 0.28594231605529785,
      "time_usec": 213824496102
    },
    {
      "x": 9.742975234985352,
      "y": -0.5934200286865234,
      "z": 0.2667997181415558,
      "time_usec": 213824498360
    },
    {
      "x": 9.728618621826172,
      "y": -0.5742774605751038,
      "z": 0.2715853750705719,
      "time_usec": 213824500617
    },
    {
      "x": 9.723833084106445,
      "y": -0.5647061467170715,
      "z": 0.2715853750705719,
      "time_usec": 213824502871
    },
    {
      "x": 9.709476470947266,
      "y": -0.5790630578994751,
      "z": 0.2476571500301361,
      "time_usec": 213824505133
    },
    {
      "x": 9.719645500183105,
      "y": -0.5407779216766357,
      "z": 0.2189432680606842,
      "time_usec": 213824507390
    },
    {
      "x": 9.719645500183105,
      "y": -0.5599204897880554,
      "z": 0.17587246000766754,
      "time_usec": 213824509648
    },
    {
      "x": 9.710074424743652,
      "y": -0.5599204897880554,
      "z": 0.16151553392410278,
      "time_usec": 213824511904
    },
    {
      "x": 9.719645500183105,
      "y": -0.5359922647476196,
      "z": 0.14715859293937683,
      "time_usec": 213824514156
    },
    {
      "x": 9.69631576538086,
      "y": -0.5359922647476196,
      "z": 0.12801600992679596,
      "time_usec": 213824516415
    },
    {
      "x": 9.720243453979492,
      "y": -0.5168496966362,
      "z": 0.11844471842050552,
      "time_usec": 213824518678
    },
    {
      "x": 9.715457916259766,
      "y": -0.5168496966362,
      "z": 0.10408778488636017,
      "time_usec": 213824520936
    },
    {
      "x": 9.744172096252441,
      "y": -0.4977070987224579,
      "z": 0.09990034252405167,
      "time_usec": 213824523189
    },
    {
      "x": 9.763314247131348,
      "y": -0.4785645306110382,
      "z": 0.09032905846834183,
      "time_usec": 213824525450
    },
    {
      "x": 9.753743171691895,
      "y": -0.46899324655532837,
      "z": 0.10468599200248718,
      "time_usec": 213824527707
    },
    {
      "x": 9.758528709411621,
      "y": -0.4833501875400543,
      "z": 0.07597211748361588,
      "time_usec": 213824529965
    },
    {
      "x": 9.739386558532715,
      "y": -0.48813581466674805,
      "z": 0.08075776696205139,
      "time_usec": 213824532217
    },
    {
      "x": 9.734601020812988,
      "y": -0.48813581466674805,
      "z": 0.07597211748361588,
      "time_usec": 213824534475
    },
    {
      "x": 9.716055870056152,
      "y": -0.4737788736820221,
      "z": 0.07118647545576096,
      "time_usec": 213824536738
    },
    {
      "x": 9.744172096252441,
      "y": -0.4785645306110382,
      "z": 0.09032905846834183,
      "time_usec": 213824538998
    },
    {
      "x": 9.748957633972168,
      "y": -0.46420758962631226,
      "z": 0.10468599200248718,
      "time_usec": 213824541253
    },
    {
      "x": 9.744172096252441,
      "y": -0.4737788736820221,
      "z": 0.1333998590707779,
      "time_usec": 213824543507
    },
    {
      "x": 9.744172096252441,
      "y": -0.45942193269729614,
      "z": 0.15732808411121368,
      "time_usec": 213824545766
    },
    {
      "x": 9.748359680175781,
      "y": -0.45942193269729614,
      "z": 0.17587246000766754,
      "time_usec": 213824548025
    },
    {
      "x": 9.762716293334961,
      "y": -0.4450650215148926,
      "z": 0.20997019112110138,
      "time_usec": 213824550282
    },
    {
      "x": 9.772287368774414,
      "y": -0.45942193269729614,
      "z": 0.22432711720466614,
      "time_usec": 213824552536
    },
    {
      "x": 9.786046028137207,
      "y": -0.46420758962631226,
      "z": 0.243469700217247,
      "time_usec": 213824554801
    },
    {
      "x": 9.786046028137207,
      "y": -0.46420758962631226,
      "z": 0.243469700217247,
      "time_usec": 213824557057
    },
    {
      "x": 9.776474952697754,
      "y": -0.4737788736820221,
      "z": 0.22911277413368225,
      "time_usec": 213824559315
    },
    {
      "x": 9.77707290649414,
      "y": -0.46420758962631226,
      "z": 0.22911277413368225,
      "time_usec": 213824561569
    },
    {
      "x": 9.800403594970703,
      "y": -0.46420758962631226,
      "z": 0.2147558331489563,
      "time_usec": 213824563823
    },
    {
      "x": 9.614959716796875,
      "y": -0.49710890650749207,
      "z": 0.2231307178735733,
      "time_usec": 213824566087
    },
    {
      "x": 9.885947227478027,
      "y": -0.43130627274513245,
      "z": 0.22492532432079315,
      "time_usec": 213824568343
    },
    {
      "x": 9.914660453796387,
      "y": -0.40737804770469666,
      "z": 0.20578274130821228,
      "time_usec": 213824570601
    },
    {
      "x": 9.710672378540039,
      "y": -0.4492524564266205,
      "z": 0.18544375896453857,
      "time_usec": 213824572853
    },
    {
      "x": 9.767501831054688,
      "y": -0.4450650215148926,
      "z": 0.1860419660806656,
      "time_usec": 213824575117
    },
    {
      "x": 9.844072341918945,
      "y": -0.43609192967414856,
      "z": 0.1381855010986328,
      "time_usec": 213824577373
    },
    {
      "x": 9.772287368774414,
      "y": -0.43549370765686035,
      "z": 0.1381855010986328,
      "time_usec": 213824579632
    },
    {
      "x": 9.748957633972168,
      "y": -0.4546363055706024,
      "z": 0.15254244208335876,
      "time_usec": 213824581887
    },
    {
      "x": 9.781859397888184,
      "y": -0.44027936458587646,
      "z": 0.1381855010986328,
      "time_usec": 213824584141
    },
    {
      "x": 9.781859397888184,
      "y": -0.43549370765686035,
      "z": 0.17168502509593964,
      "time_usec": 213824586404
    },
    {
      "x": 9.753145217895508,
      "y": -0.4498506486415863,
      "z": 0.17168502509593964,
      "time_usec": 213824588661
    },
    {
      "x": 9.762716293334961,
      "y": -0.4259224236011505,
      "z": 0.19561325013637543,
      "time_usec": 213824590919
    },
    {
      "x": 9.781859397888184,
      "y": -0.4019941985607147,
      "z": 0.17647066712379456,
      "time_usec": 213824593174
    },
    {
      "x": 9.772886276245117,
      "y": -0.38763725757598877,
      "z": 0.17647066712379456,
      "time_usec": 213824595423
    },
    {
      "x": 9.763314247131348,
      "y": -0.3924229145050049,
      "z": 0.1860419660806656,
      "time_usec": 213824597694
    },
    {
      "x": 9.791430473327637,
      "y": -0.38285163044929504,
      "z": 0.1860419660806656,
      "time_usec": 213824599950
    },
    {
      "x": 9.767501831054688,
      "y": -0.397208571434021,
      "z": 0.1908276081085205,
      "time_usec": 213824602203
    },
    {
      "x": 9.763314247131348,
      "y": -0.4019941985607147,
      "z": 0.1860419660806656,
      "time_usec": 213824604458
    },
    {
      "x": 9.762716293334961,
      "y": -0.40677985548973083,
      "z": 0.20518454909324646,
      "time_usec": 213824606721
    },
    {
      "x": 9.757930755615234,
      "y": -0.4019941985607147,
      "z": 0.20937198400497437,
      "time_usec": 213824608979
    },
    {
      "x": 9.753145217895508,
      "y": -0.4163511395454407,
      "z": 0.20937198400497437,
      "time_usec": 213824611233
    },
    {
      "x": 9.729216575622559,
      "y": -0.4301098585128784,
      "z": 0.21415762603282928,
      "time_usec": 213824613487
    },
    {
      "x": 9.725028991699219,
      "y": -0.41096729040145874,
      "z": 0.22372891008853912,
      "time_usec": 213824615751
    },
    {
      "x": 9.714859962463379,
      "y": -0.4492524564266205,
      "z": 0.2667997181415558,
      "time_usec": 213824618009
    },
    {
      "x": 9.724431037902832,
      "y": -0.44446679949760437,
      "z": 0.2667997181415558,
      "time_usec": 213824620267
    },
    {
      "x": 9.714859962463379,
      "y": -0.4492524564266205,
      "z": 0.28115665912628174,
      "time_usec": 213824622516
    },
    {
      "x": 9.724431037902832,
      "y": -0.4492524564266205,
      "z": 0.2763710021972656,
      "time_usec": 213824624769
    },
    {
      "x": 9.719645500183105,
      "y": -0.4492524564266205,
      "z": 0.28115665912628174,
      "time_usec": 213824627039
    },
    {
      "x": 9.743574142456055,
      "y": -0.4498506486415863,
      "z": 0.25244277715682983,
      "time_usec": 213824629299
    },
    {
      "x": 9.738788604736328,
      "y": -0.46899324655532837,
      "z": 0.22851456701755524,
      "time_usec": 213824631555
    },
    {
      "x": 9.753145217895508,
      "y": -0.4450650215148926,
      "z": 0.23330020904541016,
      "time_usec": 213824633806
    },
    {
      "x": 9.767501831054688,
      "y": -0.4211367964744568,
      "z": 0.21954147517681122,
      "time_usec": 213824636069
    },
    {
      "x": 9.762716293334961,
      "y": -0.4019941985607147,
      "z": 0.20039889216423035,
      "time_usec": 213824638324
    },
    {
      "x": 9.753743171691895,
      "y": -0.38285163044929504,
      "z": 0.1860419660806656,
      "time_usec": 213824640570
    },
    {
      "x": 9.768099784851074,
      "y": -0.3684946894645691,
      "z": 0.17168502509593964,
      "time_usec": 213824642830
    },
    {
      "x": 9.763314247131348,
      "y": -0.363709032535553,
      "z": 0.15732808411121368,
      "time_usec": 213824645103
    },
    {
      "x": 9.768099784851074,
      "y": -0.3684946894645691,
      "z": 0.17168502509593964,
      "time_usec": 213824647361
    },
    {
      "x": 9.763314247131348,
      "y": -0.3445664644241333,
      "z": 0.15732808411121368,
      "time_usec": 213824649614
    },
    {
      "x": 9.768099784851074,
      "y": -0.33020952343940735,
      "z": 0.16689938306808472,
      "time_usec": 213824651854
    },
    {
      "x": 9.768099784851074,
      "y": -0.3397808074951172,
      "z": 0.17168502509593964,
      "time_usec": 213824654113
    },
    {
      "x": 9.758528709411621,
      "y": -0.3397808074951172,
      "z": 0.19980068504810333,
      "time_usec": 213824656370
    },
    {
      "x": 9.734601020812988,
      "y": -0.3487538993358612,
      "z": 0.20458634197711945,
      "time_usec": 213824658634
    },
    {
      "x": 9.729815483093262,
      "y": -0.33918261528015137,
      "z": 0.18544375896453857,
      "time_usec": 213824660903
    },
    {
      "x": 9.729815483093262,
      "y": -0.33439695835113525,
      "z": 0.1950150430202484,
      "time_usec": 213824663155
    },
    {
      "x": 9.701699256896973,
      "y": -0.3439682424068451,
      "z": 0.1950150430202484,
      "time_usec": 213824665405
    },
    {
      "x": 9.725028991699219,
      "y": -0.372682124376297,
      "z": 0.19980068504810333,
      "time_usec": 213824667658
    },
    {
      "x": 9.725028991699219,
      "y": -0.372682124376297,
      "z": 0.2189432680606842,
      "time_usec": 213824669920
    },
    {
      "x": 9.725028991699219,
      "y": -0.3774677813053131,
      "z": 0.22851456701755524,
      "time_usec": 213824672188
    },
    {
      "x": 9.720243453979492,
      "y": -0.4061816334724426,
      "z": 0.23330020904541016,
      "time_usec": 213824674442
    },
    {
      "x": 9.720243453979492,
      "y": -0.3966103494167328,
      "z": 0.22851456701755524,
      "time_usec": 213824676691
    },
    {
      "x": 9.753145217895508,
      "y": -0.4163511395454407,
      "z": 0.23330020904541016,
      "time_usec": 213824678946
    },
    {
      "x": 9.738788604736328,
      "y": -0.4205385744571686,
      "z": 0.2667997181415558,
      "time_usec": 213824681207
    },
    {
      "x": 9.762716293334961,
      "y": -0.4259224236011505,
      "z": 0.25722843408584595,
      "time_usec": 213824683475
    },
    {
      "x": 9.724431037902832,
      "y": -0.4253242313861847,
      "z": 0.25722843408584595,
      "time_usec": 213824685735
    },
    {
      "x": 9.753145217895508,
      "y": -0.44027936458587646,
      "z": 0.2763710021972656,
      "time_usec": 213824687982
    },
    {
      "x": 9.762118339538574,
      "y": -0.44027936458587646,
      "z": 0.2955136001110077,
      "time_usec": 213824690241
    },
    {
      "x": 9.743574142456055,
      "y": -0.4492524564266205,
      "z": 0.28115665912628174,
      "time_usec": 213824692492
    },
    {
      "x": 9.762118339538574,
      "y": -0.44027936458587646,
      "z": 0.2763710021972656,
      "time_usec": 213824694752
    },
    {
      "x": 9.7669038772583,
      "y": -0.4498506486415863,
      "z": 0.2763710021972656,
      "time_usec": 213824697008
    },
    {
      "x": 9.772287368774414,
      "y": -0.4163511395454407,
      "z": 0.2667997181415558,
      "time_usec": 213824699267
    },
    {
      "x": 9.829116821289062,
      "y": -0.4307080805301666,
      "z": 0.23389841616153717,
      "time_usec": 213824701525
    },
    {
      "x": 9.762716293334961,
      "y": -0.4259224236011505,
      "z": 0.19561325013637543,
      "time_usec": 213824703782
    },
    {
      "x": 9.824331283569336,
      "y": -0.4163511395454407,
      "z": 0.20997019112110138,
      "time_usec": 213824706040
    },
    {
      "x": 9.867402076721191,
      "y": -0.4265206456184387,
      "z": 0.17228323221206665,
      "time_usec": 213824708303
    },
    {
      "x": 9.862616539001465,
      "y": -0.4169493317604065,
      "z": 0.1860419660806656,
      "time_usec": 213824710570
    },
    {
      "x": 9.853045463562012,
      "y": -0.40259242057800293,
      "z": 0.19561325013637543,
      "time_usec": 213824712821
    },
    {
      "x": 9.876974105834961,
      "y": -0.40259242057800293,
      "z": 0.1818545162677765,
      "time_usec": 213824715082
    },
    {
      "x": 9.848259925842285,
      "y": -0.41216370463371277,
      "z": 0.1908276081085205,
      "time_usec": 213824717330
    },
    {
      "x": 9.838688850402832,
      "y": -0.41156548261642456,
      "z": 0.22911277413368225,
      "time_usec": 213824719597
    },
    {
      "x": 9.824930191040039,
      "y": -0.4211367964744568,
      "z": 0.19561325013637543,
      "time_usec": 213824721839
    },
    {
      "x": 9.80518913269043,
      "y": -0.44027936458587646,
      "z": 0.21954147517681122,
      "time_usec": 213824724099
    },
    {
      "x": 9.772287368774414,
      "y": -0.4546363055706024,
      "z": 0.22911277413368225,
      "time_usec": 213824726357
    },
    {
      "x": 9.771689414978027,
      "y": -0.46899324655532837,
      "z": 0.26201409101486206,
      "time_usec": 213824728631
    },
    {
      "x": 9.747760772705078,
      "y": -0.46899324655532837,
      "z": 0.2955136001110077,
      "time_usec": 213824730887
    },
    {
      "x": 9.723833084106445,
      "y": -0.4731806814670563,
      "z": 0.3194418251514435,
      "time_usec": 213824733141
    },
    {
      "x": 9.710074424743652,
      "y": -0.46839502453804016,
      "z": 0.3002992272377014,
      "time_usec": 213824735400
    },
    {
      "x": 9.710074424743652,
      "y": -0.46360939741134644,
      "z": 0.2763710021972656,
      "time_usec": 213824737659
    },
    {
      "x": 9.69631576538086,
      "y": -0.44446679949760437,
      "z": 0.26201409101486206,
      "time_usec": 213824739917
    },
    {
      "x": 9.677172660827637,
      "y": -0.4540380835533142,
      "z": 0.25244277715682983,
      "time_usec": 213824742173
    },
    {
      "x": 9.65803050994873,
      "y": -0.4492524564266205,
      "z": 0.2470589429140091,
      "time_usec": 213824744425
    },
    {
      "x": 9.648459434509277,
      "y": -0.4492524564266205,
      "z": 0.2231307178735733,
      "time_usec": 213824746684
    },
    {
      "x": 9.667601585388184,
      "y": -0.4731806814670563,
      "z": 0.23330020904541016,
      "time_usec": 213824748931
    },
    {
      "x": 9.64367389678955,
      "y": -0.4492524564266205,
      "z": 0.23748764395713806,
      "time_usec": 213824751197
    },
    {
      "x": 9.653244972229004,
      "y": -0.43968117237091064,
      "z": 0.2231307178735733,
      "time_usec": 213824753455
    },
    {
      "x": 9.677172660827637,
      "y": -0.4588237404823303,
      "z": 0.2476571500301361,
      "time_usec": 213824755719
    },
    {
      "x": 9.686744689941406,
      "y": -0.4492524564266205,
      "z": 0.24287149310112,
      "time_usec": 213824757964
    },
    {
      "x": 9.729216575622559,
      "y": -0.4588237404823303,
      "z": 0.2667997181415558,
      "time_usec": 213824760234
    },
    {
      "x": 9.753145217895508,
      "y": -0.4546363055706024,
      "z": 0.25722843408584595,
      "time_usec": 213824762488
    },
    {
      "x": 9.753145217895508,
      "y": -0.45942193269729614,
      "z": 0.26201409101486206,
      "time_usec": 213824764748
    },
    {
      "x": 9.762716293334961,
      "y": -0.4546363055706024,
      "z": 0.2667997181415558,
      "time_usec": 213824767005
    },
    {
      "x": 9.757930755615234,
      "y": -0.46420758962631226,
      "z": 0.24287149310112,
      "time_usec": 213824769263
    },
    {
      "x": 9.757930755615234,
      "y": -0.46420758962631226,
      "z": 0.24287149310112,
      "time_usec": 213824771518
    },
    {
      "x": 9.757930755615234,
      "y": -0.4498506486415863,
      "z": 0.2189432680606842,
      "time_usec": 213824773771
    },
    {
      "x": 9.781859397888184,
      "y": -0.4737788736820221,
      "z": 0.20997019112110138,
      "time_usec": 213824776023
    },
    {
      "x": 9.77707290649414,
      "y": -0.4785645306110382,
      "z": 0.1860419660806656,
      "time_usec": 213824778294
    },
    {
      "x": 9.762716293334961,
      "y": -0.4977070987224579,
      "z": 0.16689938306808472,
      "time_usec": 213824780550
    },
    {
      "x": 9.744172096252441,
      "y": -0.48813581466674805,
      "z": 0.1381855010986328,
      "time_usec": 213824782807
    },
    {
      "x": 9.753145217895508,
      "y": -0.48813581466674805,
      "z": 0.12861421704292297,
      "time_usec": 213824785066
    },
    {
      "x": 9.729815483093262,
      "y": -0.49292147159576416,
      "z": 0.1423729509115219,
      "time_usec": 213824787323
    },
    {
      "x": 9.729815483093262,
      "y": -0.49292147159576416,
      "z": 0.12801600992679596,
      "time_usec": 213824789582
    },
    {
      "x": 9.720243453979492,
      "y": -0.4785645306110382,
      "z": 0.137587308883667,
      "time_usec": 213824791838
    },
    {
      "x": 9.725028991699219,
      "y": -0.4785645306110382,
      "z": 0.14715859293937683,
      "time_usec": 213824794087
    },
    {
      "x": 9.729815483093262,
      "y": -0.46899324655532837,
      "z": 0.15194423496723175,
      "time_usec": 213824796340
    },
    {
      "x": 9.748957633972168,
      "y": -0.4737788736820221,
      "z": 0.1381855010986328,
      "time_usec": 213824798610
    },
    {
      "x": 9.753743171691895,
      "y": -0.4785645306110382,
      "z": 0.12861421704292297,
      "time_usec": 213824800868
    },
    {
      "x": 9.729815483093262,
      "y": -0.4785645306110382,
      "z": 0.09511470049619675,
      "time_usec": 213824803124
    },
    {
      "x": 9.716055870056152,
      "y": -0.48813581466674805,
      "z": 0.06161518394947052,
      "time_usec": 213824805380
    },
    {
      "x": 9.7064847946167,
      "y": -0.4785645306110382,
      "z": 0.06161518394947052,
      "time_usec": 213824807628
    },
    {
      "x": 9.687342643737793,
      "y": -0.4785645306110382,
      "z": 0.037088751792907715,
      "time_usec": 213824809901
    },
    {
      "x": 9.67777156829834,
      "y": -0.46899324655532837,
      "z": 0.06580262631177902,
      "time_usec": 213824812154
    },
    {
      "x": 9.682557106018066,
      "y": -0.46420758962631226,
      "z": 0.061016976833343506,
      "time_usec": 213824814411
    },
    {
      "x": 9.701699256896973,
      "y": -0.45942193269729614,
      "z": 0.07058826833963394,
      "time_usec": 213824816671
    },
    {
      "x": 9.7064847946167,
      "y": -0.46420758962631226,
      "z": 0.08973085135221481,
      "time_usec": 213824818927
    },
    {
      "x": 9.701699256896973,
      "y": -0.4546363055706024,
      "z": 0.10887342691421509,
      "time_usec": 213824821182
    },
    {
      "x": 9.696913719177246,
      "y": -0.45942193269729614,
      "z": 0.12323036789894104,
      "time_usec": 213824823438
    },
    {
      "x": 9.710672378540039,
      "y": -0.4450650215148926,
      "z": 0.13280165195465088,
      "time_usec": 213824825701
    },
    {
      "x": 9.710672378540039,
      "y": -0.46420758962631226,
      "z": 0.137587308883667,
      "time_usec": 213824827962
    },
    {
      "x": 9.729815483093262,
      "y": -0.44027936458587646,
      "z": 0.17587246000766754,
      "time_usec": 213824830223
    },
    {
      "x": 9.720243453979492,
      "y": -0.4498506486415863,
      "z": 0.1423729509115219,
      "time_usec": 213824832467
    },
    {
      "x": 9.734002113342285,
      "y": -0.46420758962631226,
      "z": 0.18544375896453857,
      "time_usec": 213824834726
    },
    {
      "x": 9.767501831054688,
      "y": -0.4498506486415863,
      "z": 0.20518454909324646,
      "time_usec": 213824836986
    },
    {
      "x": 9.781859397888184,
      "y": -0.4737788736820221,
      "z": 0.20997019112110138,
      "time_usec": 213824839246
    },
    {
      "x": 9.776474952697754,
      "y": -0.4833501875400543,
      "z": 0.22432711720466614,
      "time_usec": 213824841495
    },
    {
      "x": 9.791430473327637,
      "y": -0.4546363055706024,
      "z": 0.2147558331489563,
      "time_usec": 213824843757
    },
    {
      "x": 9.796216011047363,
      "y": -0.4307080805301666,
      "z": 0.20518454909324646,
      "time_usec": 213824846017
    },
    {
      "x": 9.81535816192627,
      "y": -0.44027936458587646,
      "z": 0.18125630915164948,
      "time_usec": 213824848266
    },
    {
      "x": 9.81535816192627,
      "y": -0.4163511395454407,
      "z": 0.15732808411121368,
      "time_usec": 213824850534
    },
    {
      "x": 9.810572624206543,
      "y": -0.4019941985607147,
      "z": 0.15254244208335876,
      "time_usec": 213824852786
    },
    {
      "x": 9.824930191040039,
      "y": -0.3978067636489868,
      "z": 0.1381855010986328,
      "time_usec": 213824855053
    },
    {
      "x": 9.829715728759766,
      "y": -0.40259242057800293,
      "z": 0.1333998590707779,
      "time_usec": 213824857306
    },
    {
      "x": 9.81535816192627,
      "y": -0.3930211067199707,
      "z": 0.12861421704292297,
      "time_usec": 213824859565
    },
    {
      "x": 9.78245735168457,
      "y": -0.3732803463935852,
      "z": 0.12382857501506805,
      "time_usec": 213824861820
    },
    {
      "x": 9.792028427124023,
      "y": -0.3924229145050049,
      "z": 0.11904292553663254,
      "time_usec": 213824864075
    },
    {
      "x": 9.787242889404297,
      "y": -0.40677985548973083,
      "z": 0.11425728350877762,
      "time_usec": 213824866337
    },
    {
      "x": 9.78245735168457,
      "y": -0.4019941985607147,
      "z": 0.12861421704292297,
      "time_usec": 213824868594
    },
    {
      "x": 9.772886276245117,
      "y": -0.38285163044929504,
      "z": 0.16689938306808472,
      "time_usec": 213824870851
    },
    {
      "x": 9.79681396484375,
      "y": -0.38763725757598877,
      "z": 0.15732808411121368,
      "time_usec": 213824873100
    },
    {
      "x": 9.792028427124023,
      "y": -0.37806597352027893,
      "z": 0.1621137410402298,
      "time_usec": 213824875354
    },
    {
      "x": 9.777671813964844,
      "y": -0.38763725757598877,
      "z": 0.1381855010986328,
      "time_usec": 213824877624
    },
    {
      "x": 9.787242889404297,
      "y": -0.3684946894645691,
      "z": 0.12861421704292297,
      "time_usec": 213824879883
    },
    {
      "x": 9.777671813964844,
      "y": -0.37806597352027893,
      "z": 0.11904292553663254,
      "time_usec": 213824882142
    },
    {
      "x": 9.768099784851074,
      "y": -0.363709032535553,
      "z": 0.11904292553663254,
      "time_usec": 213824884391
    },
    {
      "x": 9.730413436889648,
      "y": -0.363709032535553,
      "z": 0.137587308883667,
      "time_usec": 213824886654
    },
    {
      "x": 9.711270332336426,
      "y": -0.3684946894645691,
      "z": 0.13280165195465088,
      "time_usec": 213824888912
    },
    {
      "x": 9.696913719177246,
      "y": -0.39182472229003906,
      "z": 0.14715859293937683,
      "time_usec": 213824891170
    },
    {
      "x": 9.668798446655273,
      "y": -0.36311084032058716,
      "z": 0.137587308883667,
      "time_usec": 213824893422
    },
    {
      "x": 9.658628463745117,
      "y": -0.38225340843200684,
      "z": 0.14715859293937683,
      "time_usec": 213824895684
    },
    {
      "x": 9.66819953918457,
      "y": -0.372682124376297,
      "z": 0.137587308883667,
      "time_usec": 213824897940
    },
    {
      "x": 9.7064847946167,
      "y": -0.3678964674472809,
      "z": 0.137587308883667,
      "time_usec": 213824900195
    },
    {
      "x": 9.716055870056152,
      "y": -0.38763725757598877,
      "z": 0.12801600992679596,
      "time_usec": 213824902451
    },
    {
      "x": 9.7064847946167,
      "y": -0.3774677813053131,
      "z": 0.1423729509115219,
      "time_usec": 213824904709
    },
    {
      "x": 9.716055870056152,
      "y": -0.3774677813053131,
      "z": 0.1663011759519577,
      "time_usec": 213824906973
    },
    {
      "x": 9.687342643737793,
      "y": -0.38225340843200684,
      "z": 0.16151553392410278,
      "time_usec": 213824909227
    },
    {
      "x": 9.66819953918457,
      "y": -0.4061816334724426,
      "z": 0.17587246000766754,
      "time_usec": 213824911474
    },
    {
      "x": 9.66819953918457,
      "y": -0.4013960063457489,
      "z": 0.18544375896453857,
      "time_usec": 213824913739
    },
    {
      "x": 9.663414001464844,
      "y": -0.41575294733047485,
      "z": 0.1950150430202484,
      "time_usec": 213824916002
    },
    {
      "x": 9.648459434509277,
      "y": -0.44446679949760437,
      "z": 0.2183450609445572,
      "time_usec": 213824918262
    },
    {
      "x": 9.69631576538086,
      "y": -0.4301098585128784,
      "z": 0.22851456701755524,
      "time_usec": 213824920512
    },
    {
      "x": 9.67238712310791,
      "y": -0.46360939741134644,
      "z": 0.24287149310112,
      "time_usec": 213824922769
    },
    {
      "x": 9.686145782470703,
      "y": -0.4827519655227661,
      "z": 0.2476571500301361,
      "time_usec": 213824925032
    },
    {
      "x": 9.667601585388184,
      "y": -0.4875376224517822,
      "z": 0.24287149310112,
      "time_usec": 213824927292
    },
    {
      "x": 9.652647018432617,
      "y": -0.5162515044212341,
      "z": 0.26141586899757385,
      "time_usec": 213824929545
    },
    {
      "x": 9.647860527038574,
      "y": -0.5353940725326538,
      "z": 0.2566302418708801,
      "time_usec": 213824931791
    },
    {
      "x": 9.614959716796875,
      "y": -0.5545366406440735,
      "z": 0.2709871530532837,
      "time_usec": 213824934057
    },
    {
      "x": 9.600603103637695,
      "y": -0.5443671345710754,
      "z": 0.26141586899757385,
      "time_usec": 213824936321
    },
    {
      "x": 9.576674461364746,
      "y": -0.5395814776420593,
      "z": 0.2805584669113159,
      "time_usec": 213824938580
    },
    {
      "x": 9.605388641357422,
      "y": -0.5300102233886719,
      "z": 0.2709871530532837,
      "time_usec": 213824940835
    },
    {
      "x": 9.643074989318848,
      "y": -0.5210371017456055,
      "z": 0.2949153780937195,
      "time_usec": 213824943087
    },
    {
      "x": 9.66221809387207,
      "y": -0.5018945336341858,
      "z": 0.26620152592658997,
      "time_usec": 213824945349
    },
    {
      "x": 9.695717811584473,
      "y": -0.49232324957847595,
      "z": 0.24287149310112,
      "time_usec": 213824947603
    },
    {
      "x": 9.677172660827637,
      "y": -0.4731806814670563,
      "z": 0.20937198400497437,
      "time_usec": 213824949866
    },
    {
      "x": 9.691530227661133,
      "y": -0.4540380835533142,
      "z": 0.18544375896453857,
      "time_usec": 213824952121
    },
    {
      "x": 9.686744689941406,
      "y": -0.4540380835533142,
      "z": 0.18065811693668365,
      "time_usec": 213824954377
    },
    {
      "x": 9.686744689941406,
      "y": -0.46839502453804016,
      "z": 0.15672987699508667,
      "time_usec": 213824956637
    },
    {
      "x": 9.701101303100586,
      "y": -0.43489551544189453,
      "z": 0.1902294009923935,
      "time_usec": 213824958892
    },
    {
      "x": 9.710672378540039,
      "y": -0.43968117237091064,
      "z": 0.1902294009923935,
      "time_usec": 213824961139
    },
    {
      "x": 9.729815483093262,
      "y": -0.4307080805301666,
      "z": 0.18544375896453857,
      "time_usec": 213824963405
    },
    {
      "x": 9.729815483093262,
      "y": -0.4259224236011505,
      "z": 0.19980068504810333,
      "time_usec": 213824965668
    },
    {
      "x": 9.739386558532715,
      "y": -0.3924229145050049,
      "z": 0.20937198400497437,
      "time_usec": 213824967929
    },
    {
      "x": 9.748957633972168,
      "y": -0.41156548261642456,
      "z": 0.19980068504810333,
      "time_usec": 213824970184
    },
    {
      "x": 9.739386558532715,
      "y": -0.4259224236011505,
      "z": 0.18544375896453857,
      "time_usec": 213824972435
    },
    {
      "x": 9.739386558532715,
      "y": -0.4259224236011505,
      "z": 0.1663011759519577,
      "time_usec": 213824974692
    },
    {
      "x": 9.772287368774414,
      "y": -0.41156548261642456,
      "z": 0.17168502509593964,
      "time_usec": 213824976954
    },
    {
      "x": 9.768099784851074,
      "y": -0.41156548261642456,
      "z": 0.12861421704292297,
      "time_usec": 213824979211
    },
    {
      "x": 9.758528709411621,
      "y": -0.40677985548973083,
      "z": 0.16689938306808472,
      "time_usec": 213824981470
    },
    {
      "x": 9.763314247131348,
      "y": -0.38763725757598877,
      "z": 0.18125630915164948,
      "time_usec": 213824983723
    },
    {
      "x": 9.768099784851074,
      "y": -0.38285163044929504,
      "z": 0.18125630915164948,
      "time_usec": 213824985986
    },
    {
      "x": 9.78664493560791,
      "y": -0.397208571434021,
      "z": 0.17647066712379456,
      "time_usec": 213824988242
    },
    {
      "x": 9.787242889404297,
      "y": -0.37806597352027893,
      "z": 0.17647066712379456,
      "time_usec": 213824990495
    },
    {
      "x": 9.777671813964844,
      "y": -0.3732803463935852,
      "z": 0.16689938306808472,
      "time_usec": 213824992753
    },
    {
      "x": 9.796216011047363,
      "y": -0.38763725757598877,
      "z": 0.18125630915164948,
      "time_usec": 213824995015
    },
    {
      "x": 9.796216011047363,
      "y": -0.3732803463935852,
      "z": 0.17168502509593964,
      "time_usec": 213824997275
    },
    {
      "x": 9.81117057800293,
      "y": -0.35413774847984314,
      "z": 0.14775680005550385,
      "time_usec": 213824999533
    },
    {
      "x": 9.806385040283203,
      "y": -0.363709032535553,
      "z": 0.14775680005550385,
      "time_usec": 213825001787
    },
    {
      "x": 9.81535816192627,
      "y": -0.3684946894645691,
      "z": 0.17168502509593964,
      "time_usec": 213825004040
    },
    {
      "x": 9.820143699645996,
      "y": -0.3732803463935852,
      "z": 0.17168502509593964,
      "time_usec": 213825006303
    },
    {
      "x": 9.834501266479492,
      "y": -0.38285163044929504,
      "z": 0.1860419660806656,
      "time_usec": 213825008558
    },
    {
      "x": 9.829715728759766,
      "y": -0.3684946894645691,
      "z": 0.18125630915164948,
      "time_usec": 213825010805
    },
    {
      "x": 9.805787086486816,
      "y": -0.3684946894645691,
      "z": 0.2147558331489563,
      "time_usec": 213825013071
    },
    {
      "x": 9.796216011047363,
      "y": -0.3924229145050049,
      "z": 0.22911277413368225,
      "time_usec": 213825015334
    },
    {
      "x": 9.796216011047363,
      "y": -0.3924229145050049,
      "z": 0.2626122832298279,
      "time_usec": 213825017594
    },
    {
      "x": 9.776474952697754,
      "y": -0.44027936458587646,
      "z": 0.2763710021972656,
      "time_usec": 213825019850
    },
    {
      "x": 9.7669038772583,
      "y": -0.45942193269729614,
      "z": 0.28115665912628174,
      "time_usec": 213825022102
    },
    {
      "x": 9.7669038772583,
      "y": -0.4498506486415863,
      "z": 0.2907279431819916,
      "time_usec": 213825024349
    },
    {
      "x": 9.7669038772583,
      "y": -0.46899324655532837,
      "z": 0.3194418251514435,
      "time_usec": 213825026611
    },
    {
      "x": 9.78126049041748,
      "y": -0.46899324655532837,
      "z": 0.3194418251514435,
      "time_usec": 213825028866
    },
    {
      "x": 9.7669038772583,
      "y": -0.46899324655532837,
      "z": 0.3242274820804596,
      "time_usec": 213825031138
    },
    {
      "x": 9.786046028137207,
      "y": -0.4737788736820221,
      "z": 0.3242274820804596,
      "time_usec": 213825033387
    },
    {
      "x": 9.780662536621094,
      "y": -0.4833501875400543,
      "z": 0.33379876613616943,
      "time_usec": 213825035644
    },
    {
      "x": 9.790233612060547,
      "y": -0.4833501875400543,
      "z": 0.3290131092071533,
      "time_usec": 213825037908
    },
    {
      "x": 9.762118339538574,
      "y": -0.49292147159576416,
      "z": 0.3002992272377014,
      "time_usec": 213825040166
    },
    {
      "x": 9.78126049041748,
      "y": -0.4785645306110382,
      "z": 0.28594231605529785,
      "time_usec": 213825042420
    },
    {
      "x": 9.78126049041748,
      "y": -0.4977070987224579,
      "z": 0.2667997181415558,
      "time_usec": 213825044677
    },
    {
      "x": 9.800403594970703,
      "y": -0.4785645306110382,
      "z": 0.2626122832298279,
      "time_usec": 213825046936
    },
    {
      "x": 9.824331283569336,
      "y": -0.4785645306110382,
      "z": 0.24825534224510193,
      "time_usec": 213825049192
    },
    {
      "x": 9.833304405212402,
      "y": -0.4833501875400543,
      "z": 0.27696922421455383,
      "time_usec": 213825051453
    },
    {
      "x": 9.818947792053223,
      "y": -0.4977070987224579,
      "z": 0.3008974492549896,
      "time_usec": 213825053706
    },
    {
      "x": 9.842875480651855,
      "y": -0.49292147159576416,
      "z": 0.3248256742954254,
      "time_usec": 213825055970
    },
    {
      "x": 9.856635093688965,
      "y": -0.5024927258491516,
      "z": 0.3248256742954254,
      "time_usec": 213825058228
    },
    {
      "x": 9.847063064575195,
      "y": -0.5120640397071838,
      "z": 0.3439682424068451,
      "time_usec": 213825060488
    },
    {
      "x": 9.880562782287598,
      "y": -0.5222335457801819,
      "z": 0.32961133122444153,
      "time_usec": 213825062737
    },
    {
      "x": 9.884750366210938,
      "y": -0.5413761138916016,
      "z": 0.35832518339157104,
      "time_usec": 213825064999
    },
    {
      "x": 9.903892517089844,
      "y": -0.5222335457801819,
      "z": 0.3774677813053131,
      "time_usec": 213825067255
    },
    {
      "x": 9.9469633102417,
      "y": -0.5126622319221497,
      "z": 0.4019941985607147,
      "time_usec": 213825069513
    },
    {
      "x": 9.956535339355469,
      "y": -0.5126622319221497,
      "z": 0.397208571434021,
      "time_usec": 213825071771
    },
    {
      "x": 9.979865074157715,
      "y": -0.4983053207397461,
      "z": 0.4019941985607147,
      "time_usec": 213825074020
    },
    {
      "x": 9.966106414794922,
      "y": -0.4983053207397461,
      "z": 0.35892340540885925,
      "time_usec": 213825076274
    },
    {
      "x": 9.93260669708252,
      "y": -0.5078766345977783,
      "z": 0.33020952343940735,
      "time_usec": 213825078544
    },
    {
      "x": 9.89970588684082,
      "y": -0.5222335457801819,
      "z": 0.28235307335853577,
      "time_usec": 213825080802
    },
    {
      "x": 9.847661972045898,
      "y": -0.5174478888511658,
      "z": 0.28175488114356995,
      "time_usec": 213825083058
    },
    {
      "x": 9.809974670410156,
      "y": -0.5120640397071838,
      "z": 0.267397940158844,
      "time_usec": 213825085317
    },
    {
      "x": 9.80518913269043,
      "y": -0.5168496966362,
      "z": 0.2721835672855377,
      "time_usec": 213825087574
    },
    {
      "x": 9.776474952697754,
      "y": -0.5264210104942322,
      "z": 0.28115665912628174,
      "time_usec": 213825089833
    },
    {
      "x": 9.7669038772583,
      "y": -0.4977070987224579,
      "z": 0.2907279431819916,
      "time_usec": 213825092088
    },
    {
      "x": 9.795618057250977,
      "y": -0.49292147159576416,
      "z": 0.2913261651992798,
      "time_usec": 213825094341
    },
    {
      "x": 9.795618057250977,
      "y": -0.5024927258491516,
      "z": 0.28654050827026367,
      "time_usec": 213825096605
    },
    {
      "x": 9.78126049041748,
      "y": -0.4785645306110382,
      "z": 0.2386840581893921,
      "time_usec": 213825098863
    },
    {
      "x": 9.795618057250977,
      "y": -0.4737788736820221,
      "z": 0.21954147517681122,
      "time_usec": 213825101119
    },
    {
      "x": 9.78664493560791,
      "y": -0.4833501875400543,
      "z": 0.19561325013637543,
      "time_usec": 213825103371
    },
    {
      "x": 9.781859397888184,
      "y": -0.4833501875400543,
      "z": 0.2147558331489563,
      "time_usec": 213825105634
    },
    {
      "x": 9.80100154876709,
      "y": -0.4833501875400543,
      "z": 0.1908276081085205,
      "time_usec": 213825107890
    },
    {
      "x": 9.80100154876709,
      "y": -0.46420758962631226,
      "z": 0.20518454909324646,
      "time_usec": 213825110139
    },
    {
      "x": 9.796216011047363,
      "y": -0.46420758962631226,
      "z": 0.20997019112110138,
      "time_usec": 213825112400
    },
    {
      "x": 9.795618057250977,
      "y": -0.46420758962631226,
      "z": 0.22911277413368225,
      "time_usec": 213825114659
    },
    {
      "x": 9.795618057250977,
      "y": -0.46899324655532837,
      "z": 0.25782662630081177,
      "time_usec": 213825116927
    },
    {
      "x": 9.78126049041748,
      "y": -0.4785645306110382,
      "z": 0.2763710021972656,
      "time_usec": 213825119186
    },
    {
      "x": 9.795618057250977,
      "y": -0.4833501875400543,
      "z": 0.28654050827026367,
      "time_usec": 213825121437
    },
