{
  "frames": [
    {
      "frame_id": 0,
      "sensor_timestamp": 213824687811724,
      "time_usec": 213824687811
    },
    {
      "frame_id": 1,
      "sensor_timestamp": 213824754304644,
      "time_usec": 213824754304
    },
    {
      "frame_id": 2,
      "sensor_timestamp": 213824787550982,
      "time_usec": 213824787550
    },
    {
      "frame_id": 3,
      "sensor_timestamp": 213824820797320,
      "time_usec": 213824820797
    },
    {
      "frame_id": 4,
      "sensor_timestamp": 213824854043658,
      "time_usec": 213824854043
    },
    {
      "frame_id": 5,
      "sensor_timestamp": 213824887290240,
      "time_usec": 213824887290
    },
    {
      "frame_id": 6,
      "sensor_timestamp": 213824920536578,
      "time_usec": 213824920536
    },
    {
      "frame_id": 7,
      "sensor_timestamp": 213824953782916,
      "time_usec": 213824953782
    },
    {
      "frame_id": 8,
      "sensor_timestamp": 213824987029254,
      "time_usec": 213824987029
    },
    {
      "frame_id": 9,
      "sensor_timestamp": 213825020275836,
      "time_usec": 213825020275
    },
    {
      "frame_id": 10,
      "sensor_timestamp": 213825053522173,
      "time_usec": 213825053522
    },
    {
      "frame_id": 11,
      "sensor_timestamp": 213825086768511,
      "time_usec": 213825086768
    },
    {
      "frame_id": 12,
      "sensor_timestamp": 213825120014849,
      "time_usec": 213825120014
    },
    {
      "frame_id": 13,
      "sensor_timestamp": 213825153261431,
      "time_usec": 213825153261
    },
    {
      "frame_id": 14,
      "sensor_timestamp": 213825186507769,
      "time_usec": 213825186507
    },
    {
      "frame_id": 15,
      "sensor_timestamp": 213825219754107,
      "time_usec": 213825219754
    },
    {
      "frame_id": 16,
      "sensor_timestamp": 213825253000445,
      "time_usec": 213825253000
    },
    {
      "frame_id": 17,
      "sensor_timestamp": 213825286246783,
      "time_usec": 213825286246
    },
    {
      "frame_id": 18,
      "sensor_timestamp": 213825319493365,
      "time_usec": 213825319493
    },
    {
      "frame_id": 19,
      "sensor_timestamp": 213825352739703,
      "time_usec": 213825352739
    },
    {
      "frame_id": 20,
      "sensor_timestamp": 213825385986041,
      "time_usec": 213825385986
    },
    {
      "frame_id": 21,
      "sensor_timestamp": 213825419232379,
      "time_usec": 213825419232
    },
    {
      "frame_id": 22,
      "sensor_timestamp": 213825452478961,
      "time_usec": 213825452478
    },
    {
      "frame_id": 23,
      "sensor_timestamp": 213825485725298,
      "time_usec": 213825485725
    },
    {
      "frame_id": 24,
      "sensor_timestamp": 213825518971636,
      "time_usec": 213825518971
    },
    {
      "frame_id": 25,
      "sensor_timestamp": 213825552217974,
      "time_usec": 213825552217
    },
    {
      "frame_id": 26,
      "sensor_timestamp": 213825585464556,
      "time_usec": 213825585464
    },
    {
      "frame_id": 27,
      "sensor_timestamp": 213825618710894,
      "time_usec": 213825618710
    },
    {
      "frame_id": 28,
      "sensor_timestamp": 213825651957232,
      "time_usec": 213825651957
    },
    {
      "frame_id": 29,
      "sensor_timestamp": 213825685203570,
      "time_usec": 213825685203
    },
    {
      "frame_id": 30,
      "sensor_timestamp": 213825718450152,
      "time_usec": 213825718450
    },
    {
      "frame_id": 31,
      "sensor_timestamp": 213825751696490,
      "time_usec": 213825751696
    },
    {
      "frame_id": 32,
      "sensor_timestamp": 213825784942828,
      "time_usec": 213825784942
    },
    {
      "frame_id": 33,
      "sensor_timestamp": 213825818189166,
      "time_usec": 213825818189
    },
    {
      "frame_id": 34,
      "sensor_timestamp": 213825851435748,
      "time_usec": 213825851435
    },
    {
      "frame_id": 35,
      "sensor_timestamp": 213825884682086,
      "time_usec": 213825884682
    },
    {
      "frame_id": 36,
      "sensor_timestamp": 213825917928423,
      "time_usec": 213825917928
    },
    {
      "frame_id": 37,
      "sensor_timestamp": 213825951174761,
      "time_usec": 213825951174
    },
    {
      "frame_id": 38,
      "sensor_timestamp": 213825984421343,
      "time_usec": 213825984421
    },
    {
      "frame_id": 39,
      "sensor_timestamp": 213826017667681,
      "time_usec": 213826017667
    },
    {
      "frame_id": 40,
      "sensor_timestamp": 213826050914019,
      "time_usec": 213826050914
    },
    {
      "frame_id": 41,
      "sensor_timestamp": 213826084160357,
      "time_usec": 213826084160
    },
    {
      "frame_id": 42,
      "sensor_timestamp": 213826117406939,
      "time_usec": 213826117406
    },
    {
      "frame_id": 43,
      "sensor_timestamp": 213826150653277,
      "time_usec": 213826150653
    },
    {
      "frame_id": 44,
      "sensor_timestamp": 213826183899615,
      "time_usec": 213826183899
    },
    {
      "frame_id": 45,
      "sensor_timestamp": 213826217145953,
      "time_usec": 213826217145
    },
    {
      "frame_id": 46,
      "sensor_timestamp": 213826250392535,
      "time_usec": 213826250392
    },
    {
      "frame_id": 47,
      "sensor_timestamp": 213826283638873,
      "time_usec": 213826283638
    },
    {
      "frame_id": 48,
      "sensor_timestamp": 213826316885211,
      "time_usec": 213826316885
    },
    {
      "frame_id": 49,
      "sensor_timestamp": 213826350131548,
      "time_usec": 213826350131
    },
    {
      "frame_id": 50,
      "sensor_timestamp": 213826383378130,
      "time_usec": 213826383378
    },
    {
      "frame_id": 51,
      "sensor_timestamp": 213826416624468,
      "time_usec": 213826416624
    },
    {
      "frame_id": 52,
      "sensor_timestamp": 213826449870806,
      "time_usec": 213826449870
    },
    {
      "frame_id": 53,
      "sensor_timestamp": 213826483117144,
      "time_usec": 213826483117
    },
    {
      "frame_id": 54,
      "sensor_timestamp": 213826516363482,
      "time_usec": 213826516363
    },
    {
      "frame_id": 55,
      "sensor_timestamp": 213826549610064,
      "time_usec": 213826549610
    },
    {
      "frame_id": 56,
      "sensor_timestamp": 213826582856402,
      "time_usec": 213826582856
    },
    {
      "frame_id": 57,
      "sensor_timestamp": 213826616102740,
      "time_usec": 213826616102
    },
    {
      "frame_id": 58,
      "sensor_timestamp": 213826649349078,
      "time_usec": 213826649349
    },
    {
      "frame_id": 59,
      "sensor_timestamp": 213826682595660,
      "time_usec": 213826682595
    },
    {
      "frame_id": 60,
      "sensor_timestamp": 213826715841998,
      "time_usec": 213826715841
    },
    {
      "frame_id": 61,
      "sensor_timestamp": 213826749088336,
      "time_usec": 213826749088
    },
    {
      "frame_id": 62,
      "sensor_timestamp": 213826782334673,
      "time_usec": 213826782334
    },
    {
      "frame_id": 63,
      "sensor_timestamp": 213826815581255,
      "time_usec": 213826815581
    },
    {
      "frame_id": 64,
      "sensor_timestamp": 213826848827593,
      "time_usec": 213826848827
    },
    {
      "frame_id": 65,
      "sensor_timestamp": 213826882073931,
      "time_usec": 213826882073
    },
    {
      "frame_id": 66,
      "sensor_timestamp": 213826915320269,
      "time_usec": 213826915320
    },
    {
      "frame_id": 67,
      "sensor_timestamp": 213826948566851,
      "time_usec": 213826948566
    },
    {
      "frame_id": 68,
      "sensor_timestamp": 213826981813189,
      "time_usec": 213826981813
    },
    {
      "frame_id": 69,
      "sensor_timestamp": 213827015059527,
      "time_usec": 213827015059
    },
    {
      "frame_id": 70,
      "sensor_timestamp": 213827048305865,
      "time_usec": 213827048305
    },
    {
      "frame_id": 71,
      "sensor_timestamp": 213827081552447,
      "time_usec": 213827081552
    },
    {
      "frame_id": 72,
      "sensor_timestamp": 213827114798785,
      "time_usec": 213827114798
    },
    {
      "frame_id": 73,
      "sensor_timestamp": 213827148045123,
      "time_usec": 213827148045
    },
    {
      "frame_id": 74,
      "sensor_timestamp": 213827181291461,
      "time_usec": 213827181291
    },
    {
      "frame_id": 75,
      "sensor_timestamp": 213827214538043,
      "time_usec": 213827214538
    },
    {
      "frame_id": 76,
      "sensor_timestamp": 213827247784380,
      "time_usec": 213827247784
    },
    {
      "frame_id": 77,
      "sensor_timestamp": 213827281030718,
      "time_usec": 213827281030
    },
    {
      "frame_id": 78,
      "sensor_timestamp": 213827314277056,
      "time_usec": 213827314277
    },
    {
      "frame_id": 79,
      "sensor_timestamp": 213827347523638,
      "time_usec": 213827347523
    },
    {
      "frame_id": 80,
      "sensor_timestamp": 213827380769976,
      "time_usec": 213827380769
    },
    {
      "frame_id": 81,
      "sensor_timestamp": 213827414016314,
      "time_usec": 213827414016
    },
    {
      "frame_id": 82,
      "sensor_timestamp": 213827447262652,
      "time_usec": 213827447262
    },
    {
      "frame_id": 83,
      "sensor_timestamp": 213827480509234,
      "time_usec": 213827480509
    },
    {
      "frame_id": 84,
      "sensor_timestamp": 213827513755572,
      "time_usec": 213827513755
    },
    {
      "frame_id": 85,
      "sensor_timestamp": 213827547001910,
      "time_usec": 213827547001
    },
    {
      "frame_id": 86,
      "sensor_timestamp": 213827580248248,
      "time_usec": 213827580248
    },
    {
      "frame_id": 87,
      "sensor_timestamp": 213827613494830,
      "time_usec": 213827613494
    },
    {
      "frame_id": 88,
      "sensor_timestamp": 213827646741168,
      "time_usec": 213827646741
    },
    {
      "frame_id": 89,
      "sensor_timestamp": 213827679987505,
      "time_usec": 213827679987
    },
    {
      "frame_id": 90,
      "sensor_timestamp": 213827713233843,
      "time_usec": 213827713233
    },
    {
      "frame_id": 91,
      "sensor_timestamp": 213827746480181,
      "time_usec": 213827746480
    },
    {
      "frame_id": 92,
      "sensor_timestamp": 213827779726763,
      "time_usec": 213827779726
    },
    {
      "frame_id": 93,
      "sensor_timestamp": 213827812973101,
      "time_usec": 213827812973
    },
    {
      "frame_id": 94,
      "sensor_timestamp": 213827846219439,
      "time_usec": 213827846219
    },
    {
      "frame_id": 95,
      "sensor_timestamp": 213827879465777,
      "time_usec": 213827879465
    },
    {
      "frame_id": 96,
      "sensor_timestamp": 213827912712359,
      "time_usec": 213827912712
    },
    {
      "frame_id": 97,
      "sensor_timestamp": 213827945958697,
      "time_usec": 213827945958
    },
    {
      "frame_id": 98,
      "sensor_timestamp": 213827979205035,
      "time_usec": 213827979205
    },
    {
      "frame_id": 99,
      "sensor_timestamp": 213828012451373,
      "time_usec": 213828012451
    },
    {
      "frame_id": 100,
      "sensor_timestamp": 213828045697955,
      "time_usec": 213828045697
    },
    {
      "frame_id": 101,
      "sensor_timestamp": 213828078944293,
      "time_usec": 213828078944
    },
    {
      "frame_id": 102,
      "sensor_timestamp": 213828112190630,
      "time_usec": 213828112190
    },
    {
      "frame_id": 103,
      "sensor_timestamp": 213828145436968,
      "time_usec": 213828145436
    },
    {
      "frame_id": 104,
      "sensor_timestamp": 213828178683550,
      "time_usec": 213828178683
    },
    {
      "frame_id": 105,
      "sensor_timestamp": 213828211929888,
      "time_usec": 213828211929
    },
    {
      "frame_id": 106,
      "sensor_timestamp": 213828245176226,
      "time_usec": 213828245176
    },
    {
      "frame_id": 107,
      "sensor_timestamp": 213828278422564,
      "time_usec": 213828278422
    },
    {
      "frame_id": 108,
      "sensor_timestamp": 213828311669146,
      "time_usec": 213828311669
    },
    {
      "frame_id": 109,
      "sensor_timestamp": 213828344915484,
      "time_usec": 213828344915
    },
    {
      "frame_id": 110,
      "sensor_timestamp": 213828378161822,
      "time_usec": 213828378161
    },
    {
      "frame_id": 111,
      "sensor_timestamp": 213828411408160,
      "time_usec": 213828411408
    },
    {
      "frame_id": 112,
      "sensor_timestamp": 213828444654742,
      "time_usec": 213828444654
    },
    {
      "frame_id": 113,
      "sensor_timestamp": 213828477901080,
      "time_usec": 213828477901
    },
    {
      "frame_id": 114,
      "sensor_timestamp": 213828511147418,
      "time_usec": 213828511147
    },
    {
      "frame_id": 115,
      "sensor_timestamp": 213828544393755,
      "time_usec": 213828544393
    },
    {
      "frame_id": 116,
      "sensor_timestamp": 213828577640337,
      "time_usec": 213828577640
    },
    {
      "frame_id": 117,
      "sensor_timestamp": 213828610886675,
      "time_usec": 213828610886
    },
    {
      "frame_id": 118,
      "sensor_timestamp": 213828644133013,
      "time_usec": 213828644133
    },
    {
      "frame_id": 119,
      "sensor_timestamp": 213828677379351,
      "time_usec": 213828677379
    },
    {
      "frame_id": 120,
      "sensor_timestamp": 213828710625933,
      "time_usec": 213828710625
    },
    {
      "frame_id": 121,
      "sensor_timestamp": 213828743872271,
      "time_usec": 213828743872
    },
    {
      "frame_id": 122,
      "sensor_timestamp": 213828777118609,
      "time_usec": 213828777118
    },
    {
      "frame_id": 123,
      "sensor_timestamp": 213828810364947,
      "time_usec": 213828810364
    },
    {
      "frame_id": 124,
      "sensor_timestamp": 213828843611529,
      "time_usec": 213828843611
    },
    {
      "frame_id": 125,
      "sensor_timestamp": 213828876857867,
      "time_usec": 213828876857
    },
    {
      "frame_id": 126,
      "sensor_timestamp": 213828910104205,
      "time_usec": 213828910104
    },
    {
      "frame_id": 127,
      "sensor_timestamp": 213828943350543,
      "time_usec": 213828943350
    },
    {
      "frame_id": 128,
      "sensor_timestamp": 213828976596880,
      "time_usec": 213828976596
    },
    {
      "frame_id": 129,
      "sensor_timestamp": 213829009843462,
      "time_usec": 213829009843
    },
    {
      "frame_id": 130,
      "sensor_timestamp": 213829043089800,
      "time_usec": 213829043089
    },
    {
      "frame_id": 131,
      "sensor_timestamp": 213829076336138,
      "time_usec": 213829076336
    },
    {
      "frame_id": 132,
      "sensor_timestamp": 213829109582476,
      "time_usec": 213829109582
    },
    {
      "frame_id": 133,
      "sensor_timestamp": 213829142829058,
      "time_usec": 213829142829
    },
    {
      "frame_id": 134,
      "sensor_timestamp": 213829176075396,
      "time_usec": 213829176075
    },
    {
      "frame_id": 135,
      "sensor_timestamp": 213829209321734,
      "time_usec": 213829209321
    },
    {
      "frame_id": 136,
      "sensor_timestamp": 213829242568072,
      "time_usec": 213829242568
    },
    {
      "frame_id": 137,
      "sensor_timestamp": 213829275814654,
      "time_usec": 213829275814
    },
    {
      "frame_id": 138,
      "sensor_timestamp": 213829309060992,
      "time_usec": 213829309060
    },
    {
      "frame_id": 139,
      "sensor_timestamp": 213829342307330,
      "time_usec": 213829342307
    },
    {
      "frame_id": 140,
      "sensor_timestamp": 213829375553668,
      "time_usec": 213829375553
    },
    {
      "frame_id": 141,
      "sensor_timestamp": 213829408800250,
      "time_usec": 213829408800
    },
    {
      "frame_id": 142,
      "sensor_timestamp": 213829442046587,
      "time_usec": 213829442046
    },
    {
      "frame_id": 143,
      "sensor_timestamp": 213829475292925,
      "time_usec": 213829475292
    },
    {
      "frame_id": 144,
      "sensor_timestamp": 213829508539263,
      "time_usec": 213829508539
    },
    {
      "frame_id": 145,
      "sensor_timestamp": 213829541785845,
      "time_usec": 213829541785
    },
    {
      "frame_id": 146,
      "sensor_timestamp": 213829575032183,
      "time_usec": 213829575032
    },
    {
      "frame_id": 147,
      "sensor_timestamp": 213829608278521,
      "time_usec": 213829608278
    },
    {
      "frame_id": 148,
      "sensor_timestamp": 213829641524859,
      "time_usec": 213829641524
    },
    {
      "frame_id": 149,
      "sensor_timestamp": 213829674771441,
      "time_usec": 213829674771
    },
    {
      "frame_id": 150,
      "sensor_timestamp": 213829708017779,
      "time_usec": 213829708017
    },
    {
      "frame_id": 151,
      "sensor_timestamp": 213829741264117,
      "time_usec": 213829741264
    },
    {
      "frame_id": 152,
      "sensor_timestamp": 213829774510455,
      "time_usec": 213829774510
    },
    {
      "frame_id": 153,
      "sensor_timestamp": 213829807757037,
      "time_usec": 213829807757
    },
    {
      "frame_id": 154,
      "sensor_timestamp": 213829841003375,
      "time_usec": 213829841003
    },
    {
      "frame_id": 155,
      "sensor_timestamp": 213829874249712,
      "time_usec": 213829874249
    },
    {
      "frame_id": 156,
      "sensor_timestamp": 213829907496050,
      "time_usec": 213829907496
    },
    {
      "frame_id": 157,
      "sensor_timestamp": 213829940742632,
      "time_usec": 213829940742
    },
    {
      "frame_id": 158,
      "sensor_timestamp": 213829973988970,
      "time_usec": 213829973988
    },
    {
      "frame_id": 159,
      "sensor_timestamp": 213830007235308,
      "time_usec": 213830007235
    },
    {
      "frame_id": 160,
      "sensor_timestamp": 213830040481646,
      "time_usec": 213830040481
    },
    {
      "frame_id": 161,
      "sensor_timestamp": 213830073728228,
      "time_usec": 213830073728
    },
    {
      "frame_id": 162,
      "sensor_timestamp": 213830106974566,
      "time_usec": 213830106974
    },
    {
      "frame_id": 163,
      "sensor_timestamp": 213830140220904,
      "time_usec": 213830140220
    },
    {
      "frame_id": 164,
      "sensor_timestamp": 213830173467242,
      "time_usec": 213830173467
    },
    {
      "frame_id": 165,
      "sensor_timestamp": 213830206713580,
      "time_usec": 213830206713
    },
    {
      "frame_id": 166,
      "sensor_timestamp": 213830239960162,
      "time_usec": 213830239960
    },
    {
      "frame_id": 167,
      "sensor_timestamp": 213830273206500,
      "time_usec": 213830273206
    },
    {
      "frame_id": 168,
      "sensor_timestamp": 213830306452837,
      "time_usec": 213830306452
    },
    {
      "frame_id": 169,
      "sensor_timestamp": 213830339699175,
      "time_usec": 213830339699
    },
    {
      "frame_id": 170,
      "sensor_timestamp": 213830372945757,
      "time_usec": 213830372945
    },
    {
      "frame_id": 171,
      "sensor_timestamp": 213830406192095,
      "time_usec": 213830406192
    },
    {
      "frame_id": 172,
      "sensor_timestamp": 213830439438433,
      "time_usec": 213830439438
    },
    {
      "frame_id": 173,
      "sensor_timestamp": 213830472684771,
      "time_usec": 213830472684
    },
    {
      "frame_id": 174,
      "sensor_timestamp": 213830505931353,
      "time_usec": 213830505931
    },
    {
      "frame_id": 175,
      "sensor_timestamp": 213830539177691,
      "time_usec": 213830539177
    },
    {
      "frame_id": 176,
      "sensor_timestamp": 213830572424029,
      "time_usec": 213830572424
    },
    {
      "frame_id": 177,
      "sensor_timestamp": 213830605670367,
      "time_usec": 213830605670
    },
    {
      "frame_id": 178,
      "sensor_timestamp": 213830638916949,
      "time_usec": 213830638916
    },
    {
      "frame_id": 179,
      "sensor_timestamp": 213830672163287,
      "time_usec": 213830672163
    },
    {
      "frame_id": 180,
      "sensor_timestamp": 213830705409625,
      "time_usec": 213830705409
    },
    {
      "frame_id": 181,
      "sensor_timestamp": 213830738655962,
      "time_usec": 213830738655
    },
    {
      "frame_id": 182,
      "sensor_timestamp": 213830771902545,
      "time_usec": 213830771902
    },
    {
      "frame_id": 183,
      "sensor_timestamp": 213830805148882,
      "time_usec": 213830805148
    },
    {
      "frame_id": 184,
      "sensor_timestamp": 213830838395220,
      "time_usec": 213830838395
    },
    {
      "frame_id": 185,
      "sensor_timestamp": 213830871641558,
      "time_usec": 213830871641
    },
    {
      "frame_id": 186,
      "sensor_timestamp": 213830904888140,
      "time_usec": 213830904888
    },
    {
      "frame_id": 187,
      "sensor_timestamp": 213830938134478,
      "time_usec": 213830938134
    },
    {
      "frame_id": 188,
      "sensor_timestamp": 213830971380816,
      "time_usec": 213830971380
    },
    {
      "frame_id": 189,
      "sensor_timestamp": 213831004627154,
      "time_usec": 213831004627
    },
    {
      "frame_id": 190,
      "sensor_timestamp": 213831037873736,
      "time_usec": 213831037873
    },
    {
      "frame_id": 191,
      "sensor_timestamp": 213831071120074,
      "time_usec": 213831071120
    },
    {
      "frame_id": 192,
      "sensor_timestamp": 213831104366412,
      "time_usec": 213831104366
    },
    {
      "frame_id": 193,
      "sensor_timestamp": 213831137612750,
      "time_usec": 213831137612
    },
    {
      "frame_id": 194,
      "sensor_timestamp": 213831170859332,
      "time_usec": 213831170859
    },
    {
      "frame_id": 195,
      "sensor_timestamp": 213831204105670,
      "time_usec": 213831204105
    },
    {
      "frame_id": 196,
      "sensor_timestamp": 213831237352007,
      "time_usec": 213831237352
    },
    {
      "frame_id": 197,
      "sensor_timestamp": 213831270598345,
      "time_usec": 213831270598
    },
    {
      "frame_id": 198,
      "sensor_timestamp": 213831303844683,
      "time_usec": 213831303844
    },
    {
      "frame_id": 199,
      "sensor_timestamp": 213831337091265,
      "time_usec": 213831337091
    },
    {
      "frame_id": 200,
      "sensor_timestamp": 213831370337603,
      "time_usec": 213831370337
    },
    {
      "frame_id": 201,
      "sensor_timestamp": 213831403583941,
      "time_usec": 213831403583
    },
    {
      "frame_id": 202,
      "sensor_timestamp": 213831436830279,
      "time_usec": 213831436830
    },
    {
      "frame_id": 203,
      "sensor_timestamp": 213831470076861,
      "time_usec": 213831470076
    },
    {
      "frame_id": 204,
      "sensor_timestamp": 213831503323199,
      "time_usec": 213831503323
    },
    {
      "frame_id": 205,
      "sensor_timestamp": 213831536569537,
      "time_usec": 213831536569
    },
    {
      "frame_id": 206,
      "sensor_timestamp": 213831569815875,
      "time_usec": 213831569815
    },
    {
      "frame_id": 207,
      "sensor_timestamp": 213831603062457,
      "time_usec": 213831603062
    },
    {
      "frame_id": 208,
      "sensor_timestamp": 213831636308795,
      "time_usec": 213831636308
    },
    {
      "frame_id": 209,
      "sensor_timestamp": 213831669555132,
      "time_usec": 213831669555
    },
    {
      "frame_id": 210,
      "sensor_timestamp": 213831702801470,
      "time_usec": 213831702801
    },
    {
      "frame_id": 211,
      "sensor_timestamp": 213831736048052,
      "time_usec": 213831736048
    },
    {
      "frame_id": 212,
      "sensor_timestamp": 213831769294390,
      "time_usec": 213831769294
    },
    {
      "frame_id": 213,
      "sensor_timestamp": 213831802540728,
      "time_usec": 213831802540
    },
    {
      "frame_id": 214,
      "sensor_timestamp": 213831835787066,
      "time_usec": 213831835787
    },
    {
      "frame_id": 215,
      "sensor_timestamp": 213831869033648,
      "time_usec": 213831869033
    },
    {
      "frame_id": 216,
      "sensor_timestamp": 213831902279986,
      "time_usec": 213831902279
    },
    {
      "frame_id": 217,
      "sensor_timestamp": 213831935526324,
      "time_usec": 213831935526
    },
    {
      "frame_id": 218,
      "sensor_timestamp": 213831968772662,
      "time_usec": 213831968772
    },
    {
      "frame_id": 219,
      "sensor_timestamp": 213832002019244,
      "time_usec": 213832002019
    },
    {
      "frame_id": 220,
      "sensor_timestamp": 213832035265582,
      "time_usec": 213832035265
    },
    {
      "frame_id": 221,
      "sensor_timestamp": 213832068511920,
      "time_usec": 213832068511
    },
    {
      "frame_id": 222,
      "sensor_timestamp": 213832101758257,
      "time_usec": 213832101758
    },
    {
      "frame_id": 223,
      "sensor_timestamp": 213832135004839,
      "time_usec": 213832135004
    },
    {
      "frame_id": 224,
      "sensor_timestamp": 213832168251177,
      "time_usec": 213832168251
    },
    {
      "frame_id": 225,
      "sensor_timestamp": 213832201497515,
      "time_usec": 213832201497
    },
    {
      "frame_id": 226,
      "sensor_timestamp": 213832234743853,
      "time_usec": 213832234743
    },
    {
      "frame_id": 227,
      "sensor_timestamp": 213832267990435,
      "time_usec": 213832267990
    },
    {
      "frame_id": 228,
      "sensor_timestamp": 213832301236773,
      "time_usec": 213832301236
    },
    {
      "frame_id": 229,
      "sensor_timestamp": 213832334483111,
      "time_usec": 213832334483
    },
    {
      "frame_id": 230,
      "sensor_timestamp": 213832367729449,
      "time_usec": 213832367729
    },
    {
      "frame_id": 231,
      "sensor_timestamp": 213832400976031,
      "time_usec": 213832400976
    },
    {
      "frame_id": 232,
      "sensor_timestamp": 213832434222369,
      "time_usec": 213832434222
    },
    {
      "frame_id": 233,
      "sensor_timestamp": 213832467468707,
      "time_usec": 213832467468
    },
    {
      "frame_id": 234,
      "sensor_timestamp": 213832500715045,
      "time_usec": 213832500715
    },
    {
      "frame_id": 235,
      "sensor_timestamp": 213832533961382,
      "time_usec": 213832533961
    },
    {
      "frame_id": 236,
      "sensor_timestamp": 213832567207964,
      "time_usec": 213832567207
    },
    {
      "frame_id": 237,
      "sensor_timestamp": 213832600454302,
      "time_usec": 213832600454
    },
    {
      "frame_id": 238,
      "sensor_timestamp": 213832633700640,
      "time_usec": 213832633700
    },
    {
      "frame_id": 239,
      "sensor_timestamp": 213832666946978,
      "time_usec": 213832666946
    },
    {
      "frame_id": 240,
      "sensor_timestamp": 213832700193560,
      "time_usec": 213832700193
    },
    {
      "frame_id": 241,
      "sensor_timestamp": 213832733439898,
      "time_usec": 213832733439
    },
    {
      "frame_id": 242,
      "sensor_timestamp": 213832766686236,
      "time_usec": 213832766686
    },
    {
      "frame_id": 243,
      "sensor_timestamp": 213832799932574,
      "time_usec": 213832799932
    },
    {
      "frame_id": 244,
      "sensor_timestamp": 213832833179156,
      "time_usec": 213832833179
    },
    {
      "frame_id": 245,
      "sensor_timestamp": 213832866425494,
      "time_usec": 213832866425
    },
    {
      "frame_id": 246,
      "sensor_timestamp": 213832899671832,
      "time_usec": 213832899671
    },
    {
      "frame_id": 247,
      "sensor_timestamp": 213832932918170,
      "time_usec": 213832932918
    },
    {
      "frame_id": 248,
      "sensor_timestamp": 213832966164752,
      "time_usec": 213832966164
    },
    {
      "frame_id": 249,
      "sensor_timestamp": 213832999411089,
      "time_usec": 213832999411
    },
    {
      "frame_id": 250,
      "sensor_timestamp": 213833032657427,
      "time_usec": 213833032657
    },
    {
      "frame_id": 251,
      "sensor_timestamp": 213833065903765,
      "time_usec": 213833065903
    },
    {
      "frame_id": 252,
      "sensor_timestamp": 213833099150347,
      "time_usec": 213833099150
    },
    {
      "frame_id": 253,
      "sensor_timestamp": 213833132396685,
      "time_usec": 213833132396
    },
    {
      "frame_id": 254,
      "sensor_timestamp": 213833165643023,
      "time_usec": 213833165643
    },
    {
      "frame_id": 255,
      "sensor_timestamp": 213833198889361,
      "time_usec": 213833198889
    },
    {
      "frame_id": 256,
      "sensor_timestamp": 213833232135943,
      "time_usec": 213833232135
    },
    {
      "frame_id": 257,
      "sensor_timestamp": 213833265382281,
      "time_usec": 213833265382
    },
    {
      "frame_id": 258,
      "sensor_timestamp": 213833298628619,
      "time_usec": 213833298628
    },
    {
      "frame_id": 259,
      "sensor_timestamp": 213833331874957,
      "time_usec": 213833331874
    },
    {
      "frame_id": 260,
      "sensor_timestamp": 213833365121539,
      "time_usec": 213833365121
    },
    {
      "frame_id": 261,
      "sensor_timestamp": 213833398367877,
      "time_usec": 213833398367
    },
    {
      "frame_id": 262,
      "sensor_timestamp": 213833431614214,
      "time_usec": 213833431614
    },
    {
      "frame_id": 263,
      "sensor_timestamp": 213833464860552,
      "time_usec": 213833464860
    },
    {
      "frame_id": 264,
      "sensor_timestamp": 213833498107134,
      "time_usec": 213833498107
    },
    {
      "frame_id": 265,
      "sensor_timestamp": 213833531353472,
      "time_usec": 213833531353
    },
    {
      "frame_id": 266,
      "sensor_timestamp": 213833564599810,
      "time_usec": 213833564599
    },
    {
      "frame_id": 267,
      "sensor_timestamp": 213833597846148,
      "time_usec": 213833597846
    },
    {
      "frame_id": 268,
      "sensor_timestamp": 213833631092730,
      "time_usec": 213833631092
    },
    {
      "frame_id": 269,
      "sensor_timestamp": 213833664339068,
      "time_usec": 213833664339
    },
    {
      "frame_id": 270,
      "sensor_timestamp": 213833697585406,
      "time_usec": 213833697585
    },
    {
      "frame_id": 271,
      "sensor_timestamp": 213833730831744,
      "time_usec": 213833730831
    },
    {
      "frame_id": 272,
      "sensor_timestamp": 213833764078082,
      "time_usec": 213833764078
    },
    {
      "frame_id": 273,
      "sensor_timestamp": 213833797324664,
      "time_usec": 213833797324
    },
    {
      "frame_id": 274,
      "sensor_timestamp": 213833830571002,
      "time_usec": 213833830571
    },
    {
      "frame_id": 275,
      "sensor_timestamp": 213833863817339,
      "time_usec": 213833863817
    },
    {
      "frame_id": 276,
      "sensor_timestamp": 213833897063677,
      "time_usec": 213833897063
    },
    {
      "frame_id": 277,
      "sensor_timestamp": 213833930310259,
      "time_usec": 213833930310
    },
    {
      "frame_id": 278,
      "sensor_timestamp": 213833963556597,
      "time_usec": 213833963556
    },
    {
      "frame_id": 279,
      "sensor_timestamp": 213833996802935,
      "time_usec": 213833996802
    },
    {
      "frame_id": 280,
      "sensor_timestamp": 213834030049273,
      "time_usec": 213834030049
    },
    {
      "frame_id": 281,
      "sensor_timestamp": 213834063295855,
      "time_usec": 213834063295
    },
    {
      "frame_id": 282,
      "sensor_timestamp": 213834096542193,
      "time_usec": 213834096542
    },
    {
      "frame_id": 283,
      "sensor_timestamp": 213834129788531,
      "time_usec": 213834129788
    },
    {
      "frame_id": 284,
      "sensor_timestamp": 213834163034869,
      "time_usec": 213834163034
    },
    {
      "frame_id": 285,
      "sensor_timestamp": 213834196281451,
      "time_usec": 213834196281
    },
    {
      "frame_id": 286,
      "sensor_timestamp": 213834229527789,
      "time_usec": 213834229527
    },
    {
      "frame_id": 287,
      "sensor_timestamp": 213834262774127,
      "time_usec": 213834262774
    },
    {
      "frame_id": 288,
      "sensor_timestamp": 213834296020464,
      "time_usec": 213834296020
    },
    {
      "frame_id": 289,
      "sensor_timestamp": 213834329267046,
      "time_usec": 213834329267
    },
    {
      "frame_id": 290,
      "sensor_timestamp": 213834362513384,
      "time_usec": 213834362513
    },
    {
      "frame_id": 291,
      "sensor_timestamp": 213834395759722,
      "time_usec": 213834395759
    },
    {
      "frame_id": 292,
      "sensor_timestamp": 213834429006060,
      "time_usec": 213834429006
    },
    {
      "frame_id": 293,
      "sensor_timestamp": 213834462252642,
      "time_usec": 213834462252
    },
    {
      "frame_id": 294,
      "sensor_timestamp": 213834495498980,
      "time_usec": 213834495498
    },
    {
      "frame_id": 295,
      "sensor_timestamp": 213834528745318,
      "time_usec": 213834528745
    },
    {
      "frame_id": 296,
      "sensor_timestamp": 213834561991656,
      "time_usec": 213834561991
    },
    {
      "frame_id": 297,
      "sensor_timestamp": 213834595238238,
      "time_usec": 213834595238
    },
    {
      "frame_id": 298,
      "sensor_timestamp": 213834628484576,
      "time_usec": 213834628484
    },
    {
      "frame_id": 299,
      "sensor_timestamp": 213834661730914,
      "time_usec": 213834661730
    },
    {
      "frame_id": 300,
      "sensor_timestamp": 213834694977252,
      "time_usec": 213834694977
    },
    {
      "frame_id": 301,
      "sensor_timestamp": 213834728223834,
      "time_usec": 213834728223
    },
    {
      "frame_id": 302,
      "sensor_timestamp": 213834761470171,
      "time_usec": 213834761470
    },
    {
      "frame_id": 303,
      "sensor_timestamp": 213834794716509,
      "time_usec": 213834794716
    },
    {
      "frame_id": 304,
      "sensor_timestamp": 213834827962847,
      "time_usec": 213834827962
    },
    {
      "frame_id": 305,
      "sensor_timestamp": 213834861209429,
      "time_usec": 213834861209
    },
    {
      "frame_id": 306,
      "sensor_timestamp": 213834894455767,
      "time_usec": 213834894455
    },
    {
      "frame_id": 307,
      "sensor_timestamp": 213834927702105,
      "time_usec": 213834927702
    },
    {
      "frame_id": 308,
      "sensor_timestamp": 213834960948443,
      "time_usec": 213834960948
    },
    {
      "frame_id": 309,
      "sensor_timestamp": 213834994194781,
      "time_usec": 213834994194
    },
    {
      "frame_id": 310,
      "sensor_timestamp": 213835027441363,
      "time_usec": 213835027441
    },
    {
      "frame_id": 311,
      "sensor_timestamp": 213835060687701,
      "time_usec": 213835060687
    },
    {
      "frame_id": 312,
      "sensor_timestamp": 213835093934039,
      "time_usec": 213835093934
    },
    {
      "frame_id": 313,
      "sensor_timestamp": 213835127180377,
      "time_usec": 213835127180
    },
    {
      "frame_id": 314,
      "sensor_timestamp": 213835160426959,
      "time_usec": 213835160426
    },
    {
      "frame_id": 315,
      "sensor_timestamp": 213835193673296,
      "time_usec": 213835193673
    },
    {
      "frame_id": 316,
      "sensor_timestamp": 213835226919634,
      "time_usec": 213835226919
    },
    {
      "frame_id": 317,
      "sensor_timestamp": 213835260165972,
      "time_usec": 213835260165
    },
    {
      "frame_id": 318,
      "sensor_timestamp": 213835293412554,
      "time_usec": 213835293412
    },
    {
      "frame_id": 319,
      "sensor_timestamp": 213835326658892,
      "time_usec": 213835326658
    },
    {
      "frame_id": 320,
      "sensor_timestamp": 213835359905230,
      "time_usec": 213835359905
    },
    {
      "frame_id": 321,
      "sensor_timestamp": 213835393151568,
      "time_usec": 213835393151
    },
    {
      "frame_id": 322,
      "sensor_timestamp": 213835426398150,
      "time_usec": 213835426398
    },
    {
      "frame_id": 323,
      "sensor_timestamp": 213835459644488,
      "time_usec": 213835459644
    },
    {
      "frame_id": 324,
      "sensor_timestamp": 213835492890826,
      "time_usec": 213835492890
    },
    {
      "frame_id": 325,
      "sensor_timestamp": 213835526137164,
      "time_usec": 213835526137
    },
    {
      "frame_id": 326,
      "sensor_timestamp": 213835559383746,
      "time_usec": 213835559383
    },
    {
      "frame_id": 327,
      "sensor_timestamp": 213835592630084,
      "time_usec": 213835592630
    },
    {
      "frame_id": 328,
      "sensor_timestamp": 213835625876421,
      "time_usec": 213835625876
    },
    {
      "frame_id": 329,
      "sensor_timestamp": 213835659122759,
      "time_usec": 213835659122
    },
    {
      "frame_id": 330,
      "sensor_timestamp": 213835692369341,
      "time_usec": 213835692369
    },
    {
      "frame_id": 331,
      "sensor_timestamp": 213835725615679,
      "time_usec": 213835725615
    },
    {
      "frame_id": 332,
      "sensor_timestamp": 213835758862017,
      "time_usec": 213835758862
    },
    {
      "frame_id": 333,
      "sensor_timestamp": 213835792108355,
      "time_usec": 213835792108
    },
    {
      "frame_id": 334,
      "sensor_timestamp": 213835825354937,
      "time_usec": 213835825354
    },
    {
      "frame_id": 335,
      "sensor_timestamp": 213835858601275,
      "time_usec": 213835858601
    },
    {
      "frame_id": 336,
      "sensor_timestamp": 213835891847613,
      "time_usec": 213835891847
    },
    {
      "frame_id": 337,
      "sensor_timestamp": 213835925093951,
      "time_usec": 213835925093
    },
    {
      "frame_id": 338,
      "sensor_timestamp": 213835958340533,
      "time_usec": 213835958340
    },
    {
      "frame_id": 339,
      "sensor_timestamp": 213835991586871,
      "time_usec": 213835991586
    },
    {
      "frame_id": 340,
      "sensor_timestamp": 213836024833209,
      "time_usec": 213836024833
    },
    {
      "frame_id": 341,
      "sensor_timestamp": 213836058079546,
      "time_usec": 213836058079
    },
    {
      "frame_id": 342,
      "sensor_timestamp": 213836091326129,
      "time_usec": 213836091326
    },
    {
      "frame_id": 343,
      "sensor_timestamp": 213836124572466,
      "time_usec": 213836124572
    },
    {
      "frame_id": 344,
      "sensor_timestamp": 213836157818804,
      "time_usec": 213836157818
    },
    {
      "frame_id": 345,
      "sensor_timestamp": 213836191065142,
      "time_usec": 213836191065
    },
    {
      "frame_id": 346,
      "sensor_timestamp": 213836224311480,
      "time_usec": 213836224311
    },
    {
      "frame_id": 347,
      "sensor_timestamp": 213836257558062,
      "time_usec": 213836257558
    },
    {
      "frame_id": 348,
      "sensor_timestamp": 213836290804400,
      "time_usec": 213836290804
    },
    {
      "frame_id": 349,
      "sensor_timestamp": 213836324050738,
      "time_usec": 213836324050
    },
    {
      "frame_id": 350,
      "sensor_timestamp": 213836357297076,
      "time_usec": 213836357297
    },
    {
      "frame_id": 351,
      "sensor_timestamp": 213836390543658,
      "time_usec": 213836390543
    },
    {
      "frame_id": 352,
      "sensor_timestamp": 213836423789996,
      "time_usec": 213836423789
    },
    {
      "frame_id": 353,
      "sensor_timestamp": 213836457036334,
      "time_usec": 213836457036
    },
    {
      "frame_id": 354,
      "sensor_timestamp": 213836490282671,
      "time_usec": 213836490282
    },
    {
      "frame_id": 355,
      "sensor_timestamp": 213836523529254,
      "time_usec": 213836523529
    },
    {
      "frame_id": 356,
      "sensor_timestamp": 213836556775591,
      "time_usec": 213836556775
    },
    {
      "frame_id": 357,
      "sensor_timestamp": 213836590021929,
      "time_usec": 213836590021
    },
    {
      "frame_id": 358,
      "sensor_timestamp": 213836623268267,
      "time_usec": 213836623268
    },
    {
      "frame_id": 359,
      "sensor_timestamp": 213836656514849,
      "time_usec": 213836656514
    },
    {
      "frame_id": 360,
      "sensor_timestamp": 213836689761187,
      "time_usec": 213836689761
    },
    {
      "frame_id": 361,
      "sensor_timestamp": 213836723007525,
      "time_usec": 213836723007
    },
    {
      "frame_id": 362,
      "sensor_timestamp": 213836756253863,
      "time_usec": 213836756253
    },
    {
      "frame_id": 363,
      "sensor_timestamp": 213836789500445,
      "time_usec": 213836789500
    },
    {
      "frame_id": 364,
      "sensor_timestamp": 213836822746783,
      "time_usec": 213836822746
    },
    {
      "frame_id": 365,
      "sensor_timestamp": 213836855993121,
      "time_usec": 213836855993
    },
    {
      "frame_id": 366,
      "sensor_timestamp": 213836889239459,
      "time_usec": 213836889239
    },
    {
      "frame_id": 367,
      "sensor_timestamp": 213836922486041,
      "time_usec": 213836922486
    },
    {
      "frame_id": 368,
      "sensor_timestamp": 213836955732379,
      "time_usec": 213836955732
    },
    {
      "frame_id": 369,
      "sensor_timestamp": 213836988978716,
      "time_usec": 213836988978
    },
    {
      "frame_id": 370,
      "sensor_timestamp": 213837022225054,
      "time_usec": 213837022225
    },
    {
      "frame_id": 371,
      "sensor_timestamp": 213837055471636,
      "time_usec": 213837055471
    },
    {
      "frame_id": 372,
      "sensor_timestamp": 213837088717974,
      "time_usec": 213837088717
    },
    {
      "frame_id": 373,
      "sensor_timestamp": 213837121964312,
      "time_usec": 213837121964
    },
    {
      "frame_id": 374,
      "sensor_timestamp": 213837155210650,
      "time_usec": 213837155210
    },
    {
      "frame_id": 375,
      "sensor_timestamp": 213837188457232,
      "time_usec": 213837188457
    },
    {
      "frame_id": 376,
      "sensor_timestamp": 213837221703570,
      "time_usec": 213837221703
    },
    {
      "frame_id": 377,
      "sensor_timestamp": 213837254949908,
      "time_usec": 213837254949
    },
    {
      "frame_id": 378,
      "sensor_timestamp": 213837288196246,
      "time_usec": 213837288196
    },
    {
      "frame_id": 379,
      "sensor_timestamp": 213837321442828,
      "time_usec": 213837321442
    },
    {
      "frame_id": 380,
      "sensor_timestamp": 213837354689166,
      "time_usec": 213837354689
    },
    {
      "frame_id": 381,
      "sensor_timestamp": 213837387935504,
      "time_usec": 213837387935
    },
    {
      "frame_id": 382,
      "sensor_timestamp": 213837421181841,
      "time_usec": 213837421181
    },
    {
      "frame_id": 383,
      "sensor_timestamp": 213837454428179,
      "time_usec": 213837454428
    },
    {
      "frame_id": 384,
      "sensor_timestamp": 213837487674761,
      "time_usec": 213837487674
    },
    {
      "frame_id": 385,
      "sensor_timestamp": 213837520921099,
      "time_usec": 213837520921
    },
    {
      "frame_id": 386,
      "sensor_timestamp": 213837554167437,
      "time_usec": 213837554167
    },
    {
      "frame_id": 387,
      "sensor_timestamp": 213837587413775,
      "time_usec": 213837587413
    },
    {
      "frame_id": 388,
      "sensor_timestamp": 213837620660357,
      "time_usec": 213837620660
    },
    {
      "frame_id": 389,
      "sensor_timestamp": 213837653906695,
      "time_usec": 213837653906
    },
    {
      "frame_id": 390,
      "sensor_timestamp": 213837687153033,
      "time_usec": 213837687153
    },
    {
      "frame_id": 391,
      "sensor_timestamp": 213837720399371,
      "time_usec": 213837720399
    },
    {
      "frame_id": 392,
      "sensor_timestamp": 213837753645953,
      "time_usec": 213837753645
    },
    {
      "frame_id": 393,
      "sensor_timestamp": 213837786892291,
      "time_usec": 213837786892
    },
    {
      "frame_id": 394,
      "sensor_timestamp": 213837820138629,
      "time_usec": 213837820138
    },
    {
      "frame_id": 395,
      "sensor_timestamp": 213837853384966,
      "time_usec": 213837853384
    },
    {
      "frame_id": 396,
      "sensor_timestamp": 213837886631548,
      "time_usec": 213837886631
    },
    {
      "frame_id": 397,
      "sensor_timestamp": 213837919877886,
      "time_usec": 213837919877
    },
    {
      "frame_id": 398,
      "sensor_timestamp": 213837953124224,
      "time_usec": 213837953124
    },
    {
      "frame_id": 399,
      "sensor_timestamp": 213837986370562,
      "time_usec": 213837986370
    },
    {
      "frame_id": 400,
      "sensor_timestamp": 213838019617144,
      "time_usec": 213838019617
    },
    {
      "frame_id": 401,
      "sensor_timestamp": 213838052863482,
      "time_usec": 213838052863
    },
    {
      "frame_id": 402,
      "sensor_timestamp": 213838086109820,
      "time_usec": 213838086109
    },
    {
      "frame_id": 403,
      "sensor_timestamp": 213838119356158,
      "time_usec": 213838119356
    },
    {
      "frame_id": 404,
      "sensor_timestamp": 213838152602740,
      "time_usec": 213838152602
    },
    {
      "frame_id": 405,
      "sensor_timestamp": 213838185849078,
      "time_usec": 213838185849
    },
    {
      "frame_id": 406,
      "sensor_timestamp": 213838219095416,
      "time_usec": 213838219095
    },
    {
      "frame_id": 407,
      "sensor_timestamp": 213838252341754,
      "time_usec": 213838252341
    },
    {
      "frame_id": 408,
      "sensor_timestamp": 213838285588336,
      "time_usec": 213838285588
    },
    {
      "frame_id": 409,
      "sensor_timestamp": 213838318834673,
      "time_usec": 213838318834
    },
    {
      "frame_id": 410,
      "sensor_timestamp": 213838352081011,
      "time_usec": 213838352081
    },
    {
      "frame_id": 411,
      "sensor_timestamp": 213838385327349,
      "time_usec": 213838385327
    },
    {
      "frame_id": 412,
      "sensor_timestamp": 213838418573931,
      "time_usec": 213838418573
    },
    {
      "frame_id": 413,
      "sensor_timestamp": 213838451820269,
      "time_usec": 213838451820
    },
    {
      "frame_id": 414,
      "sensor_timestamp": 213838485066607,
      "time_usec": 213838485066
    },
    {
      "frame_id": 415,
      "sensor_timestamp": 213838518312945,
      "time_usec": 213838518312
    },
    {
      "frame_id": 416,
      "sensor_timestamp": 213838551559283,
      "time_usec": 213838551559
    },
    {
      "frame_id": 417,
      "sensor_timestamp": 213838584805865,
      "time_usec": 213838584805
    },
    {
      "frame_id": 418,
      "sensor_timestamp": 213838618052203,
      "time_usec": 213838618052
    },
    {
      "frame_id": 419,
      "sensor_timestamp": 213838651298541,
      "time_usec": 213838651298
    },
    {
      "frame_id": 420,
      "sensor_timestamp": 213838684544879,
      "time_usec": 213838684544
    },
    {
      "frame_id": 421,
      "sensor_timestamp": 213838717791461,
      "time_usec": 213838717791
    },
    {
      "frame_id": 422,
      "sensor_timestamp": 213838751037798,
      "time_usec": 213838751037
    },
    {
      "frame_id": 423,
      "sensor_timestamp": 213838784284136,
      "time_usec": 213838784284
    },
    {
      "frame_id": 424,
      "sensor_timestamp": 213838817530474,
      "time_usec": 213838817530
    },
    {
      "frame_id": 425,
      "sensor_timestamp": 213838850777056,
      "time_usec": 213838850777
    },
    {
      "frame_id": 426,
      "sensor_timestamp": 213838884023394,
      "time_usec": 213838884023
    },
    {
      "frame_id": 427,
      "sensor_timestamp": 213838917269732,
      "time_usec": 213838917269
    },
    {
      "frame_id": 428,
      "sensor_timestamp": 213838950516070,
      "time_usec": 213838950516
    },
    {
      "frame_id": 429,
      "sensor_timestamp": 213838983762652,
      "time_usec": 213838983762
    },
    {
      "frame_id": 430,
      "sensor_timestamp": 213839017008990,
      "time_usec": 213839017008
    },
    {
      "frame_id": 431,
      "sensor_timestamp": 213839050255328,
      "time_usec": 213839050255
    },
    {
      "frame_id": 432,
      "sensor_timestamp": 213839083501666,
      "time_usec": 213839083501
    },
    {
      "frame_id": 433,
      "sensor_timestamp": 213839116748248,
      "time_usec": 213839116748
    },
    {
      "frame_id": 434,
      "sensor_timestamp": 213839149994586,
      "time_usec": 213839149994
    },
    {
      "frame_id": 435,
      "sensor_timestamp": 213839183240923,
      "time_usec": 213839183240
    },
    {
      "frame_id": 436,
      "sensor_timestamp": 213839216487261,
      "time_usec": 213839216487
    },
    {
      "frame_id": 437,
      "sensor_timestamp": 213839249733843,
      "time_usec": 213839249733
    },
    {
      "frame_id": 438,
      "sensor_timestamp": 213839282980181,
      "time_usec": 213839282980
    },
    {
      "frame_id": 439,
      "sensor_timestamp": 213839316226519,
      "time_usec": 213839316226
    },
    {
      "frame_id": 440,
      "sensor_timestamp": 213839349472857,
      "time_usec": 213839349472
    },
    {
      "frame_id": 441,
      "sensor_timestamp": 213839382719439,
      "time_usec": 213839382719
    },
    {
      "frame_id": 442,
      "sensor_timestamp": 213839415965777,
      "time_usec": 213839415965
    },
    {
      "frame_id": 443,
      "sensor_timestamp": 213839449212115,
      "time_usec": 213839449212
    },
    {
      "frame_id": 444,
      "sensor_timestamp": 213839482458453,
      "time_usec": 213839482458
    },
    {
      "frame_id": 445,
      "sensor_timestamp": 213839515705035,
      "time_usec": 213839515705
    },
    {
      "frame_id": 446,
      "sensor_timestamp": 213839548951373,
      "time_usec": 213839548951
    },
    {
      "frame_id": 447,
      "sensor_timestamp": 213839582197711,
      "time_usec": 213839582197
    },
    {
      "frame_id": 448,
      "sensor_timestamp": 213839615444048,
      "time_usec": 213839615444
    },
    {
      "frame_id": 449,
      "sensor_timestamp": 213839648690630,
      "time_usec": 213839648690
    },
    {
      "frame_id": 450,
      "sensor_timestamp": 213839681936968,
      "time_usec": 213839681936
    },
    {
      "frame_id": 451,
      "sensor_timestamp": 213839715183306,
      "time_usec": 213839715183
    },
    {
      "frame_id": 452,
      "sensor_timestamp": 213839748429644,
      "time_usec": 213839748429
    },
    {
      "frame_id": 453,
      "sensor_timestamp": 213839781675982,
      "time_usec": 213839781675
    },
    {
      "frame_id": 454,
      "sensor_timestamp": 213839814922564,
      "time_usec": 213839814922
    },
    {
      "frame_id": 455,
      "sensor_timestamp": 213839848168902,
      "time_usec": 213839848168
    },
    {
      "frame_id": 456,
      "sensor_timestamp": 213839881415240,
      "time_usec": 213839881415
    },
    {
      "frame_id": 457,
      "sensor_timestamp": 213839914661578,
      "time_usec": 213839914661
    },
    {
      "frame_id": 458,
      "sensor_timestamp": 213839947908160,
      "time_usec": 213839947908
    },
    {
      "frame_id": 459,
      "sensor_timestamp": 213839981154498,
      "time_usec": 213839981154
    },
    {
      "frame_id": 460,
      "sensor_timestamp": 213840014400836,
      "time_usec": 213840014400
    },
    {
      "frame_id": 461,
      "sensor_timestamp": 213840047647173,
      "time_usec": 213840047647
    },
    {
      "frame_id": 462,
      "sensor_timestamp": 213840080893755,
      "time_usec": 213840080893
    },
    {
      "frame_id": 463,
      "sensor_timestamp": 213840114140093,
      "time_usec": 213840114140
    },
    {
      "frame_id": 464,
      "sensor_timestamp": 213840147386431,
      "time_usec": 213840147386
    },
    {
      "frame_id": 465,
      "sensor_timestamp": 213840180632769,
      "time_usec": 213840180632
    },
    {
      "frame_id": 466,
      "sensor_timestamp": 213840213879351,
      "time_usec": 213840213879
    },
    {
      "frame_id": 467,
      "sensor_timestamp": 213840247125689,
      "time_usec": 213840247125
    },
    {
      "frame_id": 468,
      "sensor_timestamp": 213840280372027,
      "time_usec": 213840280372
    },
    {
      "frame_id": 469,
      "sensor_timestamp": 213840313618365,
      "time_usec": 213840313618
    },
    {
      "frame_id": 470,
      "sensor_timestamp": 213840346864947,
      "time_usec": 213840346864
    },
    {
      "frame_id": 471,
      "sensor_timestamp": 213840380111285,
      "time_usec": 213840380111
    },
    {
      "frame_id": 472,
      "sensor_timestamp": 213840413357623,
      "time_usec": 213840413357
    },
    {
      "frame_id": 473,
      "sensor_timestamp": 213840446603961,
      "time_usec": 213840446603
    },
    {
      "frame_id": 474,
      "sensor_timestamp": 213840479850543,
      "time_usec": 213840479850
    },
    {
      "frame_id": 475,
      "sensor_timestamp": 213840513096880,
      "time_usec": 213840513096
    },
    {
      "frame_id": 476,
      "sensor_timestamp": 213840546343218,
      "time_usec": 213840546343
    },
    {
      "frame_id": 477,
      "sensor_timestamp": 213840579589556,
      "time_usec": 213840579589
    },
    {
      "frame_id": 478,
      "sensor_timestamp": 213840612836138,
      "time_usec": 213840612836
    },
    {
      "frame_id": 479,
      "sensor_timestamp": 213840646082476,
      "time_usec": 213840646082
    },
    {
      "frame_id": 480,
      "sensor_timestamp": 213840679328814,
      "time_usec": 213840679328
    },
    {
      "frame_id": 481,
      "sensor_timestamp": 213840712575152,
      "time_usec": 213840712575
    },
    {
      "frame_id": 482,
      "sensor_timestamp": 213840745821734,
      "time_usec": 213840745821
    },
    {
      "frame_id": 483,
      "sensor_timestamp": 213840779068072,
      "time_usec": 213840779068
    },
    {
      "frame_id": 484,
      "sensor_timestamp": 213840812314410,
      "time_usec": 213840812314
    },
    {
      "frame_id": 485,
      "sensor_timestamp": 213840845560748,
      "time_usec": 213840845560
    },
    {
      "frame_id": 486,
      "sensor_timestamp": 213840878807330,
      "time_usec": 213840878807
    },
    {
      "frame_id": 487,
      "sensor_timestamp": 213840912053668,
      "time_usec": 213840912053
    },
    {
      "frame_id": 488,
      "sensor_timestamp": 213840945300005,
      "time_usec": 213840945300
    },
    {
      "frame_id": 489,
      "sensor_timestamp": 213840978546343,
      "time_usec": 213840978546
    },
    {
      "frame_id": 490,
      "sensor_timestamp": 213841011792681,
      "time_usec": 213841011792
    },
    {
      "frame_id": 491,
      "sensor_timestamp": 213841045039263,
      "time_usec": 213841045039
    },
    {
      "frame_id": 492,
      "sensor_timestamp": 213841078285601,
      "time_usec": 213841078285
    },
    {
      "frame_id": 493,
      "sensor_timestamp": 213841111531939,
      "time_usec": 213841111531
    },
    {
      "frame_id": 494,
      "sensor_timestamp": 213841144778277,
      "time_usec": 213841144778
    },
    {
      "frame_id": 495,
      "sensor_timestamp": 213841178024859,
      "time_usec": 213841178024
    },
    {
      "frame_id": 496,
      "sensor_timestamp": 213841211271197,
      "time_usec": 213841211271
    },
    {
      "frame_id": 497,
      "sensor_timestamp": 213841244517535,
      "time_usec": 213841244517
    },
    {
      "frame_id": 498,
      "sensor_timestamp": 213841277763873,
      "time_usec": 213841277763
    },
    {
      "frame_id": 499,
      "sensor_timestamp": 213841311010455,
      "time_usec": 213841311010
    },
    {
      "frame_id": 500,
      "sensor_timestamp": 213841344256793,
      "time_usec": 213841344256
    },
    {
      "frame_id": 501,
      "sensor_timestamp": 213841377503130,
      "time_usec": 213841377503
    },
    {
      "frame_id": 502,
      "sensor_timestamp": 213841410749468,
      "time_usec": 213841410749
    },
    {
      "frame_id": 503,
      "sensor_timestamp": 213841443996050,
      "time_usec": 213841443996
    },
    {
      "frame_id": 504,
      "sensor_timestamp": 213841477242388,
      "time_usec": 213841477242
    },
    {
      "frame_id": 505,
      "sensor_timestamp": 213841510488726,
      "time_usec": 213841510488
    },
    {
      "frame_id": 506,
      "sensor_timestamp": 213841543735064,
      "time_usec": 213841543735
    },
    {
      "frame_id": 507,
      "sensor_timestamp": 213841576981646,
      "time_usec": 213841576981
    },
    {
      "frame_id": 508,
      "sensor_timestamp": 213841610227984,
      "time_usec": 213841610227
    },
    {
      "frame_id": 509,
      "sensor_timestamp": 213841643474322,
      "time_usec": 213841643474
    },
    {
      "frame_id": 510,
      "sensor_timestamp": 213841676720660,
      "time_usec": 213841676720
    },
    {
      "frame_id": 511,
      "sensor_timestamp": 213841709967242,
      "time_usec": 213841709967
    },
    {
      "frame_id": 512,
      "sensor_timestamp": 213841743213580,
      "time_usec": 213841743213
    },
    {
      "frame_id": 513,
      "sensor_timestamp": 213841776459918,
      "time_usec": 213841776459
    },
    {
      "frame_id": 514,
      "sensor_timestamp": 213841809706255,
      "time_usec": 213841809706
    },
    {
      "frame_id": 515,
      "sensor_timestamp": 213841842952837,
      "time_usec": 213841842952
    },
    {
      "frame_id": 516,
      "sensor_timestamp": 213841876199175,
      "time_usec": 213841876199
    },
    {
      "frame_id": 517,
      "sensor_timestamp": 213841909445513,
      "time_usec": 213841909445
    },
    {
      "frame_id": 518,
      "sensor_timestamp": 213841942691851,
      "time_usec": 213841942691
    },
    {
      "frame_id": 519,
      "sensor_timestamp": 213841975938433,
      "time_usec": 213841975938
    },
    {
      "frame_id": 520,
      "sensor_timestamp": 213842009184771,
      "time_usec": 213842009184
    },
    {
      "frame_id": 521,
      "sensor_timestamp": 213842042431109,
      "time_usec": 213842042431
    },
    {
      "frame_id": 522,
      "sensor_timestamp": 213842075677447,
      "time_usec": 213842075677
    },
    {
      "frame_id": 523,
      "sensor_timestamp": 213842108924029,
      "time_usec": 213842108924
    },
    {
      "frame_id": 524,
      "sensor_timestamp": 213842142170367,
      "time_usec": 213842142170
    },
    {
      "frame_id": 525,
      "sensor_timestamp": 213842175416705,
      "time_usec": 213842175416
    },
    {
      "frame_id": 526,
      "sensor_timestamp": 213842208663043,
      "time_usec": 213842208663
    },
    {
      "frame_id": 527,
      "sensor_timestamp": 213842241909380,
      "time_usec": 213842241909
    },
    {
      "frame_id": 528,
      "sensor_timestamp": 213842275155962,
      "time_usec": 213842275155
    },
    {
      "frame_id": 529,
      "sensor_timestamp": 213842308402300,
      "time_usec": 213842308402
    },
    {
      "frame_id": 530,
      "sensor_timestamp": 213842341648638,
      "time_usec": 213842341648
    },
    {
      "frame_id": 531,
      "sensor_timestamp": 213842374894976,
      "time_usec": 213842374894
    },
    {
      "frame_id": 532,
      "sensor_timestamp": 213842408141558,
      "time_usec": 213842408141
    },
    {
      "frame_id": 533,
      "sensor_timestamp": 213842441387896,
      "time_usec": 213842441387
    },
    {
      "frame_id": 534,
      "sensor_timestamp": 213842474634234,
      "time_usec": 213842474634
    },
    {
      "frame_id": 535,
      "sensor_timestamp": 213842507880572,
      "time_usec": 213842507880
    },
    {
      "frame_id": 536,
      "sensor_timestamp": 213842541127154,
      "time_usec": 213842541127
    },
    {
      "frame_id": 537,
      "sensor_timestamp": 213842574373492,
      "time_usec": 213842574373
    },
    {
      "frame_id": 538,
      "sensor_timestamp": 213842607619830,
      "time_usec": 213842607619
    },
    {
      "frame_id": 539,
      "sensor_timestamp": 213842640866168,
      "time_usec": 213842640866
    },
    {
      "frame_id": 540,
      "sensor_timestamp": 213842674112750,
      "time_usec": 213842674112
    },
    {
      "frame_id": 541,
