{
  "rotations": [
    {
      "x": -0.05054909735918045,
      "y": -0.006261368747800589,
      "z": -0.012217304669320583,
      "time_usec": 213824146187
    },
    {
      "x": -0.056810468435287476,
      "y": -0.012217304669320583,
      "z": -0.00855211354792118,
      "time_usec": 213824148444
    },
    {
      "x": -0.0679587572813034,
      "y": -0.016951510682702065,
      "z": -0.01237002108246088,
      "time_usec": 213824150702
    },
    {
      "x": -0.07910704612731934,
      "y": -0.018020525574684143,
      "z": -0.012522737495601177,
      "time_usec": 213824152959
    },
    {
      "x": -0.08903361111879349,
      "y": -0.02626720629632473,
      "z": -0.012522737495601177,
      "time_usec": 213824155216
    },
    {
      "x": -0.09407325088977814,
      "y": -0.03451388701796532,
      "z": -0.011301007121801376,
      "time_usec": 213824157474
    },
    {
      "x": -0.10155634582042694,
      "y": -0.038026362657547,
      "z": -0.012675453908741474,
      "time_usec": 213824159732
    },
    {
      "x": -0.10644327104091644,
      "y": -0.045204028487205505,
      "z": -0.010231993161141872,
      "time_usec": 213824161989
    },
    {
      "x": -0.10659598559141159,
      "y": -0.04886921867728233,
      "z": -0.011453723534941673,
      "time_usec": 213824164247
    },
    {
      "x": -0.11148291081190109,
      "y": -0.04993823543190956,
      "z": -0.012675453908741474,
      "time_usec": 213824166504
    },
    {
      "x": -0.11148291081190109,
      "y": -0.045204028487205505,
      "z": -0.013897184282541275,
      "time_usec": 213824168761
    },
    {
      "x": -0.11514809727668762,
      "y": -0.042760565876960754,
      "z": -0.013897184282541275,
      "time_usec": 213824171018
    },
    {
      "x": -0.11514809727668762,
      "y": -0.03787364438176155,
      "z": -0.015118914656341076,
      "time_usec": 213824173273
    },
    {
      "x": -0.1137736514210701,
      "y": -0.03680463135242462,
      "z": -0.015118914656341076,
      "time_usec": 213824175535
    },
    {
      "x": -0.1137736514210701,
      "y": -0.035582900047302246,
      "z": -0.017562376335263252,
      "time_usec": 213824177793
    },
    {
      "x": -0.11255192011594772,
      "y": -0.035582900047302246,
      "z": -0.017562376335263252,
      "time_usec": 213824180051
    },
    {
      "x": -0.1137736514210701,
      "y": -0.039248090237379074,
      "z": -0.020005837082862854,
      "time_usec": 213824182307
    },
    {
      "x": -0.11881329119205475,
      "y": -0.04153883829712868,
      "z": -0.025045474991202354,
      "time_usec": 213824184563
    },
    {
      "x": -0.11392636597156525,
      "y": -0.04886921867728233,
      "z": -0.027488935738801956,
      "time_usec": 213824186821
    },
    {
      "x": -0.11270463466644287,
      "y": -0.05009094998240471,
      "z": -0.029932396486401558,
      "time_usec": 213824189079
    },
    {
      "x": -0.11026117950677872,
      "y": -0.05742133408784866,
      "z": -0.03726277872920036,
      "time_usec": 213824191337
    },
    {
      "x": -0.10903944820165634,
      "y": -0.06948592513799667,
      "z": -0.04092797264456749,
      "time_usec": 213824193595
    },
    {
      "x": -0.10415252298116684,
      "y": -0.07681630551815033,
      "z": -0.04581489413976669,
      "time_usec": 213824195854
    },
    {
      "x": -0.09926560521125793,
      "y": -0.07925976812839508,
      "z": -0.0507018156349659,
      "time_usec": 213824198112
    },
    {
      "x": -0.09315694868564606,
      "y": -0.08903361111879349,
      "z": -0.048258353024721146,
      "time_usec": 213824200367
    },
    {
      "x": -0.08933904021978378,
      "y": -0.09269879758358002,
      "z": -0.054367005825042725,
      "time_usec": 213824202625
    },
    {
      "x": -0.08689557760953903,
      "y": -0.09636399149894714,
      "z": -0.05314527451992035,
      "time_usec": 213824204882
    },
    {
      "x": -0.07956519722938538,
      "y": -0.0988074541091919,
      "z": -0.054367005825042725,
      "time_usec": 213824207140
    },
    {
      "x": -0.07590000331401825,
      "y": -0.0988074541091919,
      "z": -0.0555887371301651,
      "time_usec": 213824209395
    },
    {
      "x": -0.06841690838336945,
      "y": -0.09529497474431992,
      "z": -0.05543602257966995,
      "time_usec": 213824211645
    },
    {
      "x": -0.0633772686123848,
      "y": -0.09056077152490616,
      "z": -0.051770828664302826,
      "time_usec": 213824213913
    },
    {
      "x": -0.05726861581206322,
      "y": -0.08338310569524765,
      "z": -0.04917465150356293,
      "time_usec": 213824216170
    },
    {
      "x": -0.055894169956445694,
      "y": -0.07742717117071152,
      "z": -0.04795292019844055,
      "time_usec": 213824218430
    },
    {
      "x": -0.05467243865132332,
      "y": -0.07147123664617538,
      "z": -0.04306599870324135,
      "time_usec": 213824220687
    },
    {
      "x": -0.04841107130050659,
      "y": -0.06185010448098183,
      "z": -0.03940080851316452,
      "time_usec": 213824222941
    },
    {
      "x": -0.04337143152952194,
      "y": -0.04749477282166481,
      "z": -0.03436116874217987,
      "time_usec": 213824225194
    },
    {
      "x": -0.04092797264456749,
      "y": -0.04382958263158798,
      "z": -0.030695978552103043,
      "time_usec": 213824227456
    },
    {
      "x": -0.03955352306365967,
      "y": -0.03420845419168472,
      "z": -0.02825251780450344,
      "time_usec": 213824229715
    },
    {
      "x": -0.04077525436878204,
      "y": -0.023365596309304237,
      "z": -0.018325956538319588,
      "time_usec": 213824231975
    },
    {
      "x": -0.03329215571284294,
      "y": -0.01863138936460018,
      "z": -0.01466076634824276,
      "time_usec": 213824234232
    },
    {
      "x": -0.03573561832308769,
      "y": -0.007635815534740686,
      "z": -0.004734205547720194,
      "time_usec": 213824236496
    },
    {
      "x": -0.032070424407720566,
      "y": -0.001679879380390048,
      "z": 1.5271631127689034E-4,
      "time_usec": 213824238744
    },
    {
      "x": -0.029474247246980667,
      "y": 0.01038470957428217,
      "z": 0.005039638374000788,
      "time_usec": 213824241001
    },
    {
      "x": -0.02580905705690384,
      "y": 0.015271631069481373,
      "z": 0.012522737495601177,
      "time_usec": 213824243253
    },
    {
      "x": -0.02076941914856434,
      "y": 0.01878410577774048,
      "z": 0.01618792861700058,
      "time_usec": 213824245512
    },
    {
      "x": -0.015882495790719986,
      "y": 0.02474004216492176,
      "z": 0.019853120669722557,
      "time_usec": 213824247775
    },
    {
      "x": -0.013286318629980087,
      "y": 0.029626963660120964,
      "z": 0.024892758578062057,
      "time_usec": 213824250034
    },
    {
      "x": -0.009621127508580685,
      "y": 0.035582900047302246,
      "z": 0.02977968007326126,
      "time_usec": 213824252290
    },
    {
      "x": -0.010842857882380486,
      "y": 0.038026362657547,
      "z": 0.03344487398862839,
      "time_usec": 213824254542
    },
    {
      "x": -0.008399397134780884,
      "y": 0.039248090237379074,
      "z": 0.03833179548382759,
      "time_usec": 213824256805
    },
    {
      "x": -0.003359758760780096,
      "y": 0.045204028487205505,
      "z": 0.039706241339445114,
      "time_usec": 213824259062
    },
    {
      "x": -0.003359758760780096,
      "y": 0.04886921867728233,
      "z": 0.04214970022439957,
      "time_usec": 213824261320
    },
    {
      "x": -9.162978967651725E-4,
      "y": 0.048716504126787186,
      "z": 0.04459316283464432,
      "time_usec": 213824263572
    },
    {
      "x": -9.162978967651725E-4,
      "y": 0.05115996301174164,
      "z": 0.04948008432984352,
      "time_usec": 213824265835
    },
    {
      "x": -9.162978967651725E-4,
      "y": 0.05009094998240471,
      "z": 0.04948008432984352,
      "time_usec": 213824268093
    },
    {
      "x": 0.0029016099870204926,
      "y": 0.05115996301174164,
      "z": 0.04948008432984352,
      "time_usec": 213824270350
    },
    {
      "x": 0.0027488935738801956,
      "y": 0.04993823543190956,
      "z": 0.05314527451992035,
      "time_usec": 213824272602
    },
    {
      "x": 0.0029016099870204926,
      "y": 0.05115996301174164,
      "z": 0.04948008432984352,
      "time_usec": 213824274865
    },
    {
      "x": 0.0029016099870204926,
      "y": 0.05604688450694084,
      "z": 0.04948008432984352,
      "time_usec": 213824277123
    },
    {
      "x": 0.005345070734620094,
      "y": 0.054825156927108765,
      "z": 0.048258353024721146,
      "time_usec": 213824279382
    },
    {
      "x": 0.005345070734620094,
      "y": 0.052381694316864014,
      "z": 0.04581489413976669,
      "time_usec": 213824281636
    },
    {
      "x": 0.007788531947880983,
      "y": 0.05100724846124649,
      "z": 0.04214970022439957,
      "time_usec": 213824283887
    },
    {
      "x": 0.0065668015740811825,
      "y": 0.05345070734620094,
      "z": 0.039706241339445114,
      "time_usec": 213824286141
    },
    {
      "x": 0.007788531947880983,
      "y": 0.05345070734620094,
      "z": 0.039706241339445114,
      "time_usec": 213824288410
    },
    {
      "x": 0.0065668015740811825,
      "y": 0.05100724846124649,
      "z": 0.036041051149368286,
      "time_usec": 213824290668
    },
    {
      "x": 0.010231993161141872,
      "y": 0.04856378585100174,
      "z": 0.03726277872920036,
      "time_usec": 213824292923
    },
    {
      "x": 0.012675453908741474,
      "y": 0.04734205827116966,
      "z": 0.03481931984424591,
      "time_usec": 213824295183
    },
    {
      "x": 0.014049900695681572,
      "y": 0.04734205827116966,
      "z": 0.03481931984424591,
      "time_usec": 213824297440
    },
    {
      "x": 0.01771509274840355,
      "y": 0.043676864355802536,
      "z": 0.03481931984424591,
      "time_usec": 213824299699
    },
    {
      "x": 0.01771509274840355,
      "y": 0.043676864355802536,
      "z": 0.033597588539123535,
      "time_usec": 213824301954
    },
    {
      "x": 0.021380282938480377,
      "y": 0.04596760869026184,
      "z": 0.02871066704392433,
      "time_usec": 213824304210
    },
    {
      "x": 0.02626720629632473,
      "y": 0.04230241850018501,
      "z": 0.02871066704392433,
      "time_usec": 213824306470
    },
    {
      "x": 0.03375030308961868,
      "y": 0.03741549700498581,
      "z": 0.023976460099220276,
      "time_usec": 213824308728
    },
    {
      "x": 0.03497203439474106,
      "y": 0.036193765699863434,
      "z": 0.02519819140434265,
      "time_usec": 213824310985
    },
    {
      "x": 0.038637228310108185,
      "y": 0.036041051149368286,
      "z": 0.021532999351620674,
      "time_usec": 213824313238
    },
    {
      "x": 0.04352414980530739,
      "y": 0.029932396486401558,
      "z": 0.020311269909143448,
      "time_usec": 213824315495
    },
    {
      "x": 0.04856378585100174,
      "y": 0.029932396486401558,
      "z": 0.01664607785642147,
      "time_usec": 213824317754
    },
    {
      "x": 0.047189339995384216,
      "y": 0.02382374368607998,
      "z": 0.014202617108821869,
      "time_usec": 213824320004
    },
    {
      "x": 0.052228979766368866,
      "y": 0.02015855349600315,
      "z": 0.014202617108821869,
      "time_usec": 213824322274
    },
    {
      "x": 0.055894169956445694,
      "y": 0.01771509274840355,
      "z": 0.010537425056099892,
      "time_usec": 213824324525
    },
    {
      "x": 0.05955936014652252,
      "y": 0.01160643994808197,
      "z": 0.00931569468230009,
      "time_usec": 213824326791
    },
    {
      "x": 0.058337632566690445,
      "y": 0.00931569468230009,
      "z": 0.00809396430850029,
      "time_usec": 213824329045
    },
    {
      "x": 0.0607810914516449,
      "y": 0.005650503560900688,
      "z": 0.004428773187100887,
      "time_usec": 213824331303
    },
    {
      "x": 0.06200282275676727,
      "y": 7.635815418325365E-4,
      "z": 0.005650503560900688,
      "time_usec": 213824333556
    },
    {
      "x": 0.06322455406188965,
      "y": 7.635815418325365E-4,
      "z": -4.5814894838258624E-4,
      "time_usec": 213824335818
    },
    {
      "x": 0.06062837690114975,
      "y": -0.001679879380390048,
      "z": 0.001832595793530345,
      "time_usec": 213824338076
    },
    {
      "x": 0.06322455406188965,
      "y": -0.0029016099870204926,
      "z": -0.00427605677396059,
      "time_usec": 213824340334
    },
    {
      "x": 0.0630718395113945,
      "y": -0.007788531947880983,
      "z": -0.00427605677396059,
      "time_usec": 213824342586
    },
    {
      "x": 0.06062837690114975,
      "y": -0.0064140851609408855,
      "z": -0.005497787147760391,
      "time_usec": 213824344848
    },
    {
      "x": 0.06185010448098183,
      "y": -0.008857546374201775,
      "z": -0.006719517521560192,
      "time_usec": 213824347106
    },
    {
      "x": 0.06062837690114975,
      "y": -0.010079276748001575,
      "z": -0.006719517521560192,
      "time_usec": 213824349366
    },
    {
      "x": 0.06185010448098183,
      "y": -0.013744467869400978,
      "z": -0.006719517521560192,
      "time_usec": 213824351620
    },
    {
      "x": 0.06673702597618103,
      "y": -0.019853120669722557,
      "z": -0.009162978269159794,
      "time_usec": 213824353873
    },
    {
      "x": 0.06551529467105865,
      "y": -0.024587325751781464,
      "z": -0.007941247895359993,
      "time_usec": 213824356136
    },
    {
      "x": 0.06673702597618103,
      "y": -0.027030786499381065,
      "z": -0.009162978269159794,
      "time_usec": 213824358395
    },
    {
      "x": 0.06673702597618103,
      "y": -0.03298672288656235,
      "z": -0.009162978269159794,
      "time_usec": 213824360651
    },
    {
      "x": 0.0679587572813034,
      "y": -0.0354301854968071,
      "z": -0.012828170321881771,
      "time_usec": 213824362903
    },
    {
      "x": 0.06673702597618103,
      "y": -0.03420845419168472,
      "z": -0.01160643994808197,
      "time_usec": 213824365166
    },
    {
      "x": 0.06658431142568588,
      "y": -0.039095375686883926,
      "z": -0.01038470957428217,
      "time_usec": 213824367424
    },
    {
      "x": 0.06918048858642578,
      "y": -0.03436116874217987,
      "z": -0.01160643994808197,
      "time_usec": 213824369682
    },
    {
      "x": 0.060475658625364304,
      "y": -0.030543262138962746,
      "z": -0.01160643994808197,
      "time_usec": 213824371935
    },
    {
      "x": 0.06169738993048668,
      "y": -0.030543262138962746,
      "z": -0.01038470957428217,
      "time_usec": 213824374181
    },
    {
      "x": 0.0630718395113945,
      "y": -0.02580905705690384,
      "z": -0.009162978269159794,
      "time_usec": 213824376442
    },
    {
      "x": 0.06185010448098183,
      "y": -0.024587325751781464,
      "z": -0.01038470957428217,
      "time_usec": 213824378711
    },
    {
      "x": 0.0630718395113945,
      "y": -0.020922135561704636,
      "z": -0.006719517521560192,
      "time_usec": 213824380971
    },
    {
      "x": 0.05696318298578262,
      "y": -0.014813481830060482,
      "z": -0.006719517521560192,
      "time_usec": 213824383227
    },
    {
      "x": 0.058184914290905,
      "y": -0.010079276748001575,
      "z": -0.001832595793530345,
      "time_usec": 213824385487
    },
    {
      "x": 0.06185010448098183,
      "y": -0.005345070734620094,
      "z": -0.001832595793530345,
      "time_usec": 213824387741
    },
    {
      "x": 0.05955936014652252,
      "y": -4.5814894838258624E-4,
      "z": -0.001832595793530345,
      "time_usec": 213824390000
    },
    {
      "x": 0.058184914290905,
      "y": -4.5814894838258624E-4,
      "z": -6.108652451075613E-4,
      "time_usec": 213824392256
    },
    {
      "x": 0.05955936014652252,
      "y": 0.0019853119738399982,
      "z": 0.001832595793530345,
      "time_usec": 213824394516
    },
    {
      "x": 0.058337632566690445,
      "y": 0.004428773187100887,
      "z": -6.108652451075613E-4,
      "time_usec": 213824396771
    },
    {
      "x": 0.05711590126156807,
      "y": 0.006872233934700489,
      "z": -0.003054326167330146,
      "time_usec": 213824399029
    },
    {
      "x": 0.05345070734620094,
      "y": 0.00809396430850029,
      "z": -0.003054326167330146,
      "time_usec": 213824401285
    },
    {
      "x": 0.050854530185461044,
      "y": 0.00931569468230009,
      "z": -0.005497787147760391,
      "time_usec": 213824403539
    },
    {
      "x": 0.04596760869026184,
      "y": 0.006872233934700489,
      "z": -0.00427605677396059,
      "time_usec": 213824405801
    },
    {
      "x": 0.03481931984424591,
      "y": 0.010690141469240189,
      "z": -0.006872233934700489,
      "time_usec": 213824408059
    },
    {
      "x": 0.02122756652534008,
      "y": 0.008399397134780884,
      "z": -0.006872233934700489,
      "time_usec": 213824410318
    },
    {
      "x": 0.010079276748001575,
      "y": 1.5271631127689034E-4,
      "z": -0.007024950347840786,
      "time_usec": 213824412571
    },
    {
      "x": 0.0013744467869400978,
      "y": -0.00809396430850029,
      "z": -0.010690141469240189,
      "time_usec": 213824414827
    },
    {
      "x": -0.009926560334861279,
      "y": -0.01878410577774048,
      "z": -0.012064588256180286,
      "time_usec": 213824417089
    },
    {
      "x": -0.017409659922122955,
      "y": -0.029626963660120964,
      "z": -0.014508049935102463,
      "time_usec": 213824419347
    },
    {
      "x": -0.022449297830462456,
      "y": -0.039095375686883926,
      "z": -0.013439035043120384,
      "time_usec": 213824421605
    },
    {
      "x": -0.031154127791523933,
      "y": -0.04993823543190956,
      "z": -0.018325956538319588,
      "time_usec": 213824423857
    },
    {
      "x": -0.03985895588994026,
      "y": -0.059406645596027374,
      "z": -0.022143865004181862,
      "time_usec": 213824426119
    },
    {
      "x": -0.044745877385139465,
      "y": -0.06291911751031876,
      "z": -0.02580905705690384,
      "time_usec": 213824428377
    },
    {
      "x": -0.04856378585100174,
      "y": -0.06658431142568588,
      "z": -0.027030786499381065,
      "time_usec": 213824430635
    },
    {
      "x": -0.05467243865132332,
      "y": -0.06887505948543549,
      "z": -0.028405234217643738,
      "time_usec": 213824432887
    },
    {
      "x": -0.05849034711718559,
      "y": -0.07360926270484924,
      "z": -0.028405234217643738,
      "time_usec": 213824435149
    },
    {
      "x": -0.060933809727430344,
      "y": -0.07116580009460449,
      "z": -0.025961773470044136,
      "time_usec": 213824437407
    },
    {
      "x": -0.0633772686123848,
      "y": -0.06872233748435974,
      "z": -0.02474004216492176,
      "time_usec": 213824439665
    },
    {
      "x": -0.06582073122262955,
      "y": -0.06505715101957321,
      "z": -0.019853120669722557,
      "time_usec": 213824441921
    },
    {
      "x": -0.06582073122262955,
      "y": -0.05910121276974678,
      "z": -0.01863138936460018,
      "time_usec": 213824444176
    },
    {
      "x": -0.06704246252775192,
      "y": -0.0529925599694252,
      "z": -0.017409659922122955,
      "time_usec": 213824446437
    },
    {
      "x": -0.06811147183179855,
      "y": -0.04703662544488907,
      "z": -0.01618792861700058,
      "time_usec": 213824448695
    },
    {
      "x": -0.06444628536701202,
      "y": -0.04214970022439957,
      "z": -0.013591751456260681,
      "time_usec": 213824450952
    },
    {
      "x": -0.06185010448098183,
      "y": -0.03145955875515938,
      "z": -0.01114829070866108,
      "time_usec": 213824453206
    },
    {
      "x": -0.059406645596027374,
      "y": -0.02779436856508255,
      "z": -0.009926560334861279,
      "time_usec": 213824455467
    },
    {
      "x": -0.056810468435287476,
      "y": -0.023060163483023643,
      "z": -0.01114829070866108,
      "time_usec": 213824457721
    },
    {
      "x": -0.054367005825042725,
      "y": -0.023060163483023643,
      "z": -0.009926560334861279,
      "time_usec": 213824459970
    },
    {
      "x": -0.05192354694008827,
      "y": -0.01710422709584236,
      "z": -0.012217304669320583,
      "time_usec": 213824462239
    },
    {
      "x": -0.04932736977934837,
      "y": -0.013591751456260681,
      "z": -0.01466076634824276,
      "time_usec": 213824464494
    },
    {
      "x": -0.04199698567390442,
      "y": -0.01725694350898266,
      "z": -0.012217304669320583,
      "time_usec": 213824466759
    },
    {
      "x": -0.03955352306365967,
      "y": -0.01970040425658226,
      "z": -0.013439035043120384,
      "time_usec": 213824469012
    },
    {
      "x": -0.03573561832308769,
      "y": -0.018478672951459885,
      "z": -0.01710422709584236,
      "time_usec": 213824471269
    },
    {
      "x": -0.03451388701796532,
      "y": -0.01863138936460018,
      "z": -0.01710422709584236,
      "time_usec": 213824473522
    },
    {
      "x": -0.03329215571284294,
      "y": -0.013744467869400978,
      "z": -0.019547687843441963,
      "time_usec": 213824475784
    },
    {
      "x": -0.030695978552103043,
      "y": -0.011453723534941673,
      "z": -0.02076941914856434,
      "time_usec": 213824478042
    },
    {
      "x": -0.030695978552103043,
      "y": -0.012675453908741474,
      "z": -0.02321287989616394,
      "time_usec": 213824480300
    },
    {
      "x": -0.03329215571284294,
      "y": -0.012675453908741474,
      "z": -0.025656340643763542,
      "time_usec": 213824482551
    },
    {
      "x": -0.02825251780450344,
      "y": -0.012675453908741474,
      "z": -0.028099801391363144,
      "time_usec": 213824484812
    },
    {
      "x": -0.029474247246980667,
      "y": -0.007941247895359993,
      "z": -0.028099801391363144,
      "time_usec": 213824487072
    },
    {
      "x": -0.030695978552103043,
      "y": -0.00427605677396059,
      "z": -0.02932153269648552,
      "time_usec": 213824489331
    },
    {
      "x": -0.02825251780450344,
      "y": -0.001832595793530345,
      "z": -0.028099801391363144,
      "time_usec": 213824491587
    },
    {
      "x": -0.03145955875515938,
      "y": 0.001832595793530345,
      "z": -0.027947084978222847,
      "time_usec": 213824493841
    },
    {
      "x": -0.03130684420466423,
      "y": 0.0065668015740811825,
      "z": -0.02672535367310047,
      "time_usec": 213824496102
    },
    {
      "x": -0.03130684420466423,
      "y": 0.012675453908741474,
      "z": -0.027947084978222847,
      "time_usec": 213824498360
    },
    {
      "x": -0.030085112899541855,
      "y": 0.013744467869400978,
      "z": -0.02672535367310047,
      "time_usec": 213824500617
    },
    {
      "x": -0.02886338345706463,
      "y": 0.01618792861700058,
      "z": -0.02672535367310047,
      "time_usec": 213824502871
    },
    {
      "x": -0.02871066704392433,
      "y": 0.027030786499381065,
      "z": -0.024129176512360573,
      "time_usec": 213824505133
    },
    {
      "x": -0.027488935738801956,
      "y": 0.02580905705690384,
      "z": -0.024129176512360573,
      "time_usec": 213824507390
    },
    {
      "x": -0.025045474991202354,
      "y": 0.027030786499381065,
      "z": -0.024129176512360573,
      "time_usec": 213824509648
    },
    {
      "x": -0.022602014243602753,
      "y": 0.02580905705690384,
      "z": -0.02535090781748295,
      "time_usec": 213824511904
    },
    {
      "x": -0.022602014243602753,
      "y": 0.028099801391363144,
      "z": -0.024129176512360573,
      "time_usec": 213824514156
    },
    {
      "x": -0.021380282938480377,
      "y": 0.025656340643763542,
      "z": -0.024129176512360573,
      "time_usec": 213824516415
    },
    {
      "x": -0.02382374368607998,
      "y": 0.028099801391363144,
      "z": -0.022907447069883347,
      "time_usec": 213824518678
    },
    {
      "x": -0.022602014243602753,
      "y": 0.024587325751781464,
      "z": -0.02168571576476097,
      "time_usec": 213824520936
    },
    {
      "x": -0.02015855349600315,
      "y": 0.01970040425658226,
      "z": -0.022907447069883347,
      "time_usec": 213824523189
    },
    {
      "x": -0.01771509274840355,
      "y": 0.01725694350898266,
      "z": -0.022907447069883347,
      "time_usec": 213824525450
    },
    {
      "x": -0.018936822190880775,
      "y": 0.018478672951459885,
      "z": -0.026572637259960175,
      "time_usec": 213824527707
    },
    {
      "x": -0.01771509274840355,
      "y": 0.014813481830060482,
      "z": -0.026572637259960175,
      "time_usec": 213824529965
    },
    {
      "x": -0.016493361443281174,
      "y": 0.010079276748001575,
      "z": -0.02779436856508255,
      "time_usec": 213824532217
    },
    {
      "x": -0.015271631069481373,
      "y": 0.008857546374201775,
      "z": -0.02779436856508255,
      "time_usec": 213824534475
    },
    {
      "x": -0.015271631069481373,
      "y": 0.0039706239476799965,
      "z": -0.02779436856508255,
      "time_usec": 213824536738
    },
    {
      "x": -0.014202617108821869,
      "y": -9.162978967651725E-4,
      "z": -0.026572637259960175,
      "time_usec": 213824538998
    },
    {
      "x": -0.009162978269159794,
      "y": -0.005650503560900688,
      "z": -0.026572637259960175,
      "time_usec": 213824541253
    },
    {
      "x": -0.009162978269159794,
      "y": -0.005803219974040985,
      "z": -0.030237829312682152,
      "time_usec": 213824543507
    },
    {
      "x": -0.006719517521560192,
      "y": -0.00931569468230009,
      "z": -0.026572637259960175,
      "time_usec": 213824545766
    },
    {
      "x": -0.005497787147760391,
      "y": -0.00931569468230009,
      "z": -0.02779436856508255,
      "time_usec": 213824548025
    },
    {
      "x": -0.001832595793530345,
      "y": -0.008246680721640587,
      "z": -0.029016099870204926,
      "time_usec": 213824550282
    },
    {
      "x": -6.108652451075613E-4,
      "y": -0.005803219974040985,
      "z": -0.030237829312682152,
      "time_usec": 213824552536
    },
    {
      "x": -6.108652451075613E-4,
      "y": -0.004581489134579897,
      "z": -0.02779436856508255,
      "time_usec": 213824554801
    },
    {
      "x": 0.0032070425804704428,
      "y": -0.004734205547720194,
      "z": -0.030237829312682152,
      "time_usec": 213824557057
    },
    {
      "x": 0.0032070425804704428,
      "y": -0.0022907445672899485,
      "z": -0.029016099870204926,
      "time_usec": 213824559315
    },
    {
      "x": 0.0032070425804704428,
      "y": 1.5271631127689034E-4,
      "z": -0.030237829312682152,
      "time_usec": 213824561569
    },
    {
      "x": 0.004428773187100887,
      "y": 0.00366519158706069,
      "z": -0.030085112899541855,
      "time_usec": 213824563823
    },
    {
      "x": 0.004428773187100887,
      "y": 0.004886921960860491,
      "z": -0.02886338345706463,
      "time_usec": 213824566087
    },
    {
      "x": 0.005650503560900688,
      "y": 0.009773843921720982,
      "z": -0.023976460099220276,
      "time_usec": 213824568343
    },
    {
      "x": 0.004581489134579897,
      "y": 0.010995574295520782,
      "z": -0.02886338345706463,
      "time_usec": 213824570601
    },
    {
      "x": 0.008246680721640587,
      "y": 0.012064588256180286,
      "z": -0.03130684420466423,
      "time_usec": 213824572853
    },
    {
      "x": 0.008246680721640587,
      "y": 0.014508049935102463,
      "z": -0.03130684420466423,
      "time_usec": 213824575117
    },
    {
      "x": 0.009468411095440388,
      "y": 0.010842857882380486,
      "z": -0.032528575509786606,
      "time_usec": 213824577373
    },
    {
      "x": 0.009468411095440388,
      "y": 0.012064588256180286,
      "z": -0.032528575509786606,
      "time_usec": 213824579632
    },
    {
      "x": 0.007024950347840786,
      "y": 0.009621127508580685,
      "z": -0.02886338345706463,
      "time_usec": 213824581887
    },
    {
      "x": 0.009468411095440388,
      "y": 0.007177666760981083,
      "z": -0.03130684420466423,
      "time_usec": 213824584141
    },
    {
      "x": 0.007024950347840786,
      "y": 0.008399397134780884,
      "z": -0.03130684420466423,
      "time_usec": 213824586404
    },
    {
      "x": 0.008246680721640587,
      "y": 0.00733038317412138,
      "z": -0.030085112899541855,
      "time_usec": 213824588661
    },
    {
      "x": 0.006872233934700489,
      "y": 0.00366519158706069,
      "z": -0.030085112899541855,
      "time_usec": 213824590919
    },
    {
      "x": 0.00809396430850029,
      "y": 0.0,
      "z": -0.026419922709465027,
      "time_usec": 213824593174
    },
    {
      "x": 0.006872233934700489,
      "y": 0.0,
      "z": -0.02886338345706463,
      "time_usec": 213824595423
    },
    {
      "x": 0.0032070425804704428,
      "y": 1.5271631127689034E-4,
      "z": -0.02779436856508255,
      "time_usec": 213824597694
    },
    {
      "x": 0.004428773187100887,
      "y": -0.0022907445672899485,
      "z": -0.026419922709465027,
      "time_usec": 213824599950
    },
    {
      "x": 0.0032070425804704428,
      "y": -0.004581489134579897,
      "z": -0.02275473065674305,
      "time_usec": 213824602203
    },
    {
      "x": 0.001832595793530345,
      "y": -0.007024950347840786,
      "z": -0.022907447069883347,
      "time_usec": 213824604458
    },
    {
      "x": -6.108652451075613E-4,
      "y": -0.011759156361222267,
      "z": -0.022907447069883347,
      "time_usec": 213824606721
    },
    {
      "x": -0.0019853119738399982,
      "y": -0.01664607785642147,
      "z": -0.02168571576476097,
      "time_usec": 213824608979
    },
    {
      "x": -0.005650503560900688,
      "y": -0.018936822190880775,
      "z": -0.020463986322283745,
      "time_usec": 213824611233
    },
    {
      "x": -0.004428773187100887,
      "y": -0.018936822190880775,
      "z": -0.018020525574684143,
      "time_usec": 213824613487
    },
    {
      "x": -0.006872233934700489,
      "y": -0.018936822190880775,
      "z": -0.015577063895761967,
      "time_usec": 213824615751
    },
    {
      "x": -0.00809396430850029,
      "y": -0.016493361443281174,
      "z": -0.013133603148162365,
      "time_usec": 213824618009
    },
    {
      "x": -0.006872233934700489,
      "y": -0.014049900695681572,
      "z": -0.009468411095440388,
      "time_usec": 213824620267
    },
    {
      "x": -0.006872233934700489,
      "y": -0.012828170321881771,
      "z": -0.009468411095440388,
      "time_usec": 213824622516
    },
    {
      "x": -0.005650503560900688,
      "y": -0.012828170321881771,
      "z": -0.006872233934700489,
      "time_usec": 213824624769
    },
    {
      "x": -0.006872233934700489,
      "y": -0.006719517521560192,
      "z": -0.0032070425804704428,
      "time_usec": 213824627039
    },
    {
      "x": -0.006872233934700489,
      "y": -7.635815418325365E-4,
      "z": -7.635815418325365E-4,
      "time_usec": 213824629299
    },
    {
      "x": -0.010537425056099892,
      "y": 4.5814894838258624E-4,
      "z": 0.001679879380390048,
      "time_usec": 213824631555
    },
    {
      "x": -0.010537425056099892,
      "y": 0.004123340360820293,
      "z": 0.0029016099870204926,
      "time_usec": 213824633806
    },
    {
      "x": -0.007941247895359993,
      "y": 0.007788531947880983,
      "z": 0.005345070734620094,
      "time_usec": 213824636069
    },
    {
      "x": -0.010537425056099892,
      "y": 0.010231993161141872,
      "z": 0.005345070734620094,
      "time_usec": 213824638324
    },
    {
      "x": -0.01038470957428217,
      "y": 0.012522737495601177,
      "z": 0.009010262787342072,
      "time_usec": 213824640570
    },
    {
      "x": -0.01542434748262167,
      "y": 0.012675453908741474,
      "z": 0.011453723534941673,
      "time_usec": 213824642830
    },
    {
      "x": -0.017867809161543846,
      "y": 0.012675453908741474,
      "z": 0.010231993161141872,
      "time_usec": 213824645103
    },
    {
      "x": -0.01664607785642147,
      "y": 0.013897184282541275,
      "z": 0.011453723534941673,
      "time_usec": 213824647361
    },
    {
      "x": -0.01542434748262167,
      "y": 0.010231993161141872,
      "z": 0.011453723534941673,
      "time_usec": 213824649614
    },
    {
      "x": -0.017867809161543846,
      "y": 0.013897184282541275,
      "z": 0.012675453908741474,
      "time_usec": 213824651854
    },
    {
      "x": -0.019089538604021072,
      "y": 0.01160643994808197,
      "z": 0.015118914656341076,
      "time_usec": 213824654113
    },
    {
      "x": -0.01664607785642147,
      "y": 0.011453723534941673,
      "z": 0.016340645030140877,
      "time_usec": 213824656370
    },
    {
      "x": -0.019089538604021072,
      "y": 0.01160643994808197,
      "z": 0.016340645030140877,
      "time_usec": 213824658634
    },
    {
      "x": -0.017867809161543846,
      "y": 0.01038470957428217,
      "z": 0.020005837082862854,
      "time_usec": 213824660903
    },
    {
      "x": -0.016798794269561768,
      "y": 0.006719517521560192,
      "z": 0.020005837082862854,
      "time_usec": 213824663155
    },
    {
      "x": -0.016798794269561768,
      "y": 0.005497787147760391,
      "z": 0.022449297830462456,
      "time_usec": 213824665405
    },
    {
      "x": -0.012980886735022068,
      "y": 0.005497787147760391,
      "z": 0.022449297830462456,
      "time_usec": 213824667658
    },
    {
      "x": -0.015577063895761967,
      "y": 0.005497787147760391,
      "z": 0.02367102913558483,
      "time_usec": 213824669920
    },
    {
      "x": -0.013133603148162365,
      "y": -0.001679879380390048,
      "z": 0.02367102913558483,
      "time_usec": 213824672188
    },
    {
      "x": -0.013133603148162365,
      "y": 7.635815418325365E-4,
      "z": 0.024892758578062057,
      "time_usec": 213824674442
    },
    {
      "x": -0.00931569468230009,
      "y": 6.108652451075613E-4,
      "z": 0.024892758578062057,
      "time_usec": 213824676691
    },
    {
      "x": -0.01191187184303999,
      "y": 0.003054326167330146,
      "z": 0.026114489883184433,
      "time_usec": 213824678946
    },
    {
      "x": -0.009468411095440388,
      "y": 0.001832595793530345,
      "z": 0.028557950630784035,
      "time_usec": 213824681207
    },
    {
      "x": -0.009468411095440388,
      "y": -4.5814894838258624E-4,
      "z": 0.02733621932566166,
      "time_usec": 213824683475
    },
    {
      "x": -0.008246680721640587,
      "y": -0.0029016099870204926,
      "z": 0.026114489883184433,
      "time_usec": 213824685735
    },
    {
      "x": -0.005803219974040985,
      "y": -0.004123340360820293,
      "z": 0.027488935738801956,
      "time_usec": 213824687982
    },
    {
      "x": -0.008246680721640587,
      "y": -0.001679879380390048,
      "z": 0.031154127791523933,
      "time_usec": 213824690241
    },
    {
      "x": -0.005650503560900688,
      "y": -6.108652451075613E-4,
      "z": 0.029932396486401558,
      "time_usec": 213824692492
    },
    {
      "x": -7.635815418325365E-4,
      "y": -0.001832595793530345,
      "z": 0.031154127791523933,
      "time_usec": 213824694752
    },
    {
      "x": -7.635815418325365E-4,
      "y": -0.003054326167330146,
      "z": 0.031154127791523933,
      "time_usec": 213824697008
    },
    {
      "x": -0.002138028386980295,
      "y": -0.009010262787342072,
      "z": 0.031154127791523933,
      "time_usec": 213824699267
    },
    {
      "x": -9.162978967651725E-4,
      "y": -0.013897184282541275,
      "z": 0.02871066704392433,
      "time_usec": 213824701525
    },
    {
      "x": -9.162978967651725E-4,
      "y": -0.013897184282541275,
      "z": 0.029932396486401558,
      "time_usec": 213824703782
    },
    {
      "x": -0.003359758760780096,
      "y": -0.01618792861700058,
      "z": 0.026114489883184433,
      "time_usec": 213824706040
    },
    {
      "x": -0.002138028386980295,
      "y": -0.02229658141732216,
      "z": 0.02367102913558483,
      "time_usec": 213824708303
    },
    {
      "x": -0.005955935921519995,
      "y": -0.027030786499381065,
      "z": 0.020005837082862854,
      "time_usec": 213824710570
    },
    {
      "x": -0.004734205547720194,
      "y": -0.033139441162347794,
      "z": 0.01878410577774048,
      "time_usec": 213824712821
    },
    {
      "x": -0.008399397134780884,
      "y": -0.03436116874217987,
      "z": 0.016340645030140877,
      "time_usec": 213824715082
    },
    {
      "x": -0.009621127508580685,
      "y": -0.042760565876960754,
      "z": 0.013897184282541275,
      "time_usec": 213824717330
    },
    {
      "x": -0.010995574295520782,
      "y": -0.046273041516542435,
      "z": 0.008857546374201775,
      "time_usec": 213824719597
    },
    {
      "x": -0.012217304669320583,
      "y": -0.04749477282166481,
      "z": 0.0064140851609408855,
      "time_usec": 213824721839
    },
    {
      "x": -0.009773843921720982,
      "y": -0.04993823543190956,
      "z": 0.0027488935738801956,
      "time_usec": 213824724099
    },
    {
      "x": -0.013439035043120384,
      "y": -0.05115996301174164,
      "z": 0.005192354787141085,
      "time_usec": 213824726357
    },
    {
      "x": -0.01466076634824276,
      "y": -0.05115996301174164,
      "z": 0.0039706239476799965,
      "time_usec": 213824728631
    },
    {
      "x": -0.01466076634824276,
      "y": -0.05115996301174164,
      "z": 0.0039706239476799965,
      "time_usec": 213824730887
    },
    {
      "x": -0.01466076634824276,
      "y": -0.04749477282166481,
      "z": 0.0064140851609408855,
      "time_usec": 213824733141
    },
    {
      "x": -0.015882495790719986,
      "y": -0.04382958263158798,
      "z": 0.0064140851609408855,
      "time_usec": 213824735400
    },
    {
      "x": -0.01710422709584236,
      "y": -0.04153883829712868,
      "z": 0.0064140851609408855,
      "time_usec": 213824737659
    },
    {
      "x": -0.018325956538319588,
      "y": -0.03787364438176155,
      "z": 0.005192354787141085,
      "time_usec": 213824739917
    },
    {
      "x": -0.016951510682702065,
      "y": -0.03787364438176155,
      "z": 0.0027488935738801956,
      "time_usec": 213824742173
    },
    {
      "x": -0.014508049935102463,
      "y": -0.0354301854968071,
      "z": 0.0039706239476799965,
      "time_usec": 213824744425
    },
    {
      "x": -0.01817324012517929,
      "y": -0.0354301854968071,
      "z": 0.0039706239476799965,
      "time_usec": 213824746684
    },
    {
      "x": -0.02076941914856434,
      "y": -0.03420845419168472,
      "z": 0.005192354787141085,
      "time_usec": 213824748931
    },
    {
      "x": -0.02076941914856434,
      "y": -0.03298672288656235,
      "z": 0.008857546374201775,
      "time_usec": 213824751197
    },
    {
      "x": -0.01817324012517929,
      "y": -0.03176499158143997,
      "z": 0.010079276748001575,
      "time_usec": 213824753455
    },
    {
      "x": -0.01710422709584236,
      "y": -0.036651913076639175,
      "z": 0.010079276748001575,
      "time_usec": 213824755719
    },
    {
      "x": -0.019547687843441963,
      "y": -0.03420845419168472,
      "z": 0.010079276748001575,
      "time_usec": 213824757964
    },
    {
      "x": -0.014508049935102463,
      "y": -0.03420845419168472,
      "z": 0.012522737495601177,
      "time_usec": 213824760234
    },
    {
      "x": -0.01572977937757969,
      "y": -0.030695978552103043,
      "z": 0.010079276748001575,
      "time_usec": 213824762488
    },
    {
      "x": -0.014508049935102463,
      "y": -0.02825251780450344,
      "z": 0.012522737495601177,
      "time_usec": 213824764748
    },
    {
      "x": -0.01817324012517929,
      "y": -0.024587325751781464,
      "z": 0.011301007121801376,
      "time_usec": 213824767005
    },
    {
      "x": -0.014508049935102463,
      "y": -0.017409659922122955,
      "z": 0.015118914656341076,
      "time_usec": 213824769263
    },
    {
      "x": -0.013133603148162365,
      "y": -0.01863138936460018,
      "z": 0.013897184282541275,
      "time_usec": 213824771518
    },
    {
      "x": -0.013133603148162365,
      "y": -0.014966198243200779,
      "z": 0.013897184282541275,
      "time_usec": 213824773771
    },
    {
      "x": -0.013133603148162365,
      "y": -0.013744467869400978,
      "z": 0.013897184282541275,
      "time_usec": 213824776023
    },
    {
      "x": -0.01191187184303999,
      "y": -0.007788531947880983,
      "z": 0.011453723534941673,
      "time_usec": 213824778294
    },
    {
      "x": -0.013133603148162365,
      "y": -0.001832595793530345,
      "z": 0.011453723534941673,
      "time_usec": 213824780550
    },
    {
      "x": -0.012980886735022068,
      "y": -6.108652451075613E-4,
      "z": 0.012675453908741474,
      "time_usec": 213824782807
    },
    {
      "x": -0.015577063895761967,
      "y": 6.108652451075613E-4,
      "z": 0.016340645030140877,
      "time_usec": 213824785066
    },
    {
      "x": -0.014202617108821869,
      "y": 0.001832595793530345,
      "z": 0.011453723534941673,
      "time_usec": 213824787323
    },
    {
      "x": -0.01542434748262167,
      "y": 0.007941247895359993,
      "z": 0.012675453908741474,
      "time_usec": 213824789582
    },
    {
      "x": -0.019089538604021072,
      "y": 0.01038470957428217,
      "z": 0.012675453908741474,
      "time_usec": 213824791838
    },
    {
      "x": -0.017867809161543846,
      "y": 0.007941247895359993,
      "z": 0.011453723534941673,
      "time_usec": 213824794087
    },
    {
      "x": -0.017867809161543846,
      "y": 0.009162978269159794,
      "z": 0.012675453908741474,
      "time_usec": 213824796340
    },
    {
      "x": -0.019089538604021072,
      "y": 0.012675453908741474,
      "z": 0.011453723534941673,
      "time_usec": 213824798610
    },
    {
      "x": -0.017867809161543846,
      "y": 0.012675453908741474,
      "z": 0.011453723534941673,
      "time_usec": 213824800868
    },
    {
      "x": -0.019089538604021072,
      "y": 0.011453723534941673,
      "z": 0.011453723534941673,
      "time_usec": 213824803124
    },
    {
      "x": -0.020311269909143448,
      "y": 0.009162978269159794,
      "z": 0.007788531947880983,
      "time_usec": 213824805380
    },
    {
      "x": -0.02535090781748295,
      "y": 0.012828170321881771,
      "z": 0.010231993161141872,
      "time_usec": 213824807628
    },
    {
      "x": -0.02779436856508255,
      "y": 0.012828170321881771,
      "z": 0.008857546374201775,
      "time_usec": 213824809901
    },
    {
      "x": -0.02779436856508255,
      "y": 0.006872233934700489,
      "z": 0.011301007121801376,
      "time_usec": 213824812154
    },
    {
      "x": -0.0328340083360672,
      "y": 0.005650503560900688,
      "z": 0.010079276748001575,
      "time_usec": 213824814411
    },
    {
      "x": -0.03649919852614403,
      "y": 9.162978967651725E-4,
      "z": 0.007635815534740686,
      "time_usec": 213824816671
    },
    {
      "x": -0.0377209298312664,
      "y": -0.0027488935738801956,
      "z": 0.008857546374201775,
      "time_usec": 213824818927
    },
    {
      "x": -0.03649919852614403,
      "y": -0.0027488935738801956,
      "z": 0.007635815534740686,
      "time_usec": 213824821182
    },
    {
      "x": -0.0403171069920063,
      "y": -0.009926560334861279,
      "z": 0.008857546374201775,
      "time_usec": 213824823438
    },
    {
      "x": -0.039095375686883926,
      "y": -0.013439035043120384,
      "z": 0.007635815534740686,
      "time_usec": 213824825701
    },
    {
      "x": -0.03787364438176155,
      "y": -0.01237002108246088,
      "z": 0.008857546374201775,
      "time_usec": 213824827962
    },
    {
      "x": -0.039095375686883926,
      "y": -0.01114829070866108,
      "z": 0.007635815534740686,
      "time_usec": 213824830223
    },
    {
      "x": -0.036651913076639175,
      "y": -0.013591751456260681,
      "z": 0.0064140851609408855,
      "time_usec": 213824832467
    },
    {
      "x": -0.03787364438176155,
      "y": -0.008704829961061478,
      "z": 0.007635815534740686,
      "time_usec": 213824834726
    },
    {
      "x": -0.03787364438176155,
      "y": -0.009926560334861279,
      "z": 0.007635815534740686,
      "time_usec": 213824836986
    },
    {
      "x": -0.03527746722102165,
      "y": -0.0074830991216003895,
      "z": 0.007635815534740686,
      "time_usec": 213824839246
    },
    {
      "x": -0.03405573591589928,
      "y": -0.0039706239476799965,
      "z": 0.005192354787141085,
      "time_usec": 213824841495
    },
    {
      "x": -0.031612277030944824,
      "y": 0.0032070425804704428,
      "z": 0.0064140851609408855,
      "time_usec": 213824843757
    },
    {
      "x": -0.030237829312682152,
      "y": 0.004428773187100887,
      "z": 0.005192354787141085,
      "time_usec": 213824846017
    },
    {
      "x": -0.02779436856508255,
      "y": 0.009162978269159794,
      "z": 0.0039706239476799965,
      "time_usec": 213824848266
    },
    {
      "x": -0.02519819140434265,
      "y": 0.012675453908741474,
      "z": 0.0027488935738801956,
      "time_usec": 213824850534
    },
    {
      "x": -0.02519819140434265,
      "y": 0.013897184282541275,
      "z": 0.001527163083665073,
      "time_usec": 213824852786
    },
    {
      "x": -0.026419922709465027,
      "y": 0.015118914656341076,
      "z": 0.0039706239476799965,
      "time_usec": 213824855053
    },
    {
      "x": -0.023976460099220276,
      "y": 0.015118914656341076,
      "z": -0.002138028386980295,
      "time_usec": 213824857306
    },
    {
      "x": -0.020311269909143448,
      "y": 0.017409659922122955,
      "z": -0.002138028386980295,
      "time_usec": 213824859565
    },
    {
      "x": -0.021532999351620674,
      "y": 0.021074850112199783,
      "z": -0.002138028386980295,
      "time_usec": 213824861820
    },
    {
      "x": -0.021532999351620674,
      "y": 0.021074850112199783,
      "z": -0.003359758760780096,
      "time_usec": 213824864075
    },
    {
      "x": -0.019089538604021072,
      "y": 0.01863138936460018,
      "z": -0.0019853119738399982,
      "time_usec": 213824866337
    },
    {
      "x": -0.019089538604021072,
      "y": 0.017409659922122955,
      "z": -0.003359758760780096,
      "time_usec": 213824868594
    },
    {
      "x": -0.015271631069481373,
      "y": 0.01970040425658226,
      "z": -0.004428773187100887,
      "time_usec": 213824870851
    },
    {
      "x": -0.01160643994808197,
      "y": 0.01725694350898266,
      "z": -0.005650503560900688,
      "time_usec": 213824873100
    },
    {
      "x": -0.009162978269159794,
      "y": 0.014966198243200779,
      "z": -0.0032070425804704428,
      "time_usec": 213824875354
    },
    {
      "x": -0.005345070734620094,
      "y": 0.018478672951459885,
      "z": -0.004428773187100887,
      "time_usec": 213824877624
    },
    {
      "x": -0.0065668015740811825,
      "y": 0.018478672951459885,
      "z": -0.00809396430850029,
      "time_usec": 213824879883
    },
    {
      "x": -4.5814894838258624E-4,
      "y": 0.018325956538319588,
      "z": -0.00931569468230009,
      "time_usec": 213824882142
    },
    {
      "x": -0.004123340360820293,
      "y": 0.018325956538319588,
      "z": -0.010537425056099892,
      "time_usec": 213824884391
    },
    {
      "x": -0.005345070734620094,
      "y": 0.016035212203860283,
      "z": -0.00931569468230009,
      "time_usec": 213824886654
    },
    {
      "x": -0.001679879380390048,
      "y": 0.015882495790719986,
      "z": -0.012980886735022068,
      "time_usec": 213824888912
    },
    {
      "x": 0.0032070425804704428,
      "y": 0.01466076634824276,
      "z": -0.012980886735022068,
      "time_usec": 213824891170
    },
    {
      "x": -4.5814894838258624E-4,
      "y": 0.013591751456260681,
      "z": -0.010537425056099892,
      "time_usec": 213824893422
    },
    {
      "x": -4.5814894838258624E-4,
      "y": 0.015882495790719986,
      "z": -0.00931569468230009,
      "time_usec": 213824895684
    },
    {
      "x": 7.635815418325365E-4,
      "y": 0.01466076634824276,
      "z": -0.014202617108821869,
      "time_usec": 213824897940
    },
    {
      "x": 7.635815418325365E-4,
      "y": 0.015882495790719986,
      "z": -0.014202617108821869,
      "time_usec": 213824900195
    },
    {
      "x": 0.0032070425804704428,
      "y": 0.015882495790719986,
      "z": -0.014202617108821869,
      "time_usec": 213824902451
    },
    {
      "x": 7.635815418325365E-4,
      "y": 0.01466076634824276,
      "z": -0.01664607785642147,
      "time_usec": 213824904709
    },
    {
      "x": 0.005803219974040985,
      "y": 0.01466076634824276,
      "z": -0.019089538604021072,
      "time_usec": 213824906973
    },
    {
      "x": 0.0032070425804704428,
      "y": 0.01466076634824276,
      "z": -0.019089538604021072,
      "time_usec": 213824909227
    },
    {
      "x": 0.005803219974040985,
      "y": 0.01466076634824276,
      "z": -0.01664607785642147,
      "time_usec": 213824911474
    },
    {
      "x": 0.004428773187100887,
      "y": 0.012217304669320583,
      "z": -0.017867809161543846,
      "time_usec": 213824913739
    },
    {
      "x": 0.005803219974040985,
      "y": 0.01572977937757969,
      "z": -0.019089538604021072,
      "time_usec": 213824916002
    },
    {
      "x": 0.007024950347840786,
      "y": 0.013286318629980087,
      "z": -0.020311269909143448,
      "time_usec": 213824918262
    },
    {
      "x": 0.01191187184303999,
      "y": 0.012064588256180286,
      "z": -0.019089538604021072,
      "time_usec": 213824920512
    },
    {
      "x": 0.009468411095440388,
      "y": 0.016951510682702065,
      "z": -0.01664607785642147,
      "time_usec": 213824922769
    },
    {
      "x": 0.009468411095440388,
      "y": 0.019394971430301666,
      "z": -0.017867809161543846,
      "time_usec": 213824925032
    },
    {
      "x": 0.013286318629980087,
      "y": 0.02168571576476097,
      "z": -0.020311269909143448,
      "time_usec": 213824927292
    },
    {
      "x": 0.013133603148162365,
      "y": 0.018020525574684143,
      "z": -0.020311269909143448,
      "time_usec": 213824929545
    },
    {
      "x": 0.01191187184303999,
      "y": 0.02168571576476097,
      "z": -0.01664607785642147,
      "time_usec": 213824931791
    },
    {
      "x": 0.012064588256180286,
      "y": 0.02535090781748295,
      "z": -0.017867809161543846,
      "time_usec": 213824934057
    },
    {
      "x": 0.016951510682702065,
      "y": 0.02886338345706463,
      "z": -0.015271631069481373,
      "time_usec": 213824936321
    },
    {
      "x": 0.020616702735424042,
      "y": 0.026419922709465027,
      "z": -0.012828170321881771,
      "time_usec": 213824938580
    },
    {
      "x": 0.023060163483023643,
      "y": 0.027641652151942253,
      "z": -0.01160643994808197,
      "time_usec": 213824940835
    },
    {
      "x": 0.020616702735424042,
      "y": 0.03130684420466423,
      "z": -0.009162978269159794,
      "time_usec": 213824943087
    },
    {
      "x": 0.024434609338641167,
      "y": 0.03481931984424591,
      "z": -0.009162978269159794,
      "time_usec": 213824945349
    },
    {
      "x": 0.025656340643763542,
      "y": 0.03481931984424591,
      "z": -0.007941247895359993,
      "time_usec": 213824947603
    },
    {
      "x": 0.02321287989616394,
      "y": 0.03726277872920036,
      "z": -0.01038470957428217,
      "time_usec": 213824949866
    },
    {
      "x": 0.02321287989616394,
      "y": 0.036041051149368286,
      "z": -0.01160643994808197,
      "time_usec": 213824952121
    },
    {
      "x": 0.02321287989616394,
      "y": 0.04199698567390442,
      "z": -0.012828170321881771,
      "time_usec": 213824954377
    },
    {
      "x": 0.021991148591041565,
      "y": 0.03848451003432274,
      "z": -0.01160643994808197,
      "time_usec": 213824956637
    },
    {
      "x": 0.021991148591041565,
      "y": 0.04092797264456749,
      "z": -0.01160643994808197,
      "time_usec": 213824958892
    },
    {
      "x": 0.019547687843441963,
      "y": 0.03848451003432274,
      "z": -0.01160643994808197,
      "time_usec": 213824961139
    },
    {
      "x": 0.01710422709584236,
      "y": 0.04459316283464432,
      "z": -0.01160643994808197,
      "time_usec": 213824963405
    },
    {
      "x": 0.019547687843441963,
      "y": 0.048105638474226,
      "z": -0.014049900695681572,
      "time_usec": 213824965668
    },
    {
      "x": 0.018325956538319588,
      "y": 0.04688390716910362,
      "z": -0.014049900695681572,
      "time_usec": 213824967929
    },
    {
      "x": 0.02076941914856434,
      "y": 0.04566217586398125,
      "z": -0.014049900695681572,
      "time_usec": 213824970184
    },
    {
      "x": 0.02076941914856434,
      "y": 0.04092797264456749,
      "z": -0.018936822190880775,
      "time_usec": 213824972435
    },
    {
      "x": 0.021991148591041565,
      "y": 0.04566217586398125,
      "z": -0.016493361443281174,
      "time_usec": 213824974692
    },
    {
      "x": 0.018478672951459885,
      "y": 0.051770828664302826,
      "z": -0.016493361443281174,
      "time_usec": 213824976954
    },
    {
      "x": 0.01710422709584236,
      "y": 0.05054909735918045,
      "z": -0.015271631069481373,
      "time_usec": 213824979211
    },
    {
      "x": 0.01710422709584236,
      "y": 0.051770828664302826,
      "z": -0.016493361443281174,
      "time_usec": 213824981470
    },
    {
      "x": 0.01466076634824276,
      "y": 0.0529925599694252,
      "z": -0.016493361443281174,
      "time_usec": 213824983723
    },
    {
      "x": 0.01710422709584236,
      "y": 0.048105638474226,
      "z": -0.015271631069481373,
      "time_usec": 213824985986
    },
    {
      "x": 0.01466076634824276,
      "y": 0.04688390716910362,
      "z": -0.01771509274840355,
      "time_usec": 213824988242
    },
    {
      "x": 0.018325956538319588,
      "y": 0.04688390716910362,
      "z": -0.021380282938480377,
      "time_usec": 213824990495
    },
    {
      "x": 0.01710422709584236,
      "y": 0.04688390716910362,
      "z": -0.018936822190880775,
      "time_usec": 213824992753
    },
    {
      "x": 0.015882495790719986,
      "y": 0.04688390716910362,
      "z": -0.018936822190880775,
      "time_usec": 213824995015
    },
    {
      "x": 0.019547687843441963,
      "y": 0.04199698567390442,
      "z": -0.022602014243602753,
      "time_usec": 213824997275
    },
    {
      "x": 0.01710422709584236,
      "y": 0.04092797264456749,
      "z": -0.022602014243602753,
      "time_usec": 213824999533
    },
    {
      "x": 0.01710422709584236,
      "y": 0.03726277872920036,
      "z": -0.02382374368607998,
      "time_usec": 213825001787
    },
    {
      "x": 0.018325956538319588,
      "y": 0.031154127791523933,
      "z": -0.025045474991202354,
      "time_usec": 213825004040
    },
    {
      "x": 0.014508049935102463,
      "y": 0.030085112899541855,
      "z": -0.02886338345706463,
      "time_usec": 213825006303
    },
    {
      "x": 0.012064588256180286,
      "y": 0.030085112899541855,
      "z": -0.030085112899541855,
      "time_usec": 213825008558
    },
    {
      "x": 0.010842857882380486,
      "y": 0.024129176512360573,
      "z": -0.03130684420466423,
      "time_usec": 213825010805
    },
    {
      "x": 0.009621127508580685,
      "y": 0.024129176512360573,
      "z": -0.03130684420466423,
      "time_usec": 213825013071
    },
    {
      "x": 0.012064588256180286,
      "y": 0.022907447069883347,
      "z": -0.03130684420466423,
      "time_usec": 213825015334
    },
    {
      "x": 0.010842857882380486,
      "y": 0.024129176512360573,
      "z": -0.03130684420466423,
      "time_usec": 213825017594
    },
    {
      "x": 0.009621127508580685,
      "y": 0.027641652151942253,
      "z": -0.03130684420466423,
      "time_usec": 213825019850
    },
    {
      "x": 0.010842857882380486,
      "y": 0.027641652151942253,
      "z": -0.030085112899541855,
      "time_usec": 213825022102
    },
    {
      "x": 0.010842857882380486,
      "y": 0.026419922709465027,
      "z": -0.030085112899541855,
      "time_usec": 213825024349
    },
    {
      "x": 0.009621127508580685,
      "y": 0.03130684420466423,
      "z": -0.02886338345706463,
      "time_usec": 213825026611
    },
    {
      "x": 0.009621127508580685,
      "y": 0.03726277872920036,
      "z": -0.030085112899541855,
      "time_usec": 213825028866
    },
    {
      "x": 0.012064588256180286,
      "y": 0.036041051149368286,
      "z": -0.026419922709465027,
      "time_usec": 213825031138
    },
    {
      "x": 0.012217304669320583,
      "y": 0.039706241339445114,
      "z": -0.026419922709465027,
      "time_usec": 213825033387
    },
    {
      "x": 0.015882495790719986,
      "y": 0.04092797264456749,
      "z": -0.02382374368607998,
      "time_usec": 213825035644
    },
    {
      "x": 0.01710422709584236,
      "y": 0.04199698567390442,
      "z": -0.02626720629632473,
      "time_usec": 213825037908
    },
    {
      "x": 0.019547687843441963,
      "y": 0.04077525436878204,
      "z": -0.02382374368607998,
      "time_usec": 213825040166
    },
    {
      "x": 0.019547687843441963,
      "y": 0.04077525436878204,
      "z": -0.022602014243602753,
      "time_usec": 213825042420
    },
    {
      "x": 0.019547687843441963,
      "y": 0.036041051149368286,
      "z": -0.022602014243602753,
      "time_usec": 213825044677
    },
    {
      "x": 0.02076941914856434,
      "y": 0.02871066704392433,
      "z": -0.025045474991202354,
      "time_usec": 213825046936
    },
    {
      "x": 0.02321287989616394,
      "y": 0.027488935738801956,
      "z": -0.02626720629632473,
      "time_usec": 213825049192
    },
    {
      "x": 0.021838432177901268,
      "y": 0.02275473065674305,
      "z": -0.025045474991202354,
      "time_usec": 213825051453
    },
    {
      "x": 0.021838432177901268,
      "y": 0.016798794269561768,
      "z": -0.022602014243602753,
      "time_usec": 213825053706
    },
    {
      "x": 0.021838432177901268,
      "y": 0.014355333521962166,
      "z": -0.026419922709465027,
      "time_usec": 213825055970
    },
    {
      "x": 0.025503624230623245,
      "y": 0.01542434748262167,
      "z": -0.02626720629632473,
      "time_usec": 213825058228
    },
    {
      "x": 0.025656340643763542,
      "y": 0.01664607785642147,
      "z": -0.02871066704392433,
      "time_usec": 213825060488
    },
    {
      "x": 0.02428189292550087,
      "y": 0.015577063895761967,
      "z": -0.025045474991202354,
      "time_usec": 213825062737
    },
    {
      "x": 0.025656340643763542,
      "y": 0.020311269909143448,
      "z": -0.025045474991202354,
      "time_usec": 213825064999
    },
    {
      "x": 0.02687807008624077,
      "y": 0.02382374368607998,
      "z": -0.025045474991202354,
      "time_usec": 213825067255
    },
    {
      "x": 0.02687807008624077,
      "y": 0.02626720629632473,
      "z": -0.02626720629632473,
      "time_usec": 213825069513
    },
    {
      "x": 0.025656340643763542,
      "y": 0.031154127791523933,
      "z": -0.031154127791523933,
      "time_usec": 213825071771
    },
    {
      "x": 0.027030786499381065,
      "y": 0.03588833287358284,
      "z": -0.031154127791523933,
      "time_usec": 213825074020
    },
    {
      "x": 0.02825251780450344,
      "y": 0.03940080851316452,
      "z": -0.033597588539123535,
      "time_usec": 213825076274
    },
    {
      "x": 0.027030786499381065,
      "y": 0.038179077208042145,
      "z": -0.036041051149368286,
      "time_usec": 213825078544
    },
    {
      "x": 0.027030786499381065,
      "y": 0.03940080851316452,
      "z": -0.03848451003432274,
      "time_usec": 213825080802
    },
