{
  "accelerations": [
    {
      "x": 9.739386558532715,
      "y": 0.003589233849197626,
      "z": 0.6544370055198669,
      "time_usec": 151662061400
    },
    {
      "x": 9.705886840820312,
      "y": 0.01375873014330864,
      "z": 0.6687939167022705,
      "time_usec": 151662063670
    },
    {
      "x": 9.701101303100586,
      "y": 0.028115665540099144,
      "z": 0.6687939167022705,
      "time_usec": 151662065931
    },
    {
      "x": 9.69631576538086,
      "y": 0.03768695518374443,
      "z": 0.6592226624488831,
      "time_usec": 151662068188
    },
    {
      "x": 9.672985076904297,
      "y": 0.047258246690034866,
      "z": 0.6681957244873047,
      "time_usec": 151662070441
    },
    {
      "x": 9.65384292602539,
      "y": 0.03290131315588951,
      "z": 0.6825526356697083,
      "time_usec": 151662072688
    },
    {
      "x": 9.625128746032715,
      "y": 0.03768695518374443,
      "z": 0.6634100675582886,
      "time_usec": 151662074958
    },
    {
      "x": 9.625128746032715,
      "y": 0.062213387340307236,
      "z": 0.6729813814163208,
      "time_usec": 151662077213
    },
    {
      "x": 9.592227935791016,
      "y": 0.07657032459974289,
      "z": 0.6777670383453369,
      "time_usec": 151662079464
    },
    {
      "x": 9.587442398071289,
      "y": 0.08614161610603333,
      "z": 0.6586244106292725,
      "time_usec": 151662081716
    },
    {
      "x": 9.582656860351562,
      "y": 0.10049854964017868,
      "z": 0.6634100675582886,
      "time_usec": 151662083977
    },
    {
      "x": 9.625727653503418,
      "y": 0.11006984114646912,
      "z": 0.649053156375885,
      "time_usec": 151662086248
    },
    {
      "x": 9.620942115783691,
      "y": 0.12921242415905,
      "z": 0.6921239495277405,
      "time_usec": 151662088504
    },
    {
      "x": 9.659226417541504,
      "y": 0.15732808411121368,
      "z": 0.6969096064567566,
      "time_usec": 151662090749
    },
    {
      "x": 9.659226417541504,
      "y": 0.1621137410402298,
      "z": 0.6873382925987244,
      "time_usec": 151662093013
    },
    {
      "x": 9.668798446655273,
      "y": 0.14297115802764893,
      "z": 0.6634100675582886,
      "time_usec": 151662095276
    },
    {
      "x": 9.711869239807129,
      "y": 0.17168502509593964,
      "z": 0.6352944374084473,
      "time_usec": 151662097533
    },
    {
      "x": 9.739984512329102,
      "y": 0.17647066712379456,
      "z": 0.6352944374084473,
      "time_usec": 151662099779
    },
    {
      "x": 9.739984512329102,
      "y": 0.15672987699508667,
      "z": 0.625723123550415,
      "time_usec": 151662102049
    },
    {
      "x": 9.754341125488281,
      "y": 0.18544375896453857,
      "z": 0.6113662123680115,
      "time_usec": 151662104303
    },
    {
      "x": 9.76391315460205,
      "y": 0.18065811693668365,
      "z": 0.5880361795425415,
      "time_usec": 151662106552
    },
    {
      "x": 9.77826976776123,
      "y": 0.1902294009923935,
      "z": 0.6071787476539612,
      "time_usec": 151662108806
    },
    {
      "x": 9.783055305480957,
      "y": 0.20458634197711945,
      "z": 0.5928218364715576,
      "time_usec": 151662111066
    },
    {
      "x": 9.773484230041504,
      "y": 0.1950150430202484,
      "z": 0.5832505226135254,
      "time_usec": 151662113339
    },
    {
      "x": 9.79801082611084,
      "y": 0.20937198400497437,
      "z": 0.5401797294616699,
      "time_usec": 151662115597
    },
    {
      "x": 9.793225288391113,
      "y": 0.1902294009923935,
      "z": 0.5210371017456055,
      "time_usec": 151662117852
    },
    {
      "x": 9.783653259277344,
      "y": 0.1950150430202484,
      "z": 0.4875376224517822,
      "time_usec": 151662120097
    },
    {
      "x": 9.783653259277344,
      "y": 0.1950150430202484,
      "z": 0.4588237404823303,
      "time_usec": 151662122367
    },
    {
      "x": 9.77408218383789,
      "y": 0.18065811693668365,
      "z": 0.43968117237091064,
      "time_usec": 151662124626
    },
    {
      "x": 9.77408218383789,
      "y": 0.15194423496723175,
      "z": 0.43968117237091064,
      "time_usec": 151662126882
    },
    {
      "x": 9.778867721557617,
      "y": 0.15672987699508667,
      "z": 0.44446679949760437,
      "time_usec": 151662129125
    },
    {
      "x": 9.769296646118164,
      "y": 0.12801600992679596,
      "z": 0.4492524564266205,
      "time_usec": 151662131384
    },
    {
      "x": 9.77408218383789,
      "y": 0.10408778488636017,
      "z": 0.4492524564266205,
      "time_usec": 151662133654
    },
    {
      "x": 9.759725570678711,
      "y": 0.10408778488636017,
      "z": 0.46839502453804016,
      "time_usec": 151662135916
    },
    {
      "x": 9.754341125488281,
      "y": 0.061016976833343506,
      "z": 0.4875376224517822,
      "time_usec": 151662138178
    },
    {
      "x": 9.749555587768555,
      "y": 0.04666004329919815,
      "z": 0.49710890650749207,
      "time_usec": 151662140427
    },
    {
      "x": 9.759127616882324,
      "y": 0.02273181453347206,
      "z": 0.5258227586746216,
      "time_usec": 151662142682
    },
    {
      "x": 9.763314247131348,
      "y": 0.013160524889826775,
      "z": 0.5401797294616699,
      "time_usec": 151662144927
    },
    {
      "x": 9.758528709411621,
      "y": -0.020338991656899452,
      "z": 0.5641079545021057,
      "time_usec": 151662147194
    },
    {
      "x": 9.763314247131348,
      "y": -0.04905286431312561,
      "z": 0.5736792087554932,
      "time_usec": 151662149453
    },
    {
      "x": 9.772287368774414,
      "y": -0.05383851006627083,
      "z": 0.6071787476539612,
      "time_usec": 151662151718
    },
    {
      "x": 9.757930755615234,
      "y": -0.06340979784727097,
      "z": 0.6161518096923828,
      "time_usec": 151662153972
    },
    {
      "x": 9.77707290649414,
      "y": -0.08255238085985184,
      "z": 0.6352944374084473,
      "time_usec": 151662156226
    },
    {
      "x": 9.795618057250977,
      "y": -0.09212367236614227,
      "z": 0.6550351977348328,
      "time_usec": 151662158484
    },
    {
      "x": 9.833903312683105,
      "y": -0.09272187948226929,
      "z": 0.6502495408058167,
      "time_usec": 151662160741
    },
    {
      "x": 9.857233047485352,
      "y": -0.08793623000383377,
      "z": 0.6933203339576721,
      "time_usec": 151662163004
    },
    {
      "x": 9.866804122924805,
      "y": -0.09272187948226929,
      "z": 0.6981059908866882,
      "time_usec": 151662165261
    },
    {
      "x": 9.866804122924805,
      "y": -0.07836493849754333,
      "z": 0.6837490797042847,
      "time_usec": 151662167514
    },
    {
      "x": 9.862018585205078,
      "y": -0.0687936544418335,
      "z": 0.7028916478157043,
      "time_usec": 151662169767
    },
    {
      "x": 9.866804122924805,
      "y": -0.07357929646968842,
      "z": 0.6981059908866882,
      "time_usec": 151662172020
    },
    {
      "x": 9.862018585205078,
      "y": -0.0687936544418335,
      "z": 0.7124629616737366,
      "time_usec": 151662174291
    },
    {
      "x": 9.852447509765625,
      "y": -0.07836493849754333,
      "z": 0.6837490797042847,
      "time_usec": 151662176550
    },
    {
      "x": 9.862018585205078,
      "y": -0.049651071429252625,
      "z": 0.6789634227752686,
      "time_usec": 151662178809
    },
    {
      "x": 9.862616539001465,
      "y": -0.03529413416981697,
      "z": 0.6454638838768005,
      "time_usec": 151662181058
    },
    {
      "x": 9.843474388122559,
      "y": -0.049651071429252625,
      "z": 0.6502495408058167,
      "time_usec": 151662183318
    },
    {
      "x": 9.814760208129883,
      "y": -0.039481572806835175,
      "z": 0.631106972694397,
      "time_usec": 151662185568
    },
    {
      "x": 9.80100154876709,
      "y": -0.04426721855998039,
      "z": 0.6119644045829773,
      "time_usec": 151662187836
    },
    {
      "x": 9.791430473327637,
      "y": -0.04905286431312561,
      "z": 0.6215356588363647,
      "time_usec": 151662190088
    },
    {
      "x": 9.791430473327637,
      "y": -0.04426721855998039,
      "z": 0.6023930907249451,
      "time_usec": 151662192354
    },
    {
      "x": 9.77707290649414,
      "y": -0.039481572806835175,
      "z": 0.5928218364715576,
      "time_usec": 151662194609
    },
    {
      "x": 9.777671813964844,
      "y": -0.029910283163189888,
      "z": 0.5688936114311218,
      "time_usec": 151662196868
    },
    {
      "x": 9.801599502563477,
      "y": -0.01615155301988125,
      "z": 0.544965386390686,
      "time_usec": 151662199123
    },
    {
      "x": 9.810572624206543,
      "y": 0.0077766734175384045,
      "z": 0.5641079545021057,
      "time_usec": 151662201376
    },
    {
      "x": 9.792028427124023,
      "y": 0.013160524889826775,
      "z": 0.5736792087554932,
      "time_usec": 151662203638
    },
    {
      "x": 9.792028427124023,
      "y": 0.003589233849197626,
      "z": 0.5641079545021057,
      "time_usec": 151662205896
    },
    {
      "x": 9.787242889404297,
      "y": 0.04187439754605293,
      "z": 0.5784648656845093,
      "time_usec": 151662208154
    },
    {
      "x": 9.806385040283203,
      "y": 0.0323031060397625,
      "z": 0.5832505226135254,
      "time_usec": 151662210406
    },
    {
      "x": 9.81535816192627,
      "y": 0.04666004329919815,
      "z": 0.6263213157653809,
      "time_usec": 151662212669
    },
    {
      "x": 9.81535816192627,
      "y": 0.013160524889826775,
      "z": 0.631106972694397,
      "time_usec": 151662214926
    },
    {
      "x": 9.81535816192627,
      "y": 0.013160524889826775,
      "z": 0.6741777658462524,
      "time_usec": 151662217179
    },
    {
      "x": 9.829715728759766,
      "y": 0.02751746028661728,
      "z": 0.6550351977348328,
      "time_usec": 151662219435
    },
    {
      "x": 9.810572624206543,
      "y": 0.003589233849197626,
      "z": 0.6454638838768005,
      "time_usec": 151662221694
    },
    {
      "x": 9.796216011047363,
      "y": -0.010767702013254166,
      "z": 0.6406782865524292,
      "time_usec": 151662223959
    },
    {
      "x": 9.796216011047363,
      "y": 0.003589233849197626,
      "z": 0.631106972694397,
      "time_usec": 151662226219
    },
    {
      "x": 9.791430473327637,
      "y": -0.029910283163189888,
      "z": 0.6406782865524292,
      "time_usec": 151662228476
    },
    {
      "x": 9.77707290649414,
      "y": -0.010767702013254166,
      "z": 0.6023930907249451,
      "time_usec": 151662230725
    },
    {
      "x": 9.787242889404297,
      "y": -0.005982056725770235,
      "z": 0.5832505226135254,
      "time_usec": 151662232988
    },
    {
      "x": 9.80100154876709,
      "y": -0.01615155301988125,
      "z": 0.5593222975730896,
      "time_usec": 151662235242
    },
    {
      "x": 9.787242889404297,
      "y": -0.0011964113218709826,
      "z": 0.5497509837150574,
      "time_usec": 151662237496
    },
    {
      "x": 9.772886276245117,
      "y": 0.02273181453347206,
      "z": 0.544965386390686,
      "time_usec": 151662239755
    },
    {
      "x": 9.759127616882324,
      "y": 0.037088751792907715,
      "z": 0.5401797294616699,
      "time_usec": 151662242017
    },
    {
      "x": 9.759127616882324,
      "y": 0.05144568532705307,
      "z": 0.5353940725326538,
      "time_usec": 151662244276
    },
    {
      "x": 9.754341125488281,
      "y": 0.0323031060397625,
      "z": 0.4875376224517822,
      "time_usec": 151662246534
    },
    {
      "x": 9.768698692321777,
      "y": 0.0323031060397625,
      "z": 0.49710890650749207,
      "time_usec": 151662248788
    },
    {
      "x": 9.744770050048828,
      "y": 0.013160524889826775,
      "z": 0.4827519655227661,
      "time_usec": 151662251040
    },
    {
      "x": 9.759127616882324,
      "y": -0.005982056725770235,
      "z": 0.49710890650749207,
      "time_usec": 151662253302
    },
    {
      "x": 9.730413436889648,
      "y": -0.029910283163189888,
      "z": 0.5204389095306396,
      "time_usec": 151662255550
    },
    {
      "x": 9.716055870056152,
      "y": -0.029910283163189888,
      "z": 0.46839502453804016,
      "time_usec": 151662257821
    },
    {
      "x": 9.705886840820312,
      "y": -0.08255238085985184,
      "z": 0.6352944374084473,
      "time_usec": 151662260073
    },
    {
      "x": 9.687342643737793,
      "y": -0.06819544732570648,
      "z": 0.47258245944976807,
      "time_usec": 151662262339
    },
    {
      "x": 9.681958198547363,
      "y": -0.1010967567563057,
      "z": 0.6592226624488831,
      "time_usec": 151662264593
    },
    {
      "x": 9.677172660827637,
      "y": -0.13040883839130402,
      "z": 0.5778666734695435,
      "time_usec": 151662266852
    },
    {
      "x": 9.667601585388184,
      "y": -0.12502498924732208,
      "z": 0.5778666734695435,
      "time_usec": 151662269108
    },
    {
      "x": 9.67657470703125,
      "y": -0.17288143932819366,
      "z": 0.6921239495277405,
      "time_usec": 151662271361
    },
    {
      "x": 9.686744689941406,
      "y": -0.10588239878416061,
      "z": 0.6305087804794312,
      "time_usec": 151662273620
    },
    {
      "x": 9.681360244750977,
      "y": -0.129810631275177,
      "z": 0.6825526356697083,
      "time_usec": 151662275867
    },
    {
      "x": 9.681360244750977,
      "y": -0.1824527233839035,
      "z": 0.6729813814163208,
      "time_usec": 151662278138
    },
    {
      "x": 9.699904441833496,
      "y": -0.2309073805809021,
      "z": 0.6544370055198669,
      "time_usec": 151662280391
    },
    {
      "x": 9.699904441833496,
      "y": -0.26919254660606384,
      "z": 0.6927221417427063,
      "time_usec": 151662282657
    },
    {
      "x": 9.708877563476562,
      "y": -0.3026920557022095,
      "z": 0.7495517134666443,
      "time_usec": 151662284913
    },
    {
      "x": 9.723235130310059,
      "y": -0.2883351147174835,
      "z": 0.7645068168640137,
      "time_usec": 151662287175
    },
    {
      "x": 9.723235130310059,
      "y": -0.259621262550354,
      "z": 0.7974081635475159,
      "time_usec": 151662289420
    },
    {
      "x": 9.727422714233398,
      "y": -0.23988047242164612,
      "z": 0.8309076428413391,
      "time_usec": 151662291678
    },
    {
      "x": 9.732806205749512,
      "y": -0.21655045449733734,
      "z": 0.8165507316589355,
      "time_usec": 151662293939
    },
    {
      "x": 9.737591743469238,
      "y": -0.22612173855304718,
      "z": 0.7932206988334656,
      "time_usec": 151662296196
    },
    {
      "x": 9.713663101196289,
      "y": -0.2111666053533554,
      "z": 0.7878368496894836,
      "time_usec": 151662298456
    },
    {
      "x": 9.713663101196289,
      "y": -0.19680966436862946,
      "z": 0.768694281578064,
      "time_usec": 151662300709
    },
    {
      "x": 9.709476470947266,
      "y": -0.16809579730033875,
      "z": 0.768694281578064,
      "time_usec": 151662302973
    },
    {
      "x": 9.704689979553223,
      "y": -0.1585244983434677,
      "z": 0.7495517134666443,
      "time_usec": 151662305230
    },
    {
      "x": 9.728618621826172,
      "y": -0.1543370634317398,
      "z": 0.7549355626106262,
      "time_usec": 151662307486
    },
    {
      "x": 9.723833084106445,
      "y": -0.16390834748744965,
      "z": 0.7357929348945618,
      "time_usec": 151662309737
    },
    {
      "x": 9.709476470947266,
      "y": -0.1537388563156128,
      "z": 0.7447660565376282,
      "time_usec": 151662311989
    },
    {
      "x": 9.742975234985352,
      "y": -0.11605189740657806,
      "z": 0.7357929348945618,
      "time_usec": 151662314259
    },
    {
      "x": 9.742975234985352,
      "y": -0.10648060590028763,
      "z": 0.7357929348945618,
      "time_usec": 151662316516
    },
    {
      "x": 9.742975234985352,
      "y": -0.09212367236614227,
      "z": 0.7214360237121582,
      "time_usec": 151662318776
    },
    {
      "x": 9.747760772705078,
      "y": -0.11126625537872314,
      "z": 0.7022934556007385,
      "time_usec": 151662321024
    },
    {
      "x": 9.776474952697754,
      "y": -0.08733802288770676,
      "z": 0.7214360237121582,
      "time_usec": 151662323279
    },
    {
      "x": 9.786046028137207,
      "y": -0.09690931439399719,
      "z": 0.7166503667831421,
      "time_usec": 151662325547
    },
    {
      "x": 9.80937671661377,
      "y": -0.09690931439399719,
      "z": 0.7166503667831421,
      "time_usec": 151662327805
    },
    {
      "x": 9.833304405212402,
      "y": -0.06819544732570648,
      "z": 0.7124629616737366,
      "time_usec": 151662330060
    },
    {
      "x": 9.833304405212402,
      "y": -0.06819544732570648,
      "z": 0.7172485589981079,
      "time_usec": 151662332320
    },
    {
      "x": 9.838089942932129,
      "y": -0.06819544732570648,
      "z": 0.7172485589981079,
      "time_usec": 151662334577
    },
    {
      "x": 9.824331283569336,
      "y": -0.058624155819416046,
      "z": 0.6933203339576721,
      "time_usec": 151662336833
    },
    {
      "x": 9.81954574584961,
      "y": -0.04905286431312561,
      "z": 0.6550351977348328,
      "time_usec": 151662339079
    },
    {
      "x": 9.824930191040039,
      "y": -0.01136590726673603,
      "z": 0.6215356588363647,
      "time_usec": 151662341346
    },
    {
      "x": 9.810572624206543,
      "y": -0.020338991656899452,
      "z": 0.6023930907249451,
      "time_usec": 151662343608
    },
    {
      "x": 9.791430473327637,
      "y": -0.005982056725770235,
      "z": 0.5784648656845093,
      "time_usec": 151662345869
    },
    {
      "x": 9.79681396484375,
      "y": 0.008374879136681557,
      "z": 0.5784648656845093,
      "time_usec": 151662348123
    },
    {
      "x": 9.792028427124023,
      "y": 0.04666004329919815,
      "z": 0.5641079545021057,
      "time_usec": 151662350375
    },
    {
      "x": 9.792028427124023,
      "y": 0.061016976833343506,
      "z": 0.5593222975730896,
      "time_usec": 151662352638
    },
    {
      "x": 9.787242889404297,
      "y": 0.08973085135221481,
      "z": 0.5641079545021057,
      "time_usec": 151662354896
    },
    {
      "x": 9.635298728942871,
      "y": 0.04247260093688965,
      "z": 0.5395814776420593,
      "time_usec": 151662357153
    },
    {
      "x": 9.930213928222656,
      "y": 0.1417747437953949,
      "z": 0.550349235534668,
      "time_usec": 151662359403
    },
    {
      "x": 9.92542839050293,
      "y": 0.1417747437953949,
      "z": 0.550349235534668,
      "time_usec": 151662361653
    },
    {
      "x": 9.744770050048828,
      "y": 0.07537391036748886,
      "z": 0.5635097622871399,
      "time_usec": 151662363912
    },
    {
      "x": 9.8207426071167,
      "y": 0.0891326442360878,
      "z": 0.5306084156036377,
      "time_usec": 151662366172
    },
    {
      "x": 9.90149974822998,
      "y": 0.09870393574237823,
      "z": 0.5120640397071838,
      "time_usec": 151662368443
    },
    {
      "x": 9.815957069396973,
      "y": 0.08434699475765228,
      "z": 0.5066801905632019,
      "time_usec": 151662370696
    },
    {
      "x": 9.783055305480957,
      "y": 0.061016976833343506,
      "z": 0.5066801905632019,
      "time_usec": 151662372960
    },
    {
      "x": 9.849455833435059,
      "y": 0.07477571070194244,
      "z": 0.4977070987224579,
      "time_usec": 151662375216
    },
    {
      "x": 9.830313682556152,
      "y": 0.07956135272979736,
      "z": 0.511465847492218,
      "time_usec": 151662377469
    },
    {
      "x": 9.792028427124023,
      "y": 0.04666004329919815,
      "z": 0.5258227586746216,
      "time_usec": 151662379724
    },
    {
      "x": 9.81117057800293,
      "y": 0.06520441919565201,
      "z": 0.5401797294616699,
      "time_usec": 151662381988
    },
    {
      "x": 9.787242889404297,
      "y": 0.07058826833963394,
      "z": 0.5497509837150574,
      "time_usec": 151662384242
    },
    {
      "x": 9.739984512329102,
      "y": 0.037088751792907715,
      "z": 0.5778666734695435,
      "time_usec": 151662386496
    },
    {
      "x": 9.7064847946167,
      "y": 0.02751746028661728,
      "z": 0.592223584651947,
      "time_usec": 151662388759
    },
    {
      "x": 9.682557106018066,
      "y": 0.008973085321485996,
      "z": 0.6017948985099792,
      "time_usec": 151662391011
    },
    {
      "x": 9.634700775146484,
      "y": 0.008973085321485996,
      "z": 0.6107679605484009,
      "time_usec": 151662393276
    },
    {
      "x": 9.597013473510742,
      "y": 0.004187439568340778,
      "z": 0.5868397355079651,
      "time_usec": 151662395533
    },
    {
      "x": 9.573084831237793,
      "y": -0.004785645287483931,
      "z": 0.5868397355079651,
      "time_usec": 151662397789
    },
    {
      "x": 9.573084831237793,
      "y": -0.0,
      "z": 0.5916253924369812,
      "time_usec": 151662400042
    },
    {
      "x": 9.56351375579834,
      "y": -0.009571290574967861,
      "z": 0.6011967062950134,
      "time_usec": 151662402305
    },
    {
      "x": 9.558728218078613,
      "y": -0.02392822690308094,
      "z": 0.6107679605484009,
      "time_usec": 151662404562
    },
    {
      "x": 9.56351375579834,
      "y": -0.02871387079358101,
      "z": 0.6394818425178528,
      "time_usec": 151662406821
    },
    {
      "x": 9.544371604919434,
      "y": -0.014356935396790504,
      "z": 0.6484549641609192,
      "time_usec": 151662409075
    },
    {
      "x": 9.54915714263916,
      "y": -0.038285162299871445,
      "z": 0.6628118753433228,
      "time_usec": 151662411330
    },
    {
      "x": 9.544371604919434,
      "y": -0.06699903309345245,
      "z": 0.672383189201355,
      "time_usec": 151662413590
    },
    {
      "x": 9.5533447265625,
      "y": -0.0526420995593071,
      "z": 0.6915257573127747,
      "time_usec": 151662415837
    },
    {
      "x": 9.56770133972168,
      "y": -0.062213387340307236,
      "z": 0.7058826684951782,
      "time_usec": 151662418107
    },
    {
      "x": 9.572486877441406,
      "y": -0.05742774158716202,
      "z": 0.6867401003837585,
      "time_usec": 151662420359
    },
    {
      "x": 9.591629981994629,
      "y": -0.04785645380616188,
      "z": 0.6729813814163208,
      "time_usec": 151662422623
    },
    {
      "x": 9.634101867675781,
      "y": -0.05802594870328903,
      "z": 0.6729813814163208,
      "time_usec": 151662424870
    },
    {
      "x": 9.65803050994873,
      "y": -0.048454657196998596,
      "z": 0.6873382925987244,
      "time_usec": 151662427138
    },
    {
      "x": 9.691530227661133,
      "y": -0.04366901144385338,
      "z": 0.6879364848136902,
      "time_usec": 151662429389
    },
    {
      "x": 9.686744689941406,
      "y": -0.05802594870328903,
      "z": 0.6831508874893188,
      "time_usec": 151662431651
    },
    {
      "x": 9.69631576538086,
      "y": -0.029312077909708023,
      "z": 0.6927221417427063,
      "time_usec": 151662433912
    },
    {
      "x": 9.705288887023926,
      "y": -0.029312077909708023,
      "z": 0.7022934556007385,
      "time_usec": 151662436171
    },
    {
      "x": 9.710074424743652,
      "y": -0.03409772366285324,
      "z": 0.711864709854126,
      "time_usec": 151662438412
    },
    {
      "x": 9.705288887023926,
      "y": -0.03888336941599846,
      "z": 0.7070791125297546,
      "time_usec": 151662440677
    },
    {
      "x": 9.710672378540039,
      "y": -0.014955141581594944,
      "z": 0.6975077986717224,
      "time_usec": 151662442938
    },
    {
      "x": 9.705886840820312,
      "y": -0.019740786403417587,
      "z": 0.6831508874893188,
      "time_usec": 151662445197
    },
    {
      "x": 9.710672378540039,
      "y": -0.014955141581594944,
      "z": 0.6927221417427063,
      "time_usec": 151662447456
    },
    {
      "x": 9.710074424743652,
      "y": -0.03409772366285324,
      "z": 0.7022934556007385,
      "time_usec": 151662449709
    },
    {
      "x": 9.686744689941406,
      "y": -0.048454657196998596,
      "z": 0.6921239495277405,
      "time_usec": 151662451970
    },
    {
      "x": 9.69093132019043,
      "y": -0.06281159073114395,
      "z": 0.6927221417427063,
      "time_usec": 151662454230
    },
    {
      "x": 9.695717811584473,
      "y": -0.08673982322216034,
      "z": 0.6783652305603027,
      "time_usec": 151662456487
    },
    {
      "x": 9.667003631591797,
      "y": -0.11066804826259613,
      "z": 0.6969096064567566,
      "time_usec": 151662458742
    },
    {
      "x": 9.647860527038574,
      "y": -0.12502498924732208,
      "z": 0.706480860710144,
      "time_usec": 151662460995
    },
    {
      "x": 9.634101867675781,
      "y": -0.129810631275177,
      "z": 0.6969096064567566,
      "time_usec": 151662463258
    },
    {
      "x": 9.614959716796875,
      "y": -0.14895321428775787,
      "z": 0.6825526356697083,
      "time_usec": 151662465515
    },
    {
      "x": 9.624530792236328,
      "y": -0.13938191533088684,
      "z": 0.6921239495277405,
      "time_usec": 151662467775
    },
    {
      "x": 9.643074989318848,
      "y": -0.12023933976888657,
      "z": 0.7256234884262085,
      "time_usec": 151662470026
    },
    {
      "x": 9.652647018432617,
      "y": -0.129810631275177,
      "z": 0.706480860710144,
      "time_usec": 151662472289
    },
    {
      "x": 9.643074989318848,
      "y": -0.12023933976888657,
      "z": 0.7256234884262085,
      "time_usec": 151662474546
    },
    {
      "x": 9.634101867675781,
      "y": -0.09631111472845078,
      "z": 0.7208378314971924,
      "time_usec": 151662476805
    },
    {
      "x": 9.652647018432617,
      "y": -0.09152546525001526,
      "z": 0.7160521745681763,
      "time_usec": 151662479060
    },
    {
      "x": 9.64367389678955,
      "y": -0.08673982322216034,
      "z": 0.6825526356697083,
      "time_usec": 151662481314
    },
    {
      "x": 9.653244972229004,
      "y": -0.11545369029045105,
      "z": 0.6777670383453369,
      "time_usec": 151662483577
    },
    {
      "x": 9.681360244750977,
      "y": -0.09631111472845078,
      "z": 0.6592226624488831,
      "time_usec": 151662485834
    },
    {
      "x": 9.677172660827637,
      "y": -0.08195417374372482,
      "z": 0.6544370055198669,
      "time_usec": 151662488089
    },
    {
      "x": 9.757930755615234,
      "y": -0.09690931439399719,
      "z": 0.6305087804794312,
      "time_usec": 151662490344
    },
    {
      "x": 9.67238712310791,
      "y": -0.0771685317158699,
      "z": 0.625723123550415,
      "time_usec": 151662492607
    },
    {
      "x": 9.729815483093262,
      "y": -0.04905286431312561,
      "z": 0.6113662123680115,
      "time_usec": 151662494865
    },
    {
      "x": 9.768099784851074,
      "y": -0.039481572806835175,
      "z": 0.5736792087554932,
      "time_usec": 151662497122
    },
    {
      "x": 9.734601020812988,
      "y": 0.003589233849197626,
      "z": 0.5874379873275757,
      "time_usec": 151662499373
    },
    {
      "x": 9.744172096252441,
      "y": 0.003589233849197626,
      "z": 0.592223584651947,
      "time_usec": 151662501632
    },
    {
      "x": 9.777671813964844,
      "y": 0.02751746028661728,
      "z": 0.5784648656845093,
      "time_usec": 151662503896
    },
    {
      "x": 9.78245735168457,
      "y": 0.013160524889826775,
      "z": 0.5832505226135254,
      "time_usec": 151662506154
    },
    {
      "x": 9.777671813964844,
      "y": 0.0323031060397625,
      "z": 0.5497509837150574,
      "time_usec": 151662508410
    },
    {
      "x": 9.8207426071167,
      "y": 0.04127619042992592,
      "z": 0.5545366406440735,
      "time_usec": 151662510662
    },
    {
      "x": 9.81117057800293,
      "y": 0.0364905446767807,
      "z": 0.5162515044212341,
      "time_usec": 151662512922
    },
    {
      "x": 9.8207426071167,
      "y": 0.04127619042992592,
      "z": 0.49710890650749207,
      "time_usec": 151662515169
    },
    {
      "x": 9.79681396484375,
      "y": 0.026919255033135414,
      "z": 0.47796630859375,
      "time_usec": 151662517437
    },
    {
      "x": 9.80219841003418,
      "y": 0.012562318705022335,
      "z": 0.44446679949760437,
      "time_usec": 151662519693
    },
    {
      "x": 9.77826976776123,
      "y": 0.026919255033135414,
      "z": 0.41096729040145874,
      "time_usec": 151662521960
    },
    {
      "x": 9.783055305480957,
      "y": 0.022133609279990196,
      "z": 0.3966103494167328,
      "time_usec": 151662524219
    },
    {
      "x": 9.783055305480957,
      "y": 0.03170489892363548,
      "z": 0.39182472229003906,
      "time_usec": 151662526476
    },
    {
      "x": 9.783653259277344,
      "y": 0.026919255033135414,
      "z": 0.372682124376297,
      "time_usec": 151662528726
    },
    {
      "x": 9.793225288391113,
      "y": 0.026919255033135414,
      "z": 0.363709032535553,
      "time_usec": 151662530979
    },
    {
      "x": 9.79801082611084,
      "y": 0.0364905446767807,
      "z": 0.35892340540885925,
      "time_usec": 151662533241
    },
    {
      "x": 9.806983947753906,
      "y": 0.01734796352684498,
      "z": 0.3445664644241333,
      "time_usec": 151662535495
    },
    {
      "x": 9.835697174072266,
      "y": 0.022133609279990196,
      "z": 0.349352091550827,
      "time_usec": 151662537758
    },
    {
      "x": 9.821340560913086,
      "y": 0.01734796352684498,
      "z": 0.3445664644241333,
      "time_usec": 151662540012
    },
    {
      "x": 9.783653259277344,
      "y": 0.0029910283628851175,
      "z": 0.33499518036842346,
      "time_usec": 151662542275
    },
    {
      "x": 9.783653259277344,
      "y": 0.0077766734175384045,
      "z": 0.33499518036842346,
      "time_usec": 151662544527
    },
    {
      "x": 9.778867721557617,
      "y": -0.01136590726673603,
      "z": 0.3397808074951172,
      "time_usec": 151662546777
    },
    {
      "x": 9.79262638092041,
      "y": -0.020937198773026466,
      "z": 0.35413774847984314,
      "time_usec": 151662549043
    },
    {
      "x": 9.811769485473633,
      "y": -0.01136590726673603,
      "z": 0.363709032535553,
      "time_usec": 151662551287
    },
    {
      "x": 9.81655502319336,
      "y": 0.0029910283628851175,
      "z": 0.3684946894645691,
      "time_usec": 151662553551
    },
    {
      "x": 9.821340560913086,
      "y": -0.001794616924598813,
      "z": 0.3732803463935852,
      "time_usec": 151662555819
    },
    {
      "x": 9.821340560913086,
      "y": -0.01615155301988125,
      "z": 0.38285163044929504,
      "time_usec": 151662558079
    },
    {
      "x": 9.868598937988281,
      "y": -0.02153540402650833,
      "z": 0.38285163044929504,
      "time_usec": 151662560332
    },
    {
      "x": 9.839884757995605,
      "y": -0.01615155301988125,
      "z": 0.38285163044929504,
      "time_usec": 151662562591
    },
    {
      "x": 9.830313682556152,
      "y": -0.01615155301988125,
      "z": 0.3924229145050049,
      "time_usec": 151662564848
    },
    {
      "x": 9.835697174072266,
      "y": -0.01136590726673603,
      "z": 0.3732803463935852,
      "time_usec": 151662567106
    },
    {
      "x": 9.80219841003418,
      "y": -0.006580262444913387,
      "z": 0.40677985548973083,
      "time_usec": 151662569358
    },
    {
      "x": 9.81117057800293,
      "y": -0.025722842663526535,
      "z": 0.4307080805301666,
      "time_usec": 151662571617
    },
    {
      "x": 9.8207426071167,
      "y": -0.025722842663526535,
      "z": 0.46360939741134644,
      "time_usec": 151662573880
    },
    {
      "x": 9.801599502563477,
      "y": -0.006580262444913387,
      "z": 0.4875376224517822,
      "time_usec": 151662576139
    },
    {
      "x": 9.81117057800293,
      "y": 0.0029910283628851175,
      "z": 0.5162515044212341,
      "time_usec": 151662578395
    },
    {
      "x": 9.806385040283203,
      "y": 0.012562318705022335,
      "z": 0.49710890650749207,
      "time_usec": 151662580647
    },
    {
      "x": 9.81117057800293,
      "y": 0.0077766734175384045,
      "z": 0.4827519655227661,
      "time_usec": 151662582911
    },
    {
      "x": 9.806385040283203,
      "y": 0.01734796352684498,
      "z": 0.47796630859375,
      "time_usec": 151662585172
    },
    {
      "x": 9.79681396484375,
      "y": 0.01734796352684498,
      "z": 0.47796630859375,
      "time_usec": 151662587424
    },
    {
      "x": 9.773484230041504,
      "y": 0.003589233849197626,
      "z": 0.4827519655227661,
      "time_usec": 151662589677
    },
    {
      "x": 9.77826976776123,
      "y": -0.001794616924598813,
      "z": 0.4492524564266205,
      "time_usec": 151662591937
    },
    {
      "x": 9.76391315460205,
      "y": -0.01136590726673603,
      "z": 0.4540380835533142,
      "time_usec": 151662594194
    },
    {
      "x": 9.759127616882324,
      "y": 0.003589233849197626,
      "z": 0.4540380835533142,
      "time_usec": 151662596457
    },
    {
      "x": 9.749555587768555,
      "y": 0.017946170642971992,
      "z": 0.4588237404823303,
      "time_usec": 151662598712
    },
    {
      "x": 9.754341125488281,
      "y": 0.02273181453347206,
      "z": 0.47796630859375,
      "time_usec": 151662600966
    },
    {
      "x": 9.749555587768555,
      "y": 0.02273181453347206,
      "z": 0.4731806814670563,
      "time_usec": 151662603226
    },
    {
      "x": 9.735198974609375,
      "y": 0.017946170642971992,
      "z": 0.4827519655227661,
      "time_usec": 151662605481
    },
    {
      "x": 9.730413436889648,
      "y": 0.02751746028661728,
      "z": 0.4875376224517822,
      "time_usec": 151662607743
    },
    {
      "x": 9.730413436889648,
      "y": 0.04187439754605293,
      "z": 0.4875376224517822,
      "time_usec": 151662609995
    },
    {
      "x": 9.744770050048828,
      "y": 0.05144568532705307,
      "z": 0.4731806814670563,
      "time_usec": 151662612260
    },
    {
      "x": 9.731011390686035,
      "y": 0.04666004329919815,
      "z": 0.4731806814670563,
      "time_usec": 151662614512
    },
    {
      "x": 9.76391315460205,
      "y": 0.06580262631177902,
      "z": 0.47796630859375,
      "time_usec": 151662616761
    },
    {
      "x": 9.740582466125488,
      "y": 0.061016976833343506,
      "z": 0.4827519655227661,
      "time_usec": 151662619029
    },
    {
      "x": 9.744770050048828,
      "y": 0.061016976833343506,
      "z": 0.5018945336341858,
      "time_usec": 151662621283
    },
    {
      "x": 9.749555587768555,
      "y": 0.06580262631177902,
      "z": 0.5210371017456055,
      "time_usec": 151662623549
    },
    {
      "x": 9.735198974609375,
      "y": 0.0849452018737793,
      "z": 0.5443671345710754,
      "time_usec": 151662625803
    },
    {
      "x": 9.754341125488281,
      "y": 0.06580262631177902,
      "z": 0.5874379873275757,
      "time_usec": 151662628061
    },
    {
      "x": 9.78245735168457,
      "y": 0.10408778488636017,
      "z": 0.5928218364715576,
      "time_usec": 151662630314
    },
    {
      "x": 9.777671813964844,
      "y": 0.08973085135221481,
      "z": 0.6496513485908508,
      "time_usec": 151662632576
    },
    {
      "x": 9.810572624206543,
      "y": 0.06580262631177902,
      "z": 0.6358926296234131,
      "time_usec": 151662634833
    },
    {
      "x": 9.805787086486816,
      "y": 0.04666004329919815,
      "z": 0.6119644045829773,
      "time_usec": 151662637091
    },
    {
      "x": 9.805787086486816,
      "y": 0.008374879136681557,
      "z": 0.6167500615119934,
      "time_usec": 151662639343
    },
    {
      "x": 9.81535816192627,
      "y": 0.003589233849197626,
      "z": 0.6215356588363647,
      "time_usec": 151662641598
    },
    {
      "x": 9.820143699645996,
      "y": -0.04007977992296219,
      "z": 0.6215356588363647,
      "time_usec": 151662643848
    },
    {
      "x": 9.833903312683105,
      "y": -0.06400800496339798,
      "z": 0.6071787476539612,
      "time_usec": 151662646110
    },
    {
      "x": 9.857831001281738,
      "y": -0.0687936544418335,
      "z": 0.6119644045829773,
      "time_usec": 151662648380
    },
    {
      "x": 9.881759643554688,
      "y": -0.049651071429252625,
      "z": 0.6167500615119934,
      "time_usec": 151662650631
    },
    {
      "x": 9.890732765197754,
      "y": -0.04486542567610741,
      "z": 0.6269195079803467,
      "time_usec": 151662652884
    },
    {
      "x": 9.89551830291748,
      "y": -0.04007977992296219,
      "z": 0.6598208546638489,
      "time_usec": 151662655151
    },
    {
      "x": 9.876974105834961,
      "y": -0.025722842663526535,
      "z": 0.6550351977348328,
      "time_usec": 151662657407
    },
    {
      "x": 9.872187614440918,
      "y": -0.001794616924598813,
      "z": 0.631106972694397,
      "time_usec": 151662659658
    },
    {
      "x": 9.857831001281738,
      "y": -0.01136590726673603,
      "z": 0.631106972694397,
      "time_usec": 151662661923
    },
    {
      "x": 9.848259925842285,
      "y": -0.01136590726673603,
      "z": 0.6215356588363647,
      "time_usec": 151662664177
    },
    {
      "x": 9.853045463562012,
      "y": -0.020937198773026466,
      "z": 0.597607433795929,
      "time_usec": 151662666443
    },
    {
      "x": 9.848259925842285,
      "y": -0.025722842663526535,
      "z": 0.6119644045829773,
      "time_usec": 151662668696
    },
    {
      "x": 9.853045463562012,
      "y": -0.025722842663526535,
      "z": 0.6167500615119934,
      "time_usec": 151662670953
    },
    {
      "x": 9.839286804199219,
      "y": -0.01615155301988125,
      "z": 0.6023930907249451,
      "time_usec": 151662673217
    },
    {
      "x": 9.820143699645996,
      "y": -0.054436713457107544,
      "z": 0.5688936114311218,
      "time_usec": 151662675471
    },
    {
      "x": 9.81535816192627,
      "y": -0.054436713457107544,
      "z": 0.5688936114311218,
      "time_usec": 151662677727
    },
    {
      "x": 9.781859397888184,
      "y": -0.06819544732570648,
      "z": 0.5736792087554932,
      "time_usec": 151662679978
    },
    {
      "x": 9.781859397888184,
      "y": -0.07776673883199692,
      "z": 0.597607433795929,
      "time_usec": 151662682241
    },
    {
      "x": 9.757930755615234,
      "y": -0.08733802288770676,
      "z": 0.6113662123680115,
      "time_usec": 151662684492
    },
    {
      "x": 9.753145217895508,
      "y": -0.07776673883199692,
      "z": 0.6113662123680115,
      "time_usec": 151662686743
    },
    {
      "x": 9.729815483093262,
      "y": -0.06819544732570648,
      "z": 0.6065805554389954,
      "time_usec": 151662688999
    },
    {
      "x": 9.710672378540039,
      "y": -0.0729810893535614,
      "z": 0.6161518096923828,
      "time_usec": 151662691258
    },
    {
      "x": 9.710672378540039,
      "y": -0.0729810893535614,
      "z": 0.5970092415809631,
      "time_usec": 151662693517
    },
    {
      "x": 9.686744689941406,
      "y": -0.06340979784727097,
      "z": 0.5730810165405273,
      "time_usec": 151662695775
    },
    {
      "x": 9.687342643737793,
      "y": -0.05383851006627083,
      "z": 0.5539384484291077,
      "time_usec": 151662698032
    },
    {
      "x": 9.69212818145752,
      "y": -0.05383851006627083,
      "z": 0.5443671345710754,
      "time_usec": 151662700291
    },
    {
      "x": 9.696913719177246,
      "y": -0.05383851006627083,
      "z": 0.49172505736351013,
      "time_usec": 151662702549
    },
    {
      "x": 9.64965534210205,
      "y": -0.05802594870328903,
      "z": 0.49172505736351013,
      "time_usec": 151662704808
    },
    {
      "x": 9.654440879821777,
      "y": -0.04366901144385338,
      "z": 0.4821537733078003,
      "time_usec": 151662707078
    },
    {
      "x": 9.620942115783691,
      "y": -0.04366901144385338,
      "z": 0.4773681163787842,
      "time_usec": 151662709333
    },
    {
      "x": 9.578469276428223,
      "y": -0.029312077909708023,
      "z": 0.47198426723480225,
      "time_usec": 151662711581
    },
    {
      "x": 9.58325481414795,
      "y": -0.03409772366285324,
      "z": 0.47198426723480225,
      "time_usec": 151662713845
    },
    {
      "x": 9.56889820098877,
      "y": -0.029312077909708023,
      "z": 0.4624129831790924,
      "time_usec": 151662716094
    },
    {
      "x": 9.578469276428223,
      "y": -0.03409772366285324,
      "z": 0.4576273262500763,
      "time_usec": 151662718365
    },
    {
      "x": 9.574281692504883,
      "y": -0.029312077909708023,
      "z": 0.4145565330982208,
      "time_usec": 151662720616
    },
    {
      "x": 9.574281692504883,
      "y": -0.014955141581594944,
      "z": 0.4049852192401886,
      "time_usec": 151662722881
    },
    {
      "x": 9.559925079345703,
      "y": -0.019740786403417587,
      "z": 0.39062830805778503,
      "time_usec": 151662725136
    },
    {
      "x": 9.569496154785156,
      "y": 0.008973085321485996,
      "z": 0.3720839321613312,
      "time_usec": 151662727393
    },
    {
      "x": 9.550353050231934,
      "y": 0.008973085321485996,
      "z": 0.39062830805778503,
      "time_usec": 151662729646
    },
    {
      "x": 9.545567512512207,
      "y": 0.028115665540099144,
      "z": 0.4097708761692047,
      "time_usec": 151662731910
    },
    {
      "x": 9.56471061706543,
      "y": 0.052043892443180084,
      "z": 0.41934216022491455,
      "time_usec": 151662734171
    },
    {
      "x": 9.55513858795166,
      "y": 0.052043892443180084,
      "z": 0.4289134442806244,
      "time_usec": 151662736425
    },
    {
      "x": 9.55513858795166,
      "y": 0.052043892443180084,
      "z": 0.41934216022491455,
      "time_usec": 151662738681
    },
    {
      "x": 9.570094108581543,
      "y": 0.08075776696205139,
      "z": 0.4097708761692047,
      "time_usec": 151662740932
    },
    {
      "x": 9.56052303314209,
      "y": 0.08075776696205139,
      "z": 0.4049852192401886,
      "time_usec": 151662743193
    },
    {
      "x": 9.550951957702637,
      "y": 0.09032905846834183,
      "z": 0.39541393518447876,
      "time_usec": 151662745454
    },
    {
      "x": 9.565308570861816,
      "y": 0.11904292553663254,
      "z": 0.3858426511287689,
      "time_usec": 151662747709
    },
    {
      "x": 9.551549911499023,
      "y": 0.16271193325519562,
      "z": 0.36670008301734924,
      "time_usec": 151662749954
    },
    {
      "x": 9.551549911499023,
      "y": 0.1818545162677765,
      "z": 0.3858426511287689,
      "time_usec": 151662752213
    },
    {
      "x": 9.546764373779297,
      "y": 0.19142581522464752,
      "z": 0.3810569941997528,
      "time_usec": 151662754480
    },
    {
      "x": 9.561120986938477,
      "y": 0.20578274130821228,
      "z": 0.39062830805778503,
      "time_usec": 151662756746
    },
    {
      "x": 9.570094108581543,
      "y": 0.19142581522464752,
      "z": 0.4145565330982208,
      "time_usec": 151662759001
    },
    {
      "x": 9.565308570861816,
      "y": 0.17706887423992157,
      "z": 0.4336991012096405,
      "time_usec": 151662761253
    },
    {
      "x": 9.570094108581543,
      "y": 0.1579262912273407,
      "z": 0.4384847581386566,
      "time_usec": 151662763514
    },
    {
      "x": 9.584450721740723,
      "y": 0.15254244208335876,
      "z": 0.44327038526535034,
      "time_usec": 151662765772
    },
    {
      "x": 9.565308570861816,
      "y": 0.1094716340303421,
      "z": 0.4336991012096405,
      "time_usec": 151662768030
    },
    {
      "x": 9.555737495422363,
      "y": 0.08614161610603333,
      "z": 0.4336991012096405,
      "time_usec": 151662770283
    },
    {
      "x": 9.550353050231934,
      "y": 0.0526420995593071,
      "z": 0.44327038526535034,
      "time_usec": 151662772545
    },
    {
      "x": 9.574281692504883,
      "y": 0.03290131315588951,
      "z": 0.4624129831790924,
      "time_usec": 151662774803
    },
    {
      "x": 9.550353050231934,
      "y": 0.04307080805301666,
      "z": 0.4576273262500763,
      "time_usec": 151662777061
    },
    {
      "x": 9.54078197479248,
      "y": 0.0526420995593071,
      "z": 0.46719861030578613,
      "time_usec": 151662779316
    },
    {
      "x": 9.54078197479248,
      "y": 0.038285162299871445,
      "z": 0.47676992416381836,
      "time_usec": 151662781569
    },
    {
      "x": 9.545567512512207,
      "y": 0.02392822690308094,
      "z": 0.47198426723480225,
      "time_usec": 151662783832
    },
    {
      "x": 9.569496154785156,
      "y": 0.0568295381963253,
      "z": 0.4624129831790924,
      "time_usec": 151662786089
    },
    {
      "x": 9.55513858795166,
      "y": 0.04785645380616188,
      "z": 0.46719861030578613,
      "time_usec": 151662788345
    },
    {
      "x": 9.550353050231934,
      "y": 0.05742774158716202,
      "z": 0.45284169912338257,
      "time_usec": 151662790600
    },
    {
      "x": 9.55513858795166,
      "y": 0.0568295381963253,
      "z": 0.4289134442806244,
      "time_usec": 151662792864
    },
    {
      "x": 9.555737495422363,
      "y": 0.07118647545576096,
      "z": 0.4049852192401886,
      "time_usec": 151662795121
    },
    {
      "x": 9.555737495422363,
      "y": 0.07118647545576096,
      "z": 0.4097708761692047,
      "time_usec": 151662797378
    },
    {
      "x": 9.559925079345703,
      "y": 0.06161518394947052,
      "z": 0.41934216022491455,
      "time_usec": 151662799630
    },
    {
      "x": 9.570094108581543,
      "y": 0.09511470049619675,
      "z": 0.42412781715393066,
      "time_usec": 151662801893
    },
    {
      "x": 9.602995872497559,
      "y": 0.09511470049619675,
      "z": 0.4486542344093323,
      "time_usec": 151662804151
    },
    {
      "x": 9.598209381103516,
      "y": 0.09990034252405167,
      "z": 0.44386860728263855,
      "time_usec": 151662806409
    },
    {
      "x": 9.631709098815918,
      "y": 0.1094716340303421,
      "z": 0.4630111753940582,
      "time_usec": 151662808664
    },
    {
      "x": 9.635896682739258,
      "y": 0.11904292553663254,
      "z": 0.46779683232307434,
      "time_usec": 151662810915
    },
    {
      "x": 9.66939640045166,
      "y": 0.12861421704292297,
      "z": 0.4486542344093323,
      "time_usec": 151662813174
    },
    {
      "x": 9.693324089050293,
      "y": 0.1423729509115219,
      "z": 0.4486542344093323,
      "time_usec": 151662815427
    },
    {
      "x": 9.688538551330566,
      "y": 0.14297115802764893,
      "z": 0.4630111753940582,
      "time_usec": 151662817696
    },
    {
      "x": 9.721440315246582,
      "y": 0.1423729509115219,
      "z": 0.4875376224517822,
      "time_usec": 151662819951
    },
    {
      "x": 9.754940032958984,
      "y": 0.12801600992679596,
      "z": 0.4731806814670563,
      "time_usec": 151662822220
    },
    {
      "x": 9.754940032958984,
      "y": 0.1423729509115219,
      "z": 0.4827519655227661,
      "time_usec": 151662824469
    },
    {
      "x": 9.77408218383789,
      "y": 0.12801600992679596,
      "z": 0.4875376224517822,
      "time_usec": 151662826728
    },
    {
      "x": 9.811769485473633,
      "y": 0.11844471842050552,
      "z": 0.5258227586746216,
      "time_usec": 151662828982
    },
    {
      "x": 9.826126098632812,
      "y": 0.11306086927652359,
      "z": 0.511465847492218,
      "time_usec": 151662831235
    },
    {
      "x": 9.859027862548828,
      "y": 0.10827522724866867,
      "z": 0.5168496966362,
      "time_usec": 151662833495
    },
    {
      "x": 9.882955551147461,
      "y": 0.09870393574237823,
      "z": 0.5216353535652161,
      "time_usec": 151662835756
    },
    {
      "x": 9.891928672790527,
      "y": 0.0891326442360878,
      "z": 0.5264210104942322,
      "time_usec": 151662838014
    },
    {
      "x": 9.920642852783203,
      "y": 0.09870393574237823,
      "z": 0.5264210104942322,
      "time_usec": 151662840269
    },
    {
      "x": 9.920642852783203,
      "y": 0.11306086927652359,
      "z": 0.5312066078186035,
      "time_usec": 151662842529
    },
    {
      "x": 9.93978500366211,
      "y": 0.10767702013254166,
      "z": 0.5312066078186035,
      "time_usec": 151662844787
    },
    {
      "x": 9.934999465942383,
      "y": 0.13160525262355804,
      "z": 0.5264210104942322,
      "time_usec": 151662847046
    },
    {
      "x": 9.93978500366211,
      "y": 0.12203395366668701,
      "z": 0.5359922647476196,
      "time_usec": 151662849299
    },
    {
      "x": 9.944570541381836,
      "y": 0.16031911969184875,
      "z": 0.5120640397071838,
      "time_usec": 151662851547
    },
    {
      "x": 9.93978500366211,
      "y": 0.1459621787071228,
      "z": 0.5120640397071838,
      "time_usec": 151662853817
    },
    {
      "x": 9.958928108215332,
      "y": 0.16031911969184875,
      "z": 0.5222335457801819,
      "time_usec": 151662856074
    },
    {
      "x": 9.930811882019043,
      "y": 0.16031911969184875,
      "z": 0.4977070987224579,
      "time_usec": 151662858334
    },
    {
      "x": 9.916455268859863,
      "y": 0.1704886108636856,
      "z": 0.4833501875400543,
      "time_usec": 151662860585
    },
    {
      "x": 9.90688419342041,
      "y": 0.1704886108636856,
      "z": 0.45942193269729614,
      "time_usec": 151662862848
    },
    {
      "x": 9.90269660949707,
      "y": 0.18005990982055664,
      "z": 0.45942193269729614,
      "time_usec": 151662865106
    },
    {
      "x": 9.907482147216797,
      "y": 0.18005990982055664,
      "z": 0.4498506486415863,
      "time_usec": 151662867362
    },
    {
      "x": 9.902098655700684,
      "y": 0.18484555184841156,
      "z": 0.4785645306110382,
      "time_usec": 151662869615
    },
    {
      "x": 9.916455268859863,
      "y": 0.20398813486099243,
      "z": 0.4737788736820221,
      "time_usec": 151662871877
    },
    {
      "x": 9.92124080657959,
      "y": 0.20877377688884735,
      "z": 0.4977070987224579,
      "time_usec": 151662874135
    },
    {
      "x": 9.958928108215332,
      "y": 0.18424734473228455,
      "z": 0.527019202709198,
      "time_usec": 151662876394
    },
    {
      "x": 9.973284721374512,
      "y": 0.18424734473228455,
      "z": 0.5605186820030212,
      "time_usec": 151662878649
    },
    {
      "x": 9.972686767578125,
      "y": 0.14117653667926788,
      "z": 0.5838487148284912,
      "time_usec": 151662880904
    },
    {
      "x": 10.010972023010254,
      "y": 0.14117653667926788,
      "z": 0.5940182209014893,
      "time_usec": 151662883171
    },
    {
      "x": 10.006186485290527,
      "y": 0.13639089465141296,
      "z": 0.5796613097190857,
      "time_usec": 151662885423
    },
    {
      "x": 10.029516220092773,
      "y": 0.13160525262355804,
      "z": 0.5988038778305054,
      "time_usec": 151662887681
    },
    {
      "x": 10.039087295532227,
      "y": 0.13160525262355804,
      "z": 0.617946445941925,
      "time_usec": 151662889930
    },
    {
      "x": 10.057631492614746,
      "y": 0.10767702013254166,
      "z": 0.6418746709823608,
      "time_usec": 151662892191
    },
    {
      "x": 10.071989059448242,
      "y": 0.12143574655056,
      "z": 0.6370890140533447,
      "time_usec": 151662894453
    },
    {
      "x": 10.086345672607422,
      "y": 0.09272187948226929,
      "z": 0.6370890140533447,
      "time_usec": 151662896712
    },
    {
      "x": 10.119247436523438,
      "y": 0.09272187948226929,
      "z": 0.6562315821647644,
      "time_usec": 151662898968
    },
    {
      "x": 10.138389587402344,
      "y": 0.054436713457107544,
      "z": 0.6855437159538269,
      "time_usec": 151662901221
    },
    {
      "x": 10.142577171325684,
      "y": 0.049651071429252625,
      "z": 0.6999006271362305,
      "time_usec": 151662903480
    },
    {
      "x": 10.14736270904541,
      "y": 0.03529413416981697,
      "z": 0.6951149702072144,
      "time_usec": 151662905741
    },
    {
      "x": 10.14736270904541,
      "y": 0.01136590726673603,
      "z": 0.6855437159538269,
      "time_usec": 151662907999
    },
    {
      "x": 10.13300609588623,
      "y": -0.0029910283628851175,
      "z": 0.6520441770553589,
      "time_usec": 151662910254
    },
    {
      "x": 10.12881851196289,
      "y": -0.0077766734175384045,
      "z": 0.6472585201263428,
      "time_usec": 151662912513
    },
    {
      "x": 10.104889869689941,
      "y": -0.012562318705022335,
      "z": 0.6323033571243286,
      "time_usec": 151662914765
    },
    {
      "x": 10.085747718811035,
      "y": -0.026919255033135414,
      "z": 0.6227321028709412,
      "time_usec": 151662917030
    },
    {
      "x": 10.047462463378906,
      "y": -0.026919255033135414,
      "z": 0.6418746709823608,
      "time_usec": 151662919286
    },
    {
      "x": 10.047462463378906,
      "y": -0.050847481936216354,
      "z": 0.6418746709823608,
      "time_usec": 151662921541
    },
    {
      "x": 9.996016502380371,
      "y": -0.035892341285943985,
      "z": 0.5892325639724731,
      "time_usec": 151662923799
    },
    {
      "x": 9.938589096069336,
      "y": -0.05024927482008934,
      "z": 0.5790630578994751,
      "time_usec": 151662926043
    },
    {
      "x": 9.90568733215332,
      "y": -0.02632104977965355,
      "z": 0.550349235534668,
      "time_usec": 151662928302
    },
    {
      "x": 9.877572059631348,
      "y": -0.020937198773026466,
      "z": 0.5168496966362,
      "time_usec": 151662930561
    },
    {
      "x": 9.853643417358398,
      "y": -0.006580262444913387,
      "z": 0.5359922647476196,
      "time_usec": 151662932835
    },
    {
      "x": 9.81117057800293,
      "y": 0.012562318705022335,
      "z": 0.5258227586746216,
      "time_usec": 151662935092
    },
    {
      "x": 9.79681396484375,
      "y": 0.0364905446767807,
      "z": 0.5258227586746216,
      "time_usec": 151662937350
    },
    {
      "x": 9.754341125488281,
      "y": 0.02751746028661728,
      "z": 0.5306084156036377,
      "time_usec": 151662939599
    },
    {
      "x": 9.763314247131348,
      "y": 0.013160524889826775,
      "z": 0.5258227586746216,
      "time_usec": 151662941862
    },
    {
      "x": 9.744770050048828,
      "y": 0.02273181453347206,
      "z": 0.5353940725326538,
      "time_usec": 151662944119
    },
    {
      "x": 9.725627899169922,
      "y": 0.008374879136681557,
      "z": 0.5491527915000916,
      "time_usec": 151662946378
    },
    {
      "x": 9.7064847946167,
      "y": -0.02512463741004467,
      "z": 0.5300102233886719,
      "time_usec": 151662948633
    },
    {
      "x": 9.720243453979492,
      "y": -0.02512463741004467,
      "z": 0.5635097622871399,
      "time_usec": 151662950886
    },
    {
      "x": 9.739386558532715,
      "y": -0.04426721855998039,
      "z": 0.5635097622871399,
      "time_usec": 151662953150
    },
    {
      "x": 9.734601020812988,
      "y": -0.029910283163189888,
      "z": 0.5778666734695435,
      "time_usec": 151662955408
    },
    {
      "x": 9.748957633972168,
      "y": -0.04426721855998039,
      "z": 0.5874379873275757,
      "time_usec": 151662957666
    },
    {
      "x": 9.753743171691895,
      "y": -0.03469592705368996,
      "z": 0.5874379873275757,
      "time_usec": 151662959918
    },
    {
      "x": 9.763314247131348,
      "y": -0.02512463741004467,
      "z": 0.5497509837150574,
      "time_usec": 151662962176
    },
    {
      "x": 9.772886276245117,
      "y": 0.013160524889826775,
      "z": 0.5306084156036377,
      "time_usec": 151662964437
    },
    {
      "x": 9.81535816192627,
      "y": 0.037088751792907715,
      "z": 0.6933203339576721,
      "time_usec": 151662966696
    },
    {
      "x": 9.857233047485352,
      "y": 0.017946170642971992,
      "z": 0.784247636795044,
      "time_usec": 151662968953
    },
    {
      "x": 9.862018585205078,
      "y": 0.02751746028661728,
      "z": 0.7746763229370117,
      "time_usec": 151662971210
    },
    {
      "x": 9.89133071899414,
      "y": 0.026919255033135414,
      "z": 0.6693921089172363,
      "time_usec": 151662973470
    },
    {
      "x": 9.92423152923584,
      "y": -0.01196411345154047,
      "z": 0.6269195079803467,
      "time_usec": 151662975725
    },
    {
      "x": 9.943374633789062,
      "y": -0.0023928226437419653,
      "z": 0.641276478767395,
      "time_usec": 151662977982
    },
    {
      "x": 9.961918830871582,
      "y": -0.007178467698395252,
      "z": 0.6939185857772827,
      "time_usec": 151662980236
    },
    {
      "x": 9.942776679992676,
      "y": -0.025722842663526535,
      "z": 0.7130611538887024,
      "time_usec": 151662982495
    },
    {
      "x": 9.929018020629883,
      "y": -0.01615155301988125,
      "z": 0.6939185857772827,
      "time_usec": 151662984752
    },
    {
      "x": 9.942776679992676,
      "y": -0.020937198773026466,
      "z": 0.698704183101654,
      "time_usec": 151662987001
    },
    {
      "x": 9.92423152923584,
      "y": -0.01136590726673603,
      "z": 0.6843472719192505,
      "time_usec": 151662989270
    },
    {
      "x": 9.89133071899414,
      "y": -0.020937198773026466,
      "z": 0.6598208546638489,
      "time_usec": 151662991524
    },
    {
      "x": 9.876974105834961,
      "y": -0.025722842663526535,
      "z": 0.6502495408058167,
      "time_usec": 151662993789
    },
    {
      "x": 9.876974105834961,
      "y": -0.01615155301988125,
      "z": 0.631106972694397,
      "time_usec": 151662996044
    },
    {
      "x": 9.853643417358398,
      "y": 0.0029910283628851175,
      "z": 0.6119644045829773,
      "time_usec": 151662998301
    },
    {
      "x": 9.844072341918945,
      "y": -0.006580262444913387,
      "z": 0.5832505226135254,
      "time_usec": 151663000553
    },
    {
      "x": 9.824930191040039,
      "y": 0.0029910283628851175,
      "z": 0.5593222975730896,
      "time_usec": 151663002816
    },
    {
      "x": 9.792028427124023,
      "y": 0.01734796352684498,
      "z": 0.5162515044212341,
      "time_usec": 151663005074
    },
    {
      "x": 9.759127616882324,
      "y": 0.0323031060397625,
      "z": 0.47796630859375,
      "time_usec": 151663007332
    },
    {
      "x": 9.735796928405762,
      "y": 0.05144568532705307,
      "z": 0.4827519655227661,
      "time_usec": 151663009585
    },
    {
      "x": 9.716654777526855,
      "y": 0.061016976833343506,
      "z": 0.46839502453804016,
      "time_usec": 151663011847
    },
    {
      "x": 9.702896118164062,
      "y": 0.07537391036748886,
      "z": 0.4301098585128784,
      "time_usec": 151663014102
    },
    {
      "x": 9.678967475891113,
      "y": 0.09930214285850525,
      "z": 0.4103690981864929,
      "time_usec": 151663016351
    },
    {
      "x": 9.660423278808594,
      "y": 0.10887342691421509,
      "z": 0.381655216217041,
      "time_usec": 151663018615
    },
    {
      "x": 9.66520881652832,
      "y": 0.1423729509115219,
      "z": 0.3720839321613312,
      "time_usec": 151663020871
    },
    {
      "x": 9.6466646194458,
      "y": 0.17168502509593964,
      "z": 0.36251261830329895,
      "time_usec": 151663023137
    },
    {
      "x": 9.627521514892578,
      "y": 0.1621137410402298,
      "z": 0.33858439326286316,
      "time_usec": 151663025392
    },
    {
      "x": 9.613762855529785,
      "y": 0.18125630915164948,
      "z": 0.33379876613616943,
      "time_usec": 151663027650
    },
    {
      "x": 9.565906524658203,
      "y": 0.18125630915164948,
      "z": 0.3290131092071533,
      "time_usec": 151663029903
    },
    {
      "x": 9.575477600097656,
      "y": 0.17168502509593964,
      "z": 0.3194418251514435,
      "time_usec": 151663032170
    },
    {
      "x": 9.589835166931152,
      "y": 0.17647066712379456,
      "z": 0.3481557071208954,
      "time_usec": 151663034422
    },
    {
      "x": 9.598808288574219,
      "y": 0.15254244208335876,
      "z": 0.38644084334373474,
      "time_usec": 151663036681
    },
    {
      "x": 9.612566947937012,
