{
  "frames": [
    {
      "frame_id": 0,
      "sensor_timestamp": 151662475591746,
      "time_usec": 151662475591
    },
    {
      "frame_id": 1,
      "sensor_timestamp": 151662542084422,
      "time_usec": 151662542084
    },
    {
      "frame_id": 2,
      "sensor_timestamp": 151662575331004,
      "time_usec": 151662575331
    },
    {
      "frame_id": 3,
      "sensor_timestamp": 151662608577342,
      "time_usec": 151662608577
    },
    {
      "frame_id": 4,
      "sensor_timestamp": 151662641823680,
      "time_usec": 151662641823
    },
    {
      "frame_id": 5,
      "sensor_timestamp": 151662675070018,
      "time_usec": 151662675070
    },
    {
      "frame_id": 6,
      "sensor_timestamp": 151662708316600,
      "time_usec": 151662708316
    },
    {
      "frame_id": 7,
      "sensor_timestamp": 151662741562938,
      "time_usec": 151662741562
    },
    {
      "frame_id": 8,
      "sensor_timestamp": 151662774809276,
      "time_usec": 151662774809
    },
    {
      "frame_id": 9,
      "sensor_timestamp": 151662808055613,
      "time_usec": 151662808055
    },
    {
      "frame_id": 10,
      "sensor_timestamp": 151662841302195,
      "time_usec": 151662841302
    },
    {
      "frame_id": 11,
      "sensor_timestamp": 151662874548533,
      "time_usec": 151662874548
    },
    {
      "frame_id": 12,
      "sensor_timestamp": 151662907794871,
      "time_usec": 151662907794
    },
    {
      "frame_id": 13,
      "sensor_timestamp": 151662941041209,
      "time_usec": 151662941041
    },
    {
      "frame_id": 14,
      "sensor_timestamp": 151662974287791,
      "time_usec": 151662974287
    },
    {
      "frame_id": 15,
      "sensor_timestamp": 151663007534129,
      "time_usec": 151663007534
    },
    {
      "frame_id": 16,
      "sensor_timestamp": 151663040780467,
      "time_usec": 151663040780
    },
    {
      "frame_id": 17,
      "sensor_timestamp": 151663074026805,
      "time_usec": 151663074026
    },
    {
      "frame_id": 18,
      "sensor_timestamp": 151663107273143,
      "time_usec": 151663107273
    },
    {
      "frame_id": 19,
      "sensor_timestamp": 151663140519725,
      "time_usec": 151663140519
    },
    {
      "frame_id": 20,
      "sensor_timestamp": 151663173766063,
      "time_usec": 151663173766
    },
    {
      "frame_id": 21,
      "sensor_timestamp": 151663207012401,
      "time_usec": 151663207012
    },
    {
      "frame_id": 22,
      "sensor_timestamp": 151663240258738,
      "time_usec": 151663240258
    },
    {
      "frame_id": 23,
      "sensor_timestamp": 151663273505320,
      "time_usec": 151663273505
    },
    {
      "frame_id": 24,
      "sensor_timestamp": 151663306751658,
      "time_usec": 151663306751
    },
    {
      "frame_id": 25,
      "sensor_timestamp": 151663339997996,
      "time_usec": 151663339997
    },
    {
      "frame_id": 26,
      "sensor_timestamp": 151663373244334,
      "time_usec": 151663373244
    },
    {
      "frame_id": 27,
      "sensor_timestamp": 151663406490916,
      "time_usec": 151663406490
    },
    {
      "frame_id": 28,
      "sensor_timestamp": 151663439737254,
      "time_usec": 151663439737
    },
    {
      "frame_id": 29,
      "sensor_timestamp": 151663472983592,
      "time_usec": 151663472983
    },
    {
      "frame_id": 30,
      "sensor_timestamp": 151663506229930,
      "time_usec": 151663506229
    },
    {
      "frame_id": 31,
      "sensor_timestamp": 151663539476512,
      "time_usec": 151663539476
    },
    {
      "frame_id": 32,
      "sensor_timestamp": 151663572722850,
      "time_usec": 151663572722
    },
    {
      "frame_id": 33,
      "sensor_timestamp": 151663605969188,
      "time_usec": 151663605969
    },
    {
      "frame_id": 34,
      "sensor_timestamp": 151663639215526,
      "time_usec": 151663639215
    },
    {
      "frame_id": 35,
      "sensor_timestamp": 151663672462108,
      "time_usec": 151663672462
    },
    {
      "frame_id": 36,
      "sensor_timestamp": 151663705708445,
      "time_usec": 151663705708
    },
    {
      "frame_id": 37,
      "sensor_timestamp": 151663738954783,
      "time_usec": 151663738954
    },
    {
      "frame_id": 38,
      "sensor_timestamp": 151663772201121,
      "time_usec": 151663772201
    },
    {
      "frame_id": 39,
      "sensor_timestamp": 151663805447703,
      "time_usec": 151663805447
    },
    {
      "frame_id": 40,
      "sensor_timestamp": 151663838694041,
      "time_usec": 151663838694
    },
    {
      "frame_id": 41,
      "sensor_timestamp": 151663871940379,
      "time_usec": 151663871940
    },
    {
      "frame_id": 42,
      "sensor_timestamp": 151663905186717,
      "time_usec": 151663905186
    },
    {
      "frame_id": 43,
      "sensor_timestamp": 151663938433299,
      "time_usec": 151663938433
    },
    {
      "frame_id": 44,
      "sensor_timestamp": 151663971679637,
      "time_usec": 151663971679
    },
    {
      "frame_id": 45,
      "sensor_timestamp": 151664004873815,
      "time_usec": 151664004873
    },
    {
      "frame_id": 46,
      "sensor_timestamp": 151664038172313,
      "time_usec": 151664038172
    },
    {
      "frame_id": 47,
      "sensor_timestamp": 151664071418895,
      "time_usec": 151664071418
    },
    {
      "frame_id": 48,
      "sensor_timestamp": 151664104665233,
      "time_usec": 151664104665
    },
    {
      "frame_id": 49,
      "sensor_timestamp": 151664137911570,
      "time_usec": 151664137911
    },
    {
      "frame_id": 50,
      "sensor_timestamp": 151664171157908,
      "time_usec": 151664171157
    },
    {
      "frame_id": 51,
      "sensor_timestamp": 151664204404490,
      "time_usec": 151664204404
    },
    {
      "frame_id": 52,
      "sensor_timestamp": 151664237650828,
      "time_usec": 151664237650
    },
    {
      "frame_id": 53,
      "sensor_timestamp": 151664270897166,
      "time_usec": 151664270897
    },
    {
      "frame_id": 54,
      "sensor_timestamp": 151664304143504,
      "time_usec": 151664304143
    },
    {
      "frame_id": 55,
      "sensor_timestamp": 151664337390086,
      "time_usec": 151664337390
    },
    {
      "frame_id": 56,
      "sensor_timestamp": 151664370636424,
      "time_usec": 151664370636
    },
    {
      "frame_id": 57,
      "sensor_timestamp": 151664403882762,
      "time_usec": 151664403882
    },
    {
      "frame_id": 58,
      "sensor_timestamp": 151664437129100,
      "time_usec": 151664437129
    },
    {
      "frame_id": 59,
      "sensor_timestamp": 151664470375438,
      "time_usec": 151664470375
    },
    {
      "frame_id": 60,
      "sensor_timestamp": 151664503622020,
      "time_usec": 151664503622
    },
    {
      "frame_id": 61,
      "sensor_timestamp": 151664536868358,
      "time_usec": 151664536868
    },
    {
      "frame_id": 62,
      "sensor_timestamp": 151664570114695,
      "time_usec": 151664570114
    },
    {
      "frame_id": 63,
      "sensor_timestamp": 151664603361033,
      "time_usec": 151664603361
    },
    {
      "frame_id": 64,
      "sensor_timestamp": 151664636607615,
      "time_usec": 151664636607
    },
    {
      "frame_id": 65,
      "sensor_timestamp": 151664669853953,
      "time_usec": 151664669853
    },
    {
      "frame_id": 66,
      "sensor_timestamp": 151664703100291,
      "time_usec": 151664703100
    },
    {
      "frame_id": 67,
      "sensor_timestamp": 151664736346629,
      "time_usec": 151664736346
    },
    {
      "frame_id": 68,
      "sensor_timestamp": 151664769593211,
      "time_usec": 151664769593
    },
    {
      "frame_id": 69,
      "sensor_timestamp": 151664802839549,
      "time_usec": 151664802839
    },
    {
      "frame_id": 70,
      "sensor_timestamp": 151664836085887,
      "time_usec": 151664836085
    },
    {
      "frame_id": 71,
      "sensor_timestamp": 151664869332225,
      "time_usec": 151664869332
    },
    {
      "frame_id": 72,
      "sensor_timestamp": 151664902578807,
      "time_usec": 151664902578
    },
    {
      "frame_id": 73,
      "sensor_timestamp": 151664935825145,
      "time_usec": 151664935825
    },
    {
      "frame_id": 74,
      "sensor_timestamp": 151664969071483,
      "time_usec": 151664969071
    },
    {
      "frame_id": 75,
      "sensor_timestamp": 151665002317820,
      "time_usec": 151665002317
    },
    {
      "frame_id": 76,
      "sensor_timestamp": 151665035564403,
      "time_usec": 151665035564
    },
    {
      "frame_id": 77,
      "sensor_timestamp": 151665068810740,
      "time_usec": 151665068810
    },
    {
      "frame_id": 78,
      "sensor_timestamp": 151665102057078,
      "time_usec": 151665102057
    },
    {
      "frame_id": 79,
      "sensor_timestamp": 151665135303416,
      "time_usec": 151665135303
    },
    {
      "frame_id": 80,
      "sensor_timestamp": 151665168549998,
      "time_usec": 151665168549
    },
    {
      "frame_id": 81,
      "sensor_timestamp": 151665201796336,
      "time_usec": 151665201796
    },
    {
      "frame_id": 82,
      "sensor_timestamp": 151665235042674,
      "time_usec": 151665235042
    },
    {
      "frame_id": 83,
      "sensor_timestamp": 151665268289012,
      "time_usec": 151665268289
    },
    {
      "frame_id": 84,
      "sensor_timestamp": 151665301535594,
      "time_usec": 151665301535
    },
    {
      "frame_id": 85,
      "sensor_timestamp": 151665334781932,
      "time_usec": 151665334781
    },
    {
      "frame_id": 86,
      "sensor_timestamp": 151665368028270,
      "time_usec": 151665368028
    },
    {
      "frame_id": 87,
      "sensor_timestamp": 151665401274608,
      "time_usec": 151665401274
    },
    {
      "frame_id": 88,
      "sensor_timestamp": 151665434521190,
      "time_usec": 151665434521
    },
    {
      "frame_id": 89,
      "sensor_timestamp": 151665467767528,
      "time_usec": 151665467767
    },
    {
      "frame_id": 90,
      "sensor_timestamp": 151665501013865,
      "time_usec": 151665501013
    },
    {
      "frame_id": 91,
      "sensor_timestamp": 151665534260203,
      "time_usec": 151665534260
    },
    {
      "frame_id": 92,
      "sensor_timestamp": 151665567506785,
      "time_usec": 151665567506
    },
    {
      "frame_id": 93,
      "sensor_timestamp": 151665600753123,
      "time_usec": 151665600753
    },
    {
      "frame_id": 94,
      "sensor_timestamp": 151665633999461,
      "time_usec": 151665633999
    },
    {
      "frame_id": 95,
      "sensor_timestamp": 151665667245799,
      "time_usec": 151665667245
    },
    {
      "frame_id": 96,
      "sensor_timestamp": 151665700492137,
      "time_usec": 151665700492
    },
    {
      "frame_id": 97,
      "sensor_timestamp": 151665733738719,
      "time_usec": 151665733738
    },
    {
      "frame_id": 98,
      "sensor_timestamp": 151665766985057,
      "time_usec": 151665766985
    },
    {
      "frame_id": 99,
      "sensor_timestamp": 151665800231395,
      "time_usec": 151665800231
    },
    {
      "frame_id": 100,
      "sensor_timestamp": 151665833477733,
      "time_usec": 151665833477
    },
    {
      "frame_id": 101,
      "sensor_timestamp": 151665866724315,
      "time_usec": 151665866724
    },
    {
      "frame_id": 102,
      "sensor_timestamp": 151665899970653,
      "time_usec": 151665899970
    },
    {
      "frame_id": 103,
      "sensor_timestamp": 151665933216990,
      "time_usec": 151665933216
    },
    {
      "frame_id": 104,
      "sensor_timestamp": 151665966463328,
      "time_usec": 151665966463
    },
    {
      "frame_id": 105,
      "sensor_timestamp": 151665999709910,
      "time_usec": 151665999709
    },
    {
      "frame_id": 106,
      "sensor_timestamp": 151666032956248,
      "time_usec": 151666032956
    },
    {
      "frame_id": 107,
      "sensor_timestamp": 151666066202586,
      "time_usec": 151666066202
    },
    {
      "frame_id": 108,
      "sensor_timestamp": 151666099448924,
      "time_usec": 151666099448
    },
    {
      "frame_id": 109,
      "sensor_timestamp": 151666132695506,
      "time_usec": 151666132695
    },
    {
      "frame_id": 110,
      "sensor_timestamp": 151666165941844,
      "time_usec": 151666165941
    },
    {
      "frame_id": 111,
      "sensor_timestamp": 151666199188182,
      "time_usec": 151666199188
    },
    {
      "frame_id": 112,
      "sensor_timestamp": 151666232434520,
      "time_usec": 151666232434
    },
    {
      "frame_id": 113,
      "sensor_timestamp": 151666265681102,
      "time_usec": 151666265681
    },
    {
      "frame_id": 114,
      "sensor_timestamp": 151666298927440,
      "time_usec": 151666298927
    },
    {
      "frame_id": 115,
      "sensor_timestamp": 151666332173778,
      "time_usec": 151666332173
    },
    {
      "frame_id": 116,
      "sensor_timestamp": 151666365420115,
      "time_usec": 151666365420
    },
    {
      "frame_id": 117,
      "sensor_timestamp": 151666398666697,
      "time_usec": 151666398666
    },
    {
      "frame_id": 118,
      "sensor_timestamp": 151666431913035,
      "time_usec": 151666431913
    },
    {
      "frame_id": 119,
      "sensor_timestamp": 151666465159373,
      "time_usec": 151666465159
    },
    {
      "frame_id": 120,
      "sensor_timestamp": 151666498405711,
      "time_usec": 151666498405
    },
    {
      "frame_id": 121,
      "sensor_timestamp": 151666531652293,
      "time_usec": 151666531652
    },
    {
      "frame_id": 122,
      "sensor_timestamp": 151666564898631,
      "time_usec": 151666564898
    },
    {
      "frame_id": 123,
      "sensor_timestamp": 151666598144969,
      "time_usec": 151666598144
    },
    {
      "frame_id": 124,
      "sensor_timestamp": 151666631391307,
      "time_usec": 151666631391
    },
    {
      "frame_id": 125,
      "sensor_timestamp": 151666664637889,
      "time_usec": 151666664637
    },
    {
      "frame_id": 126,
      "sensor_timestamp": 151666697884227,
      "time_usec": 151666697884
    },
    {
      "frame_id": 127,
      "sensor_timestamp": 151666731130565,
      "time_usec": 151666731130
    },
    {
      "frame_id": 128,
      "sensor_timestamp": 151666764376903,
      "time_usec": 151666764376
    },
    {
      "frame_id": 129,
      "sensor_timestamp": 151666797623240,
      "time_usec": 151666797623
    },
    {
      "frame_id": 130,
      "sensor_timestamp": 151666830869822,
      "time_usec": 151666830869
    },
    {
      "frame_id": 131,
      "sensor_timestamp": 151666864116160,
      "time_usec": 151666864116
    },
    {
      "frame_id": 132,
      "sensor_timestamp": 151666897362498,
      "time_usec": 151666897362
    },
    {
      "frame_id": 133,
      "sensor_timestamp": 151666930608836,
      "time_usec": 151666930608
    },
    {
      "frame_id": 134,
      "sensor_timestamp": 151666963855418,
      "time_usec": 151666963855
    },
    {
      "frame_id": 135,
      "sensor_timestamp": 151666997101756,
      "time_usec": 151666997101
    },
    {
      "frame_id": 136,
      "sensor_timestamp": 151667030348094,
      "time_usec": 151667030348
    },
    {
      "frame_id": 137,
      "sensor_timestamp": 151667063594432,
      "time_usec": 151667063594
    },
    {
      "frame_id": 138,
      "sensor_timestamp": 151667096841014,
      "time_usec": 151667096841
    },
    {
      "frame_id": 139,
      "sensor_timestamp": 151667130087352,
      "time_usec": 151667130087
    },
    {
      "frame_id": 140,
      "sensor_timestamp": 151667163333690,
      "time_usec": 151667163333
    },
    {
      "frame_id": 141,
      "sensor_timestamp": 151667196580028,
      "time_usec": 151667196580
    },
    {
      "frame_id": 142,
      "sensor_timestamp": 151667229826610,
      "time_usec": 151667229826
    },
    {
      "frame_id": 143,
      "sensor_timestamp": 151667263072947,
      "time_usec": 151667263072
    },
    {
      "frame_id": 144,
      "sensor_timestamp": 151667296319285,
      "time_usec": 151667296319
    },
    {
      "frame_id": 145,
      "sensor_timestamp": 151667329565623,
      "time_usec": 151667329565
    },
    {
      "frame_id": 146,
      "sensor_timestamp": 151667362812205,
      "time_usec": 151667362812
    },
    {
      "frame_id": 147,
      "sensor_timestamp": 151667396058543,
      "time_usec": 151667396058
    },
    {
      "frame_id": 148,
      "sensor_timestamp": 151667429304881,
      "time_usec": 151667429304
    },
    {
      "frame_id": 149,
      "sensor_timestamp": 151667462551219,
      "time_usec": 151667462551
    },
    {
      "frame_id": 150,
      "sensor_timestamp": 151667495797801,
      "time_usec": 151667495797
    },
    {
      "frame_id": 151,
      "sensor_timestamp": 151667529044139,
      "time_usec": 151667529044
    },
    {
      "frame_id": 152,
      "sensor_timestamp": 151667562290477,
      "time_usec": 151667562290
    },
    {
      "frame_id": 153,
      "sensor_timestamp": 151667595536815,
      "time_usec": 151667595536
    },
    {
      "frame_id": 154,
      "sensor_timestamp": 151667628783397,
      "time_usec": 151667628783
    },
    {
      "frame_id": 155,
      "sensor_timestamp": 151667662029735,
      "time_usec": 151667662029
    },
    {
      "frame_id": 156,
      "sensor_timestamp": 151667695276072,
      "time_usec": 151667695276
    },
    {
      "frame_id": 157,
      "sensor_timestamp": 151667728522410,
      "time_usec": 151667728522
    },
    {
      "frame_id": 158,
      "sensor_timestamp": 151667761768992,
      "time_usec": 151667761768
    },
    {
      "frame_id": 159,
      "sensor_timestamp": 151667795015330,
      "time_usec": 151667795015
    },
    {
      "frame_id": 160,
      "sensor_timestamp": 151667828261668,
      "time_usec": 151667828261
    },
    {
      "frame_id": 161,
      "sensor_timestamp": 151667861508006,
      "time_usec": 151667861508
    },
    {
      "frame_id": 162,
      "sensor_timestamp": 151667894754588,
      "time_usec": 151667894754
    },
    {
      "frame_id": 163,
      "sensor_timestamp": 151667928000926,
      "time_usec": 151667928000
    },
    {
      "frame_id": 164,
      "sensor_timestamp": 151667961247264,
      "time_usec": 151667961247
    },
    {
      "frame_id": 165,
      "sensor_timestamp": 151667994493602,
      "time_usec": 151667994493
    },
    {
      "frame_id": 166,
      "sensor_timestamp": 151668027871457,
      "time_usec": 151668027871
    },
    {
      "frame_id": 167,
      "sensor_timestamp": 151668060986522,
      "time_usec": 151668060986
    },
    {
      "frame_id": 168,
      "sensor_timestamp": 151668094232860,
      "time_usec": 151668094232
    },
    {
      "frame_id": 169,
      "sensor_timestamp": 151668127479197,
      "time_usec": 151668127479
    },
    {
      "frame_id": 170,
      "sensor_timestamp": 151668160725535,
      "time_usec": 151668160725
    },
    {
      "frame_id": 171,
      "sensor_timestamp": 151668193972117,
      "time_usec": 151668193972
    },
    {
      "frame_id": 172,
      "sensor_timestamp": 151668227218455,
      "time_usec": 151668227218
    },
    {
      "frame_id": 173,
      "sensor_timestamp": 151668260569415,
      "time_usec": 151668260569
    },
    {
      "frame_id": 174,
      "sensor_timestamp": 151668293711131,
      "time_usec": 151668293711
    },
    {
      "frame_id": 175,
      "sensor_timestamp": 151668326957713,
      "time_usec": 151668326957
    },
    {
      "frame_id": 176,
      "sensor_timestamp": 151668360204051,
      "time_usec": 151668360204
    },
    {
      "frame_id": 177,
      "sensor_timestamp": 151668393450389,
      "time_usec": 151668393450
    },
    {
      "frame_id": 178,
      "sensor_timestamp": 151668426696727,
      "time_usec": 151668426696
    },
    {
      "frame_id": 179,
      "sensor_timestamp": 151668459943309,
      "time_usec": 151668459943
    },
    {
      "frame_id": 180,
      "sensor_timestamp": 151668493189647,
      "time_usec": 151668493189
    },
    {
      "frame_id": 181,
      "sensor_timestamp": 151668526435985,
      "time_usec": 151668526435
    },
    {
      "frame_id": 182,
      "sensor_timestamp": 151668559682322,
      "time_usec": 151668559682
    },
    {
      "frame_id": 183,
      "sensor_timestamp": 151668592928904,
      "time_usec": 151668592928
    },
    {
      "frame_id": 184,
      "sensor_timestamp": 151668626175242,
      "time_usec": 151668626175
    },
    {
      "frame_id": 185,
      "sensor_timestamp": 151668659421580,
      "time_usec": 151668659421
    },
    {
      "frame_id": 186,
      "sensor_timestamp": 151668692667918,
      "time_usec": 151668692667
    },
    {
      "frame_id": 187,
      "sensor_timestamp": 151668725914500,
      "time_usec": 151668725914
    },
    {
      "frame_id": 188,
      "sensor_timestamp": 151668759160838,
      "time_usec": 151668759160
    },
    {
      "frame_id": 189,
      "sensor_timestamp": 151668792407176,
      "time_usec": 151668792407
    },
    {
      "frame_id": 190,
      "sensor_timestamp": 151668825653514,
      "time_usec": 151668825653
    },
    {
      "frame_id": 191,
      "sensor_timestamp": 151668858900096,
      "time_usec": 151668858900
    },
    {
      "frame_id": 192,
      "sensor_timestamp": 151668892146434,
      "time_usec": 151668892146
    },
    {
      "frame_id": 193,
      "sensor_timestamp": 151668925392772,
      "time_usec": 151668925392
    },
    {
      "frame_id": 194,
      "sensor_timestamp": 151668958639110,
      "time_usec": 151668958639
    },
    {
      "frame_id": 195,
      "sensor_timestamp": 151668991885692,
      "time_usec": 151668991885
    },
    {
      "frame_id": 196,
      "sensor_timestamp": 151669025132029,
      "time_usec": 151669025132
    },
    {
      "frame_id": 197,
      "sensor_timestamp": 151669058378367,
      "time_usec": 151669058378
    },
    {
      "frame_id": 198,
      "sensor_timestamp": 151669091624705,
      "time_usec": 151669091624
    },
    {
      "frame_id": 199,
      "sensor_timestamp": 151669124871287,
      "time_usec": 151669124871
    },
    {
      "frame_id": 200,
      "sensor_timestamp": 151669158117625,
      "time_usec": 151669158117
    },
    {
      "frame_id": 201,
      "sensor_timestamp": 151669191363963,
      "time_usec": 151669191363
    },
    {
      "frame_id": 202,
      "sensor_timestamp": 151669224610301,
      "time_usec": 151669224610
    },
    {
      "frame_id": 203,
      "sensor_timestamp": 151669257856639,
      "time_usec": 151669257856
    },
    {
      "frame_id": 204,
      "sensor_timestamp": 151669291103221,
      "time_usec": 151669291103
    },
    {
      "frame_id": 205,
      "sensor_timestamp": 151669324349559,
      "time_usec": 151669324349
    },
    {
      "frame_id": 206,
      "sensor_timestamp": 151669357595897,
      "time_usec": 151669357595
    },
    {
      "frame_id": 207,
      "sensor_timestamp": 151669390842235,
      "time_usec": 151669390842
    },
    {
      "frame_id": 208,
      "sensor_timestamp": 151669424088817,
      "time_usec": 151669424088
    },
    {
      "frame_id": 209,
      "sensor_timestamp": 151669457335154,
      "time_usec": 151669457335
    },
    {
      "frame_id": 210,
      "sensor_timestamp": 151669490581492,
      "time_usec": 151669490581
    },
    {
      "frame_id": 211,
      "sensor_timestamp": 151669523827830,
      "time_usec": 151669523827
    },
    {
      "frame_id": 212,
      "sensor_timestamp": 151669557074412,
      "time_usec": 151669557074
    },
    {
      "frame_id": 213,
      "sensor_timestamp": 151669590320750,
      "time_usec": 151669590320
    },
    {
      "frame_id": 214,
      "sensor_timestamp": 151669623567088,
      "time_usec": 151669623567
    },
    {
      "frame_id": 215,
      "sensor_timestamp": 151669656813426,
      "time_usec": 151669656813
    },
    {
      "frame_id": 216,
      "sensor_timestamp": 151669690010944,
      "time_usec": 151669690010
    },
    {
      "frame_id": 217,
      "sensor_timestamp": 151669723306346,
      "time_usec": 151669723306
    },
    {
      "frame_id": 218,
      "sensor_timestamp": 151669756552684,
      "time_usec": 151669756552
    },
    {
      "frame_id": 219,
      "sensor_timestamp": 151669789799022,
      "time_usec": 151669789799
    },
    {
      "frame_id": 220,
      "sensor_timestamp": 151669823045604,
      "time_usec": 151669823045
    },
    {
      "frame_id": 221,
      "sensor_timestamp": 151669856291942,
      "time_usec": 151669856291
    },
    {
      "frame_id": 222,
      "sensor_timestamp": 151669889538279,
      "time_usec": 151669889538
    },
    {
      "frame_id": 223,
      "sensor_timestamp": 151669922784617,
      "time_usec": 151669922784
    },
    {
      "frame_id": 224,
      "sensor_timestamp": 151669956031199,
      "time_usec": 151669956031
    },
    {
      "frame_id": 225,
      "sensor_timestamp": 151669989277537,
      "time_usec": 151669989277
    },
    {
      "frame_id": 226,
      "sensor_timestamp": 151670022523875,
      "time_usec": 151670022523
    },
    {
      "frame_id": 227,
      "sensor_timestamp": 151670055770213,
      "time_usec": 151670055770
    },
    {
      "frame_id": 228,
      "sensor_timestamp": 151670089016795,
      "time_usec": 151670089016
    },
    {
      "frame_id": 229,
      "sensor_timestamp": 151670122263133,
      "time_usec": 151670122263
    },
    {
      "frame_id": 230,
      "sensor_timestamp": 151670155509471,
      "time_usec": 151670155509
    },
    {
      "frame_id": 231,
      "sensor_timestamp": 151670188755809,
      "time_usec": 151670188755
    },
    {
      "frame_id": 232,
      "sensor_timestamp": 151670222002391,
      "time_usec": 151670222002
    },
    {
      "frame_id": 233,
      "sensor_timestamp": 151670255248729,
      "time_usec": 151670255248
    },
    {
      "frame_id": 234,
      "sensor_timestamp": 151670288495067,
      "time_usec": 151670288495
    },
    {
      "frame_id": 235,
      "sensor_timestamp": 151670321741404,
      "time_usec": 151670321741
    },
    {
      "frame_id": 236,
      "sensor_timestamp": 151670354987987,
      "time_usec": 151670354987
    },
    {
      "frame_id": 237,
      "sensor_timestamp": 151670388234324,
      "time_usec": 151670388234
    },
    {
      "frame_id": 238,
      "sensor_timestamp": 151670421480662,
      "time_usec": 151670421480
    },
    {
      "frame_id": 239,
      "sensor_timestamp": 151670454727000,
      "time_usec": 151670454727
    },
    {
      "frame_id": 240,
      "sensor_timestamp": 151670487973338,
      "time_usec": 151670487973
    },
    {
      "frame_id": 241,
      "sensor_timestamp": 151670521219920,
      "time_usec": 151670521219
    },
    {
      "frame_id": 242,
      "sensor_timestamp": 151670554466258,
      "time_usec": 151670554466
    },
    {
      "frame_id": 243,
      "sensor_timestamp": 151670587712596,
      "time_usec": 151670587712
    },
    {
      "frame_id": 244,
      "sensor_timestamp": 151670620958934,
      "time_usec": 151670620958
    },
    {
      "frame_id": 245,
      "sensor_timestamp": 151670654205516,
      "time_usec": 151670654205
    },
    {
      "frame_id": 246,
      "sensor_timestamp": 151670687451854,
      "time_usec": 151670687451
    },
    {
      "frame_id": 247,
      "sensor_timestamp": 151670720698192,
      "time_usec": 151670720698
    },
    {
      "frame_id": 248,
      "sensor_timestamp": 151670753944529,
      "time_usec": 151670753944
    },
    {
      "frame_id": 249,
      "sensor_timestamp": 151670787191112,
      "time_usec": 151670787191
    },
    {
      "frame_id": 250,
      "sensor_timestamp": 151670820437449,
      "time_usec": 151670820437
    },
    {
      "frame_id": 251,
      "sensor_timestamp": 151670853683787,
      "time_usec": 151670853683
    },
    {
      "frame_id": 252,
      "sensor_timestamp": 151670886930125,
      "time_usec": 151670886930
    },
    {
      "frame_id": 253,
      "sensor_timestamp": 151670920176707,
      "time_usec": 151670920176
    },
    {
      "frame_id": 254,
      "sensor_timestamp": 151670953423045,
      "time_usec": 151670953423
    },
    {
      "frame_id": 255,
      "sensor_timestamp": 151670986669383,
      "time_usec": 151670986669
    },
    {
      "frame_id": 256,
      "sensor_timestamp": 151671019915721,
      "time_usec": 151671019915
    },
    {
      "frame_id": 257,
      "sensor_timestamp": 151671053162303,
      "time_usec": 151671053162
    },
    {
      "frame_id": 258,
      "sensor_timestamp": 151671086408641,
      "time_usec": 151671086408
    },
    {
      "frame_id": 259,
      "sensor_timestamp": 151671119654979,
      "time_usec": 151671119654
    },
    {
      "frame_id": 260,
      "sensor_timestamp": 151671152901317,
      "time_usec": 151671152901
    },
    {
      "frame_id": 261,
      "sensor_timestamp": 151671186147899,
      "time_usec": 151671186147
    },
    {
      "frame_id": 262,
      "sensor_timestamp": 151671219394237,
      "time_usec": 151671219394
    },
    {
      "frame_id": 263,
      "sensor_timestamp": 151671252640574,
      "time_usec": 151671252640
    },
    {
      "frame_id": 264,
      "sensor_timestamp": 151671285886912,
      "time_usec": 151671285886
    },
    {
      "frame_id": 265,
      "sensor_timestamp": 151671319133494,
      "time_usec": 151671319133
    },
    {
      "frame_id": 266,
      "sensor_timestamp": 151671352331949,
      "time_usec": 151671352331
    },
    {
      "frame_id": 267,
      "sensor_timestamp": 151671385626170,
      "time_usec": 151671385626
    },
    {
      "frame_id": 268,
      "sensor_timestamp": 151671418834390,
      "time_usec": 151671418834
    },
    {
      "frame_id": 269,
      "sensor_timestamp": 151671452119090,
      "time_usec": 151671452119
    },
    {
      "frame_id": 270,
      "sensor_timestamp": 151671485365428,
      "time_usec": 151671485365
    },
    {
      "frame_id": 271,
      "sensor_timestamp": 151671518611766,
      "time_usec": 151671518611
    },
    {
      "frame_id": 272,
      "sensor_timestamp": 151671551858104,
      "time_usec": 151671551858
    },
    {
      "frame_id": 273,
      "sensor_timestamp": 151671585104686,
      "time_usec": 151671585104
    },
    {
      "frame_id": 274,
      "sensor_timestamp": 151671618351024,
      "time_usec": 151671618351
    },
    {
      "frame_id": 275,
      "sensor_timestamp": 151671651597362,
      "time_usec": 151671651597
    },
    {
      "frame_id": 276,
      "sensor_timestamp": 151671684843699,
      "time_usec": 151671684843
    },
    {
      "frame_id": 277,
      "sensor_timestamp": 151671718090037,
      "time_usec": 151671718090
    },
    {
      "frame_id": 278,
      "sensor_timestamp": 151671751336619,
      "time_usec": 151671751336
    },
    {
      "frame_id": 279,
      "sensor_timestamp": 151671784582957,
      "time_usec": 151671784582
    },
    {
      "frame_id": 280,
      "sensor_timestamp": 151671817829295,
      "time_usec": 151671817829
    },
    {
      "frame_id": 281,
      "sensor_timestamp": 151671851075633,
      "time_usec": 151671851075
    },
    {
      "frame_id": 282,
      "sensor_timestamp": 151671884322215,
      "time_usec": 151671884322
    },
    {
      "frame_id": 283,
      "sensor_timestamp": 151671917568553,
      "time_usec": 151671917568
    },
    {
      "frame_id": 284,
      "sensor_timestamp": 151671950814891,
      "time_usec": 151671950814
    },
    {
      "frame_id": 285,
      "sensor_timestamp": 151671984061229,
      "time_usec": 151671984061
    },
    {
      "frame_id": 286,
      "sensor_timestamp": 151672017307811,
      "time_usec": 151672017307
    },
    {
      "frame_id": 287,
      "sensor_timestamp": 151672050554149,
      "time_usec": 151672050554
    },
    {
      "frame_id": 288,
      "sensor_timestamp": 151672083800487,
      "time_usec": 151672083800
    },
    {
      "frame_id": 289,
      "sensor_timestamp": 151672117046824,
      "time_usec": 151672117046
    },
    {
      "frame_id": 290,
      "sensor_timestamp": 151672150293406,
      "time_usec": 151672150293
    },
    {
      "frame_id": 291,
      "sensor_timestamp": 151672183539744,
      "time_usec": 151672183539
    },
    {
      "frame_id": 292,
      "sensor_timestamp": 151672216786082,
      "time_usec": 151672216786
    },
    {
      "frame_id": 293,
      "sensor_timestamp": 151672250032420,
      "time_usec": 151672250032
    },
    {
      "frame_id": 294,
      "sensor_timestamp": 151672283279002,
      "time_usec": 151672283279
    },
    {
      "frame_id": 295,
      "sensor_timestamp": 151672316525340,
      "time_usec": 151672316525
    },
    {
      "frame_id": 296,
      "sensor_timestamp": 151672349771678,
      "time_usec": 151672349771
    },
    {
      "frame_id": 297,
      "sensor_timestamp": 151672383018016,
      "time_usec": 151672383018
    },
    {
      "frame_id": 298,
      "sensor_timestamp": 151672416264598,
      "time_usec": 151672416264
    },
    {
      "frame_id": 299,
      "sensor_timestamp": 151672449510936,
      "time_usec": 151672449510
    },
    {
      "frame_id": 300,
      "sensor_timestamp": 151672482757274,
      "time_usec": 151672482757
    },
    {
      "frame_id": 301,
      "sensor_timestamp": 151672516003612,
      "time_usec": 151672516003
    },
    {
      "frame_id": 302,
      "sensor_timestamp": 151672549250194,
      "time_usec": 151672549250
    },
    {
      "frame_id": 303,
      "sensor_timestamp": 151672582496531,
      "time_usec": 151672582496
    },
    {
      "frame_id": 304,
      "sensor_timestamp": 151672615742869,
      "time_usec": 151672615742
    },
    {
      "frame_id": 305,
      "sensor_timestamp": 151672648989207,
      "time_usec": 151672648989
    },
    {
      "frame_id": 306,
      "sensor_timestamp": 151672682235789,
      "time_usec": 151672682235
    },
    {
      "frame_id": 307,
      "sensor_timestamp": 151672715482127,
      "time_usec": 151672715482
    },
    {
      "frame_id": 308,
      "sensor_timestamp": 151672748728465,
      "time_usec": 151672748728
    },
    {
      "frame_id": 309,
      "sensor_timestamp": 151672781974803,
      "time_usec": 151672781974
    },
    {
      "frame_id": 310,
      "sensor_timestamp": 151672815221385,
      "time_usec": 151672815221
    },
    {
      "frame_id": 311,
      "sensor_timestamp": 151672848467723,
      "time_usec": 151672848467
    },
    {
      "frame_id": 312,
      "sensor_timestamp": 151672881714061,
      "time_usec": 151672881714
    },
    {
      "frame_id": 313,
      "sensor_timestamp": 151672914960399,
      "time_usec": 151672914960
    },
    {
      "frame_id": 314,
      "sensor_timestamp": 151672948206737,
      "time_usec": 151672948206
    },
    {
      "frame_id": 315,
      "sensor_timestamp": 151672981453319,
      "time_usec": 151672981453
    },
    {
      "frame_id": 316,
      "sensor_timestamp": 151673014699656,
      "time_usec": 151673014699
    },
    {
      "frame_id": 317,
      "sensor_timestamp": 151673047945994,
      "time_usec": 151673047945
    },
    {
      "frame_id": 318,
      "sensor_timestamp": 151673081192332,
      "time_usec": 151673081192
    },
    {
      "frame_id": 319,
      "sensor_timestamp": 151673114438914,
      "time_usec": 151673114438
    },
    {
      "frame_id": 320,
      "sensor_timestamp": 151673147685252,
      "time_usec": 151673147685
    },
    {
      "frame_id": 321,
      "sensor_timestamp": 151673180931590,
      "time_usec": 151673180931
    },
    {
      "frame_id": 322,
      "sensor_timestamp": 151673214177928,
      "time_usec": 151673214177
    },
    {
      "frame_id": 323,
      "sensor_timestamp": 151673247424510,
      "time_usec": 151673247424
    },
    {
      "frame_id": 324,
      "sensor_timestamp": 151673280670848,
      "time_usec": 151673280670
    },
    {
      "frame_id": 325,
      "sensor_timestamp": 151673313917186,
      "time_usec": 151673313917
    },
    {
      "frame_id": 326,
      "sensor_timestamp": 151673347163524,
      "time_usec": 151673347163
    },
    {
      "frame_id": 327,
      "sensor_timestamp": 151673380410106,
      "time_usec": 151673380410
    },
    {
      "frame_id": 328,
      "sensor_timestamp": 151673413656444,
      "time_usec": 151673413656
    },
    {
      "frame_id": 329,
      "sensor_timestamp": 151673446902781,
      "time_usec": 151673446902
    },
    {
      "frame_id": 330,
      "sensor_timestamp": 151673480149119,
      "time_usec": 151673480149
    },
    {
      "frame_id": 331,
      "sensor_timestamp": 151673513395701,
      "time_usec": 151673513395
    },
    {
      "frame_id": 332,
      "sensor_timestamp": 151673546642039,
      "time_usec": 151673546642
    },
    {
      "frame_id": 333,
      "sensor_timestamp": 151673579888377,
      "time_usec": 151673579888
    },
    {
      "frame_id": 334,
      "sensor_timestamp": 151673613134715,
      "time_usec": 151673613134
    },
    {
      "frame_id": 335,
      "sensor_timestamp": 151673646381297,
      "time_usec": 151673646381
    },
    {
      "frame_id": 336,
      "sensor_timestamp": 151673679627635,
      "time_usec": 151673679627
    },
    {
      "frame_id": 337,
      "sensor_timestamp": 151673712873973,
      "time_usec": 151673712873
    },
    {
      "frame_id": 338,
      "sensor_timestamp": 151673746120311,
      "time_usec": 151673746120
    },
    {
      "frame_id": 339,
      "sensor_timestamp": 151673779366893,
      "time_usec": 151673779366
    },
    {
      "frame_id": 340,
      "sensor_timestamp": 151673812613231,
      "time_usec": 151673812613
    },
    {
      "frame_id": 341,
      "sensor_timestamp": 151673845859569,
      "time_usec": 151673845859
    },
    {
      "frame_id": 342,
      "sensor_timestamp": 151673879105906,
      "time_usec": 151673879105
    },
    {
      "frame_id": 343,
      "sensor_timestamp": 151673912352488,
      "time_usec": 151673912352
    },
    {
      "frame_id": 344,
      "sensor_timestamp": 151673945598826,
      "time_usec": 151673945598
    },
    {
      "frame_id": 345,
      "sensor_timestamp": 151673978845164,
      "time_usec": 151673978845
    },
    {
      "frame_id": 346,
      "sensor_timestamp": 151674012091502,
      "time_usec": 151674012091
    },
    {
      "frame_id": 347,
      "sensor_timestamp": 151674045337840,
      "time_usec": 151674045337
    },
    {
      "frame_id": 348,
      "sensor_timestamp": 151674078584422,
      "time_usec": 151674078584
    },
    {
      "frame_id": 349,
      "sensor_timestamp": 151674111830760,
      "time_usec": 151674111830
    },
    {
      "frame_id": 350,
      "sensor_timestamp": 151674145077098,
      "time_usec": 151674145077
    },
    {
      "frame_id": 351,
      "sensor_timestamp": 151674178323436,
      "time_usec": 151674178323
    },
    {
      "frame_id": 352,
      "sensor_timestamp": 151674211570018,
      "time_usec": 151674211570
    },
    {
      "frame_id": 353,
      "sensor_timestamp": 151674244816356,
      "time_usec": 151674244816
    },
    {
      "frame_id": 354,
      "sensor_timestamp": 151674278062694,
      "time_usec": 151674278062
    },
    {
      "frame_id": 355,
      "sensor_timestamp": 151674311309031,
      "time_usec": 151674311309
    },
    {
      "frame_id": 356,
      "sensor_timestamp": 151674344555613,
      "time_usec": 151674344555
    },
    {
      "frame_id": 357,
      "sensor_timestamp": 151674377801951,
      "time_usec": 151674377801
    },
    {
      "frame_id": 358,
      "sensor_timestamp": 151674411048289,
      "time_usec": 151674411048
    },
    {
      "frame_id": 359,
      "sensor_timestamp": 151674444241618,
      "time_usec": 151674444241
    },
    {
      "frame_id": 360,
      "sensor_timestamp": 151674477541209,
      "time_usec": 151674477541
    },
    {
      "frame_id": 361,
      "sensor_timestamp": 151674510787547,
      "time_usec": 151674510787
    },
    {
      "frame_id": 362,
      "sensor_timestamp": 151674544033885,
      "time_usec": 151674544033
    },
    {
      "frame_id": 363,
      "sensor_timestamp": 151674577280223,
      "time_usec": 151674577280
    },
    {
      "frame_id": 364,
      "sensor_timestamp": 151674610526805,
      "time_usec": 151674610526
    },
    {
      "frame_id": 365,
      "sensor_timestamp": 151674643773143,
      "time_usec": 151674643773
    },
    {
      "frame_id": 366,
      "sensor_timestamp": 151674677019481,
      "time_usec": 151674677019
    },
    {
      "frame_id": 367,
      "sensor_timestamp": 151674710265819,
      "time_usec": 151674710265
    },
    {
      "frame_id": 368,
      "sensor_timestamp": 151674743512401,
      "time_usec": 151674743512
    },
    {
      "frame_id": 369,
      "sensor_timestamp": 151674776758738,
      "time_usec": 151674776758
    },
    {
      "frame_id": 370,
      "sensor_timestamp": 151674810005076,
      "time_usec": 151674810005
    },
    {
      "frame_id": 371,
      "sensor_timestamp": 151674843251414,
      "time_usec": 151674843251
    },
    {
      "frame_id": 372,
      "sensor_timestamp": 151674876497996,
      "time_usec": 151674876497
    },
    {
      "frame_id": 373,
      "sensor_timestamp": 151674909744334,
      "time_usec": 151674909744
    },
    {
      "frame_id": 374,
      "sensor_timestamp": 151674942990672,
      "time_usec": 151674942990
    },
    {
      "frame_id": 375,
      "sensor_timestamp": 151674976237010,
      "time_usec": 151674976237
    },
    {
      "frame_id": 376,
      "sensor_timestamp": 151675009483592,
      "time_usec": 151675009483
    },
    {
      "frame_id": 377,
      "sensor_timestamp": 151675042729930,
      "time_usec": 151675042729
    },
    {
      "frame_id": 378,
      "sensor_timestamp": 151675075976268,
      "time_usec": 151675075976
    },
    {
      "frame_id": 379,
      "sensor_timestamp": 151675109222606,
      "time_usec": 151675109222
    },
    {
      "frame_id": 380,
      "sensor_timestamp": 151675142469188,
      "time_usec": 151675142469
    },
    {
      "frame_id": 381,
      "sensor_timestamp": 151675175715526,
      "time_usec": 151675175715
    },
    {
      "frame_id": 382,
      "sensor_timestamp": 151675208961863,
      "time_usec": 151675208961
    },
    {
      "frame_id": 383,
      "sensor_timestamp": 151675242208201,
      "time_usec": 151675242208
    },
    {
      "frame_id": 384,
      "sensor_timestamp": 151675275454539,
      "time_usec": 151675275454
    },
    {
      "frame_id": 385,
      "sensor_timestamp": 151675308701121,
      "time_usec": 151675308701
    },
    {
      "frame_id": 386,
      "sensor_timestamp": 151675341947459,
      "time_usec": 151675341947
    },
    {
      "frame_id": 387,
      "sensor_timestamp": 151675375193797,
      "time_usec": 151675375193
    },
    {
      "frame_id": 388,
      "sensor_timestamp": 151675408440135,
      "time_usec": 151675408440
    },
    {
      "frame_id": 389,
      "sensor_timestamp": 151675441686717,
      "time_usec": 151675441686
    },
    {
      "frame_id": 390,
      "sensor_timestamp": 151675474933055,
      "time_usec": 151675474933
    },
    {
      "frame_id": 391,
      "sensor_timestamp": 151675508179393,
      "time_usec": 151675508179
    },
    {
      "frame_id": 392,
      "sensor_timestamp": 151675541425731,
      "time_usec": 151675541425
    },
    {
      "frame_id": 393,
      "sensor_timestamp": 151675574672313,
      "time_usec": 151675574672
    },
    {
      "frame_id": 394,
      "sensor_timestamp": 151675607918651,
      "time_usec": 151675607918
    },
    {
      "frame_id": 395,
      "sensor_timestamp": 151675641164988,
      "time_usec": 151675641164
    },
    {
      "frame_id": 396,
      "sensor_timestamp": 151675674411326,
      "time_usec": 151675674411
    },
    {
      "frame_id": 397,
      "sensor_timestamp": 151675707657908,
      "time_usec": 151675707657
    },
    {
      "frame_id": 398,
      "sensor_timestamp": 151675740904246,
      "time_usec": 151675740904
    },
    {
      "frame_id": 399,
      "sensor_timestamp": 151675774150584,
      "time_usec": 151675774150
    },
    {
      "frame_id": 400,
      "sensor_timestamp": 151675807396922,
      "time_usec": 151675807396
    },
    {
      "frame_id": 401,
      "sensor_timestamp": 151675840643504,
      "time_usec": 151675840643
    },
    {
      "frame_id": 402,
      "sensor_timestamp": 151675873889842,
      "time_usec": 151675873889
    },
    {
      "frame_id": 403,
      "sensor_timestamp": 151675907136180,
      "time_usec": 151675907136
    },
    {
      "frame_id": 404,
      "sensor_timestamp": 151675940382518,
      "time_usec": 151675940382
    },
    {
      "frame_id": 405,
      "sensor_timestamp": 151675973629100,
      "time_usec": 151675973629
    },
    {
      "frame_id": 406,
      "sensor_timestamp": 151676006875438,
      "time_usec": 151676006875
    },
    {
      "frame_id": 407,
      "sensor_timestamp": 151676040121776,
      "time_usec": 151676040121
    },
    {
      "frame_id": 408,
      "sensor_timestamp": 151676073368113,
      "time_usec": 151676073368
    },
    {
      "frame_id": 409,
      "sensor_timestamp": 151676106614695,
      "time_usec": 151676106614
    },
    {
      "frame_id": 410,
      "sensor_timestamp": 151676139861033,
      "time_usec": 151676139861
    },
    {
      "frame_id": 411,
      "sensor_timestamp": 151676173107371,
      "time_usec": 151676173107
    },
    {
      "frame_id": 412,
      "sensor_timestamp": 151676206353709,
      "time_usec": 151676206353
    },
    {
      "frame_id": 413,
      "sensor_timestamp": 151676239600291,
      "time_usec": 151676239600
    },
    {
      "frame_id": 414,
      "sensor_timestamp": 151676272846629,
      "time_usec": 151676272846
    },
    {
      "frame_id": 415,
      "sensor_timestamp": 151676306092967,
      "time_usec": 151676306092
    },
    {
      "frame_id": 416,
      "sensor_timestamp": 151676339339305,
      "time_usec": 151676339339
    },
    {
      "frame_id": 417,
      "sensor_timestamp": 151676372585887,
      "time_usec": 151676372585
    },
    {
      "frame_id": 418,
      "sensor_timestamp": 151676405832225,
      "time_usec": 151676405832
    },
    {
      "frame_id": 419,
      "sensor_timestamp": 151676439078563,
      "time_usec": 151676439078
    },
    {
      "frame_id": 420,
      "sensor_timestamp": 151676472324901,
      "time_usec": 151676472324
    },
    {
      "frame_id": 421,
      "sensor_timestamp": 151676505571238,
      "time_usec": 151676505571
    },
    {
      "frame_id": 422,
      "sensor_timestamp": 151676538817820,
      "time_usec": 151676538817
    },
    {
      "frame_id": 423,
      "sensor_timestamp": 151676572064158,
      "time_usec": 151676572064
    },
    {
      "frame_id": 424,
      "sensor_timestamp": 151676605310496,
      "time_usec": 151676605310
    },
    {
      "frame_id": 425,
      "sensor_timestamp": 151676638556834,
      "time_usec": 151676638556
    },
    {
      "frame_id": 426,
      "sensor_timestamp": 151676671803416,
      "time_usec": 151676671803
    },
    {
      "frame_id": 427,
      "sensor_timestamp": 151676705049754,
      "time_usec": 151676705049
    },
    {
      "frame_id": 428,
      "sensor_timestamp": 151676738296092,
      "time_usec": 151676738296
    },
    {
      "frame_id": 429,
      "sensor_timestamp": 151676771542430,
      "time_usec": 151676771542
    },
    {
      "frame_id": 430,
      "sensor_timestamp": 151676804789012,
      "time_usec": 151676804789
    },
    {
      "frame_id": 431,
      "sensor_timestamp": 151676838035350,
      "time_usec": 151676838035
    },
    {
      "frame_id": 432,
      "sensor_timestamp": 151676871281688,
      "time_usec": 151676871281
    },
    {
      "frame_id": 433,
      "sensor_timestamp": 151676904528026,
      "time_usec": 151676904528
    },
    {
      "frame_id": 434,
      "sensor_timestamp": 151676937774608,
      "time_usec": 151676937774
    },
    {
      "frame_id": 435,
      "sensor_timestamp": 151676971020945,
      "time_usec": 151676971020
    },
    {
      "frame_id": 436,
      "sensor_timestamp": 151677004267283,
      "time_usec": 151677004267
    },
    {
      "frame_id": 437,
      "sensor_timestamp": 151677037513621,
      "time_usec": 151677037513
    },
    {
      "frame_id": 438,
      "sensor_timestamp": 151677070760203,
      "time_usec": 151677070760
    },
    {
      "frame_id": 439,
      "sensor_timestamp": 151677104006541,
      "time_usec": 151677104006
    },
    {
      "frame_id": 440,
      "sensor_timestamp": 151677137252879,
      "time_usec": 151677137252
    },
    {
      "frame_id": 441,
      "sensor_timestamp": 151677170499217,
      "time_usec": 151677170499
    },
    {
      "frame_id": 442,
      "sensor_timestamp": 151677203745799,
      "time_usec": 151677203745
    },
    {
      "frame_id": 443,
      "sensor_timestamp": 151677236992137,
      "time_usec": 151677236992
    },
    {
      "frame_id": 444,
      "sensor_timestamp": 151677270238475,
      "time_usec": 151677270238
    },
    {
      "frame_id": 445,
      "sensor_timestamp": 151677303484813,
      "time_usec": 151677303484
    },
    {
      "frame_id": 446,
      "sensor_timestamp": 151677336731395,
      "time_usec": 151677336731
    },
    {
      "frame_id": 447,
      "sensor_timestamp": 151677369977733,
      "time_usec": 151677369977
    },
    {
      "frame_id": 448,
      "sensor_timestamp": 151677403224070,
      "time_usec": 151677403224
    },
    {
      "frame_id": 449,
      "sensor_timestamp": 151677436470408,
      "time_usec": 151677436470
    },
    {
      "frame_id": 450,
      "sensor_timestamp": 151677469716990,
      "time_usec": 151677469716
    },
    {
      "frame_id": 451,
      "sensor_timestamp": 151677502963328,
      "time_usec": 151677502963
    },
    {
      "frame_id": 452,
      "sensor_timestamp": 151677536209666,
      "time_usec": 151677536209
    },
    {
      "frame_id": 453,
      "sensor_timestamp": 151677569456004,
      "time_usec": 151677569456
    },
    {
      "frame_id": 454,
      "sensor_timestamp": 151677602702586,
      "time_usec": 151677602702
    },
    {
      "frame_id": 455,
      "sensor_timestamp": 151677635948924,
      "time_usec": 151677635948
    },
    {
      "frame_id": 456,
      "sensor_timestamp": 151677669195262,
      "time_usec": 151677669195
    },
    {
      "frame_id": 457,
      "sensor_timestamp": 151677702441600,
      "time_usec": 151677702441
    },
    {
      "frame_id": 458,
      "sensor_timestamp": 151677735687938,
      "time_usec": 151677735687
    },
    {
      "frame_id": 459,
      "sensor_timestamp": 151677768934520,
      "time_usec": 151677768934
    },
    {
      "frame_id": 460,
      "sensor_timestamp": 151677802180858,
      "time_usec": 151677802180
    },
    {
      "frame_id": 461,
      "sensor_timestamp": 151677835427195,
      "time_usec": 151677835427
    },
    {
      "frame_id": 462,
      "sensor_timestamp": 151677868673533,
      "time_usec": 151677868673
    },
    {
      "frame_id": 463,
      "sensor_timestamp": 151677901920115,
      "time_usec": 151677901920
    },
    {
      "frame_id": 464,
      "sensor_timestamp": 151677935166453,
      "time_usec": 151677935166
    },
    {
      "frame_id": 465,
      "sensor_timestamp": 151677968356814,
      "time_usec": 151677968356
    },
    {
      "frame_id": 466,
      "sensor_timestamp": 151678001659129,
      "time_usec": 151678001659
    },
    {
      "frame_id": 467,
      "sensor_timestamp": 151678034905711,
      "time_usec": 151678034905
    },
    {
      "frame_id": 468,
      "sensor_timestamp": 151678068152049,
      "time_usec": 151678068152
    },
    {
      "frame_id": 469,
      "sensor_timestamp": 151678101398387,
      "time_usec": 151678101398
    },
    {
      "frame_id": 470,
      "sensor_timestamp": 151678134644725,
      "time_usec": 151678134644
    },
    {
      "frame_id": 471,
      "sensor_timestamp": 151678167891307,
      "time_usec": 151678167891
    },
    {
      "frame_id": 472,
      "sensor_timestamp": 151678201137645,
      "time_usec": 151678201137
    },
    {
      "frame_id": 473,
      "sensor_timestamp": 151678234383983,
      "time_usec": 151678234383
    },
    {
      "frame_id": 474,
      "sensor_timestamp": 151678267630320,
      "time_usec": 151678267630
    },
    {
      "frame_id": 475,
      "sensor_timestamp": 151678300876903,
      "time_usec": 151678300876
    },
    {
      "frame_id": 476,
      "sensor_timestamp": 151678334123240,
      "time_usec": 151678334123
    },
    {
      "frame_id": 477,
      "sensor_timestamp": 151678367369578,
      "time_usec": 151678367369
    },
    {
      "frame_id": 478,
      "sensor_timestamp": 151678400615916,
      "time_usec": 151678400615
    },
    {
      "frame_id": 479,
      "sensor_timestamp": 151678433862498,
      "time_usec": 151678433862
    },
    {
      "frame_id": 480,
      "sensor_timestamp": 151678467108836,
      "time_usec": 151678467108
    },
    {
      "frame_id": 481,
      "sensor_timestamp": 151678500355174,
      "time_usec": 151678500355
    },
    {
      "frame_id": 482,
      "sensor_timestamp": 151678533601512,
      "time_usec": 151678533601
    },
    {
      "frame_id": 483,
      "sensor_timestamp": 151678566848094,
      "time_usec": 151678566848
    },
    {
      "frame_id": 484,
      "sensor_timestamp": 151678600094432,
      "time_usec": 151678600094
    },
    {
      "frame_id": 485,
      "sensor_timestamp": 151678633340770,
      "time_usec": 151678633340
    },
    {
      "frame_id": 486,
      "sensor_timestamp": 151678666587108,
      "time_usec": 151678666587
    },
    {
      "frame_id": 487,
      "sensor_timestamp": 151678699833690,
      "time_usec": 151678699833
    },
    {
      "frame_id": 488,
      "sensor_timestamp": 151678733080028,
      "time_usec": 151678733080
    },
    {
      "frame_id": 489,
      "sensor_timestamp": 151678766326365,
      "time_usec": 151678766326
    },
    {
      "frame_id": 490,
      "sensor_timestamp": 151678799572703,
      "time_usec": 151678799572
    },
    {
      "frame_id": 491,
      "sensor_timestamp": 151678832819285,
      "time_usec": 151678832819
    },
    {
      "frame_id": 492,
      "sensor_timestamp": 151678866065623,
      "time_usec": 151678866065
    },
    {
      "frame_id": 493,
      "sensor_timestamp": 151678899311961,
      "time_usec": 151678899311
    },
    {
      "frame_id": 494,
      "sensor_timestamp": 151678932558299,
      "time_usec": 151678932558
    },
    {
      "frame_id": 495,
      "sensor_timestamp": 151678965804637,
      "time_usec": 151678965804
    },
    {
      "frame_id": 496,
      "sensor_timestamp": 151678999051219,
      "time_usec": 151678999051
    },
    {
      "frame_id": 497,
      "sensor_timestamp": 151679032297557,
      "time_usec": 151679032297
    },
    {
      "frame_id": 498,
      "sensor_timestamp": 151679065543895,
      "time_usec": 151679065543
    },
    {
      "frame_id": 499,
      "sensor_timestamp": 151679098790233,
      "time_usec": 151679098790
    },
    {
      "frame_id": 500,
      "sensor_timestamp": 151679131982465,
      "time_usec": 151679131982
    },
    {
      "frame_id": 501,
      "sensor_timestamp": 151679165283153,
      "time_usec": 151679165283
    },
    {
      "frame_id": 502,
      "sensor_timestamp": 151679198529490,
      "time_usec": 151679198529
    },
    {
      "frame_id": 503,
      "sensor_timestamp": 151679231775828,
      "time_usec": 151679231775
    },
    {
      "frame_id": 504,
      "sensor_timestamp": 151679265022410,
      "time_usec": 151679265022
    },
    {
      "frame_id": 505,
      "sensor_timestamp": 151679298268748,
      "time_usec": 151679298268
    },
    {
      "frame_id": 506,
      "sensor_timestamp": 151679331515086,
      "time_usec": 151679331515
    },
    {
      "frame_id": 507,
      "sensor_timestamp": 151679364761424,
      "time_usec": 151679364761
    },
    {
      "frame_id": 508,
      "sensor_timestamp": 151679397958133,
      "time_usec": 151679397958
    },
    {
      "frame_id": 509,
      "sensor_timestamp": 151679431254344,
      "time_usec": 151679431254
    },
    {
      "frame_id": 510,
      "sensor_timestamp": 151679464500682,
      "time_usec": 151679464500
    },
    {
      "frame_id": 511,
      "sensor_timestamp": 151679497747020,
      "time_usec": 151679497747
    },
    {
      "frame_id": 512,
      "sensor_timestamp": 151679530993602,
      "time_usec": 151679530993
    },
    {
      "frame_id": 513,
      "sensor_timestamp": 151679564239940,
      "time_usec": 151679564239
    },
    {
      "frame_id": 514,
      "sensor_timestamp": 151679597486278,
      "time_usec": 151679597486
    },
    {
      "frame_id": 515,
      "sensor_timestamp": 151679630732615,
      "time_usec": 151679630732
    },
    {
      "frame_id": 516,
      "sensor_timestamp": 151679663979197,
      "time_usec": 151679663979
    },
    {
      "frame_id": 517,
      "sensor_timestamp": 151679697225535,
      "time_usec": 151679697225
    },
    {
      "frame_id": 518,
      "sensor_timestamp": 151679730471873,
      "time_usec": 151679730471
    },
    {
      "frame_id": 519,
      "sensor_timestamp": 151679763718211,
      "time_usec": 151679763718
    },
    {
      "frame_id": 520,
      "sensor_timestamp": 151679796964793,
      "time_usec": 151679796964
    },
    {
      "frame_id": 521,
      "sensor_timestamp": 151679830211131,
      "time_usec": 151679830211
    },
    {
      "frame_id": 522,
      "sensor_timestamp": 151679863457469,
      "time_usec": 151679863457
    },
    {
      "frame_id": 523,
      "sensor_timestamp": 151679896703807,
      "time_usec": 151679896703
    },
    {
      "frame_id": 524,
      "sensor_timestamp": 151679929950389,
      "time_usec": 151679929950
    },
    {
      "frame_id": 525,
      "sensor_timestamp": 151679963196727,
      "time_usec": 151679963196
    },
    {
      "frame_id": 526,
      "sensor_timestamp": 151679996443065,
      "time_usec": 151679996443
    },
    {
      "frame_id": 527,
      "sensor_timestamp": 151680029689403,
      "time_usec": 151680029689
    },
    {
      "frame_id": 528,
      "sensor_timestamp": 151680062935985,
      "time_usec": 151680062935
    },
    {
      "frame_id": 529,
      "sensor_timestamp": 151680096182322,
      "time_usec": 151680096182
    },
    {
      "frame_id": 530,
      "sensor_timestamp": 151680129428660,
      "time_usec": 151680129428
    },
    {
      "frame_id": 531,
      "sensor_timestamp": 151680162674998,
      "time_usec": 151680162674
    },
    {
      "frame_id": 532,
      "sensor_timestamp": 151680195921336,
      "time_usec": 151680195921
    },
    {
      "frame_id": 533,
      "sensor_timestamp": 151680229167918,
      "time_usec": 151680229167
    },
    {
      "frame_id": 534,
      "sensor_timestamp": 151680262414256,
      "time_usec": 151680262414
    },
    {
      "frame_id": 535,
      "sensor_timestamp": 151680295660594,
      "time_usec": 151680295660
    },
    {
      "frame_id": 536,
      "sensor_timestamp": 151680328906932,
      "time_usec": 151680328906
    },
    {
      "frame_id": 537,
      "sensor_timestamp": 151680362153514,
      "time_usec": 151680362153
    },
    {
      "frame_id": 538,
      "sensor_timestamp": 151680395399852,
      "time_usec": 151680395399
    },
    {
      "frame_id": 539,
      "sensor_timestamp": 151680428646190,
      "time_usec": 151680428646
    },
    {
      "frame_id": 540,
      "sensor_timestamp": 151680461892528,
      "time_usec": 151680461892
    },
    {
      "frame_id": 541,
