{
  "rotations": [
    {
      "x": 0.04657847434282303,
      "y": 0.020005837082862854,
      "z": -0.03833179548382759,
      "time_usec": 151662061400
    },
    {
      "x": 0.04657847434282303,
      "y": 0.020005837082862854,
      "z": -0.04077525436878204,
      "time_usec": 151662063670
    },
    {
      "x": 0.04657847434282303,
      "y": 0.01878410577774048,
      "z": -0.04199698567390442,
      "time_usec": 151662065931
    },
    {
      "x": 0.04902193695306778,
      "y": 0.019853120669722557,
      "z": -0.04199698567390442,
      "time_usec": 151662068188
    },
    {
      "x": 0.04657847434282303,
      "y": 0.021074850112199783,
      "z": -0.04688390716910362,
      "time_usec": 151662070441
    },
    {
      "x": 0.04902193695306778,
      "y": 0.02229658141732216,
      "z": -0.04444044828414917,
      "time_usec": 151662072688
    },
    {
      "x": 0.047800205647945404,
      "y": 0.019853120669722557,
      "z": -0.05054909735918045,
      "time_usec": 151662074958
    },
    {
      "x": 0.04535674303770065,
      "y": 0.023518312722444534,
      "z": -0.05054909735918045,
      "time_usec": 151662077213
    },
    {
      "x": 0.044135015457868576,
      "y": 0.023518312722444534,
      "z": -0.05054909735918045,
      "time_usec": 151662079464
    },
    {
      "x": 0.044135015457868576,
      "y": 0.02229658141732216,
      "z": -0.051770828664302826,
      "time_usec": 151662081716
    },
    {
      "x": 0.041691552847623825,
      "y": 0.019853120669722557,
      "z": -0.051770828664302826,
      "time_usec": 151662083977
    },
    {
      "x": 0.0429132841527462,
      "y": 0.017409659922122955,
      "z": -0.054367005825042725,
      "time_usec": 151662086248
    },
    {
      "x": 0.0429132841527462,
      "y": 0.012675453908741474,
      "z": -0.054367005825042725,
      "time_usec": 151662088504
    },
    {
      "x": 0.0403171069920063,
      "y": 0.009010262787342072,
      "z": -0.05803219974040985,
      "time_usec": 151662090749
    },
    {
      "x": 0.039095375686883926,
      "y": 0.006719517521560192,
      "z": -0.060475658625364304,
      "time_usec": 151662093013
    },
    {
      "x": 0.04153883829712868,
      "y": 0.003054326167330146,
      "z": -0.06414084881544113,
      "time_usec": 151662095276
    },
    {
      "x": 0.03787364438176155,
      "y": -6.108652451075613E-4,
      "z": -0.06414084881544113,
      "time_usec": 151662097533
    },
    {
      "x": 0.03527746722102165,
      "y": -0.004123340360820293,
      "z": -0.06536258012056351,
      "time_usec": 151662099779
    },
    {
      "x": 0.03649919852614403,
      "y": -0.009010262787342072,
      "z": -0.06780604273080826,
      "time_usec": 151662102049
    },
    {
      "x": 0.031612277030944824,
      "y": -0.012522737495601177,
      "z": -0.06918048858642578,
      "time_usec": 151662104303
    },
    {
      "x": 0.029168816283345222,
      "y": -0.011301007121801376,
      "z": -0.07040221989154816,
      "time_usec": 151662106552
    },
    {
      "x": 0.02779436856508255,
      "y": -0.013744467869400978,
      "z": -0.07162395119667053,
      "time_usec": 151662108806
    },
    {
      "x": 0.022907447069883347,
      "y": -0.014813481830060482,
      "z": -0.06918048858642578,
      "time_usec": 151662111066
    },
    {
      "x": 0.020463986322283745,
      "y": -0.013591751456260681,
      "z": -0.07040221989154816,
      "time_usec": 151662113339
    },
    {
      "x": 0.01924225501716137,
      "y": -0.013591751456260681,
      "z": -0.07040221989154816,
      "time_usec": 151662115597
    },
    {
      "x": 0.020463986322283745,
      "y": -0.01725694350898266,
      "z": -0.06918048858642578,
      "time_usec": 151662117852
    },
    {
      "x": 0.019089538604021072,
      "y": -0.019547687843441963,
      "z": -0.06551529467105865,
      "time_usec": 151662120097
    },
    {
      "x": 0.01542434748262167,
      "y": -0.02428189292550087,
      "z": -0.06429356336593628,
      "time_usec": 151662122367
    },
    {
      "x": 0.01160643994808197,
      "y": -0.025503624230623245,
      "z": -0.06322455406188965,
      "time_usec": 151662124626
    },
    {
      "x": 0.01038470957428217,
      "y": -0.029016099870204926,
      "z": -0.058337632566690445,
      "time_usec": 151662126882
    },
    {
      "x": 0.009010262787342072,
      "y": -0.03375030308961868,
      "z": -0.05467243865132332,
      "time_usec": 151662129125
    },
    {
      "x": 0.004123340360820293,
      "y": -0.03726277872920036,
      "z": -0.05100724846124649,
      "time_usec": 151662131384
    },
    {
      "x": -9.162978967651725E-4,
      "y": -0.03848451003432274,
      "z": -0.04734205827116966,
      "time_usec": 151662133654
    },
    {
      "x": -0.003359758760780096,
      "y": -0.04077525436878204,
      "z": -0.04612032696604729,
      "time_usec": 151662135916
    },
    {
      "x": -0.008399397134780884,
      "y": -0.03955352306365967,
      "z": -0.041233405470848083,
      "time_usec": 151662138178
    },
    {
      "x": -0.010842857882380486,
      "y": -0.03573561832308769,
      "z": -0.03390302136540413,
      "time_usec": 151662140427
    },
    {
      "x": -0.010842857882380486,
      "y": -0.02977968007326126,
      "z": -0.030237829312682152,
      "time_usec": 151662142682
    },
    {
      "x": -0.01817324012517929,
      "y": -0.025961773470044136,
      "z": -0.026572637259960175,
      "time_usec": 151662144927
    },
    {
      "x": -0.021838432177901268,
      "y": -0.021074850112199783,
      "z": -0.02168571576476097,
      "time_usec": 151662147194
    },
    {
      "x": -0.02672535367310047,
      "y": -0.013897184282541275,
      "z": -0.01924225501716137,
      "time_usec": 151662149453
    },
    {
      "x": -0.031612277030944824,
      "y": -0.007788531947880983,
      "z": -0.014355333521962166,
      "time_usec": 151662151718
    },
    {
      "x": -0.031612277030944824,
      "y": -0.0029016099870204926,
      "z": -0.010690141469240189,
      "time_usec": 151662153972
    },
    {
      "x": -0.03649919852614403,
      "y": 7.635815418325365E-4,
      "z": -0.009468411095440388,
      "time_usec": 151662156226
    },
    {
      "x": -0.0403171069920063,
      "y": 0.005650503560900688,
      "z": -0.005803219974040985,
      "time_usec": 151662158484
    },
    {
      "x": -0.042760565876960754,
      "y": 0.011759156361222267,
      "z": -0.002138028386980295,
      "time_usec": 151662160741
    },
    {
      "x": -0.045204028487205505,
      "y": 0.011759156361222267,
      "z": -0.002138028386980295,
      "time_usec": 151662163004
    },
    {
      "x": -0.04764748737215996,
      "y": 0.012980886735022068,
      "z": -9.162978967651725E-4,
      "time_usec": 151662165261
    },
    {
      "x": -0.04642575979232788,
      "y": 0.011759156361222267,
      "z": 0.0027488935738801956,
      "time_usec": 151662167514
    },
    {
      "x": -0.045204028487205505,
      "y": 0.00931569468230009,
      "z": 3.054326225537807E-4,
      "time_usec": 151662169767
    },
    {
      "x": -0.045204028487205505,
      "y": 0.014202617108821869,
      "z": -9.162978967651725E-4,
      "time_usec": 151662172020
    },
    {
      "x": -0.042760565876960754,
      "y": 0.012980886735022068,
      "z": 0.004123340360820293,
      "time_usec": 151662174291
    },
    {
      "x": -0.04153883829712868,
      "y": 0.00931569468230009,
      "z": 0.004123340360820293,
      "time_usec": 151662176550
    },
    {
      "x": -0.03787364438176155,
      "y": 0.006872233934700489,
      "z": 0.001679879380390048,
      "time_usec": 151662178809
    },
    {
      "x": -0.0354301854968071,
      "y": 0.0032070425804704428,
      "z": 0.001679879380390048,
      "time_usec": 151662181058
    },
    {
      "x": -0.03405573591589928,
      "y": 0.0032070425804704428,
      "z": 4.5814894838258624E-4,
      "time_usec": 151662183318
    },
    {
      "x": -0.03420845419168472,
      "y": -3.054326225537807E-4,
      "z": 0.0029016099870204926,
      "time_usec": 151662185568
    },
    {
      "x": -0.03420845419168472,
      "y": -0.001527163083665073,
      "z": 0.004123340360820293,
      "time_usec": 151662187836
    },
    {
      "x": -0.03176499158143997,
      "y": -0.001527163083665073,
      "z": 0.004123340360820293,
      "time_usec": 151662190088
    },
    {
      "x": -0.03039054572582245,
      "y": -0.001679879380390048,
      "z": 0.0029016099870204926,
      "time_usec": 151662192354
    },
    {
      "x": -0.030543262138962746,
      "y": -0.0064140851609408855,
      "z": 4.5814894838258624E-4,
      "time_usec": 151662194609
    },
    {
      "x": -0.029168816283345222,
      "y": -0.0039706239476799965,
      "z": 0.0029016099870204926,
      "time_usec": 151662196868
    },
    {
      "x": -0.027947084978222847,
      "y": -0.005192354787141085,
      "z": 0.0029016099870204926,
      "time_usec": 151662199123
    },
    {
      "x": -0.027947084978222847,
      "y": -0.004123340360820293,
      "z": 4.5814894838258624E-4,
      "time_usec": 151662201376
    },
    {
      "x": -0.02428189292550087,
      "y": -0.004123340360820293,
      "z": 4.5814894838258624E-4,
      "time_usec": 151662203638
    },
    {
      "x": -0.025503624230623245,
      "y": -0.005345070734620094,
      "z": -0.004428773187100887,
      "time_usec": 151662205896
    },
    {
      "x": -0.021838432177901268,
      "y": -0.0065668015740811825,
      "z": -0.005650503560900688,
      "time_usec": 151662208154
    },
    {
      "x": -0.016951510682702065,
      "y": -0.015118914656341076,
      "z": -0.00809396430850029,
      "time_usec": 151662210406
    },
    {
      "x": -0.013286318629980087,
      "y": -0.02122756652534008,
      "z": -0.011759156361222267,
      "time_usec": 151662212669
    },
    {
      "x": -0.012064588256180286,
      "y": -0.026114489883184433,
      "z": -0.01664607785642147,
      "time_usec": 151662214926
    },
    {
      "x": -0.005955935921519995,
      "y": -0.032070424407720566,
      "z": -0.017867809161543846,
      "time_usec": 151662217179
    },
    {
      "x": 0.001527163083665073,
      "y": -0.03588833287358284,
      "z": -0.02275473065674305,
      "time_usec": 151662219435
    },
    {
      "x": 0.0039706239476799965,
      "y": -0.04199698567390442,
      "z": -0.02275473065674305,
      "time_usec": 151662221694
    },
    {
      "x": 0.0064140851609408855,
      "y": -0.04795292019844055,
      "z": -0.027641652151942253,
      "time_usec": 151662223959
    },
    {
      "x": 0.003817907767370343,
      "y": -0.05390885844826698,
      "z": -0.02519819140434265,
      "time_usec": 151662226219
    },
    {
      "x": 0.006261368747800589,
      "y": -0.06001751124858856,
      "z": -0.02886338345706463,
      "time_usec": 151662228476
    },
    {
      "x": 0.0074830991216003895,
      "y": -0.06368270516395569,
      "z": -0.027641652151942253,
      "time_usec": 151662230725
    },
    {
      "x": 0.0074830991216003895,
      "y": -0.06612616032361984,
      "z": -0.026419922709465027,
      "time_usec": 151662232988
    },
    {
      "x": 0.0074830991216003895,
      "y": -0.06963863968849182,
      "z": -0.030085112899541855,
      "time_usec": 151662235242
    },
    {
      "x": 0.008704829961061478,
      "y": -0.06963863968849182,
      "z": -0.027641652151942253,
      "time_usec": 151662237496
    },
    {
      "x": 0.00366519158706069,
      "y": -0.06841690838336945,
      "z": -0.026419922709465027,
      "time_usec": 151662239755
    },
    {
      "x": 0.0024434609804302454,
      "y": -0.0708603709936142,
      "z": -0.02779436856508255,
      "time_usec": 151662242017
    },
    {
      "x": -0.0012217304902151227,
      "y": -0.06719517707824707,
      "z": -0.026572637259960175,
      "time_usec": 151662244276
    },
    {
      "x": -0.00366519158706069,
      "y": -0.06475171446800232,
      "z": -0.022907447069883347,
      "time_usec": 151662246534
    },
    {
      "x": -0.009926560334861279,
      "y": -0.0633772686123848,
      "z": -0.01924225501716137,
      "time_usec": 151662248788
    },
    {
      "x": -0.01237002108246088,
      "y": -0.06215553730726242,
      "z": -0.018020525574684143,
      "time_usec": 151662251040
    },
    {
      "x": -0.01725694350898266,
      "y": -0.05726861581206322,
      "z": -0.014355333521962166,
      "time_usec": 151662253302
    },
    {
      "x": -0.01970040425658226,
      "y": -0.054825156927108765,
      "z": -0.01191187184303999,
      "time_usec": 151662255550
    },
    {
      "x": -0.024587325751781464,
      "y": -0.05115996301174164,
      "z": -0.01191187184303999,
      "time_usec": 151662257821
    },
    {
      "x": -0.029626963660120964,
      "y": -0.04734205827116966,
      "z": -0.005803219974040985,
      "time_usec": 151662260073
    },
    {
      "x": -0.029474247246980667,
      "y": -0.040164388716220856,
      "z": 3.054326225537807E-4,
      "time_usec": 151662262339
    },
    {
      "x": -0.03451388701796532,
      "y": -0.04001167416572571,
      "z": 0.001527163083665073,
      "time_usec": 151662264593
    },
    {
      "x": -0.03680463135242462,
      "y": -0.03039054572582245,
      "z": 0.001527163083665073,
      "time_usec": 151662266852
    },
    {
      "x": -0.04184427112340927,
      "y": -0.029168816283345222,
      "z": 0.0064140851609408855,
      "time_usec": 151662269108
    },
    {
      "x": -0.040622539818286896,
      "y": -0.025503624230623245,
      "z": 0.008857546374201775,
      "time_usec": 151662271361
    },
    {
      "x": -0.039248090237379074,
      "y": -0.019547687843441963,
      "z": 0.008857546374201775,
      "time_usec": 151662273620
    },
    {
      "x": -0.03436116874217987,
      "y": -0.02076941914856434,
      "z": 0.013897184282541275,
      "time_usec": 151662275867
    },
    {
      "x": -0.03436116874217987,
      "y": -0.015882495790719986,
      "z": 0.013897184282541275,
      "time_usec": 151662278138
    },
    {
      "x": -0.036651913076639175,
      "y": -0.006261368747800589,
      "z": 0.012675453908741474,
      "time_usec": 151662280391
    },
    {
      "x": -0.036651913076639175,
      "y": -0.003817907767370343,
      "z": 0.017562376335263252,
      "time_usec": 151662282657
    },
    {
      "x": -0.03420845419168472,
      "y": -3.054326225537807E-4,
      "z": 0.01878410577774048,
      "time_usec": 151662284913
    },
    {
      "x": -0.0354301854968071,
      "y": 0.002138028386980295,
      "z": 0.022449297830462456,
      "time_usec": 151662287175
    },
    {
      "x": -0.03298672288656235,
      "y": 0.007024950347840786,
      "z": 0.02367102913558483,
      "time_usec": 151662289420
    },
    {
      "x": -0.031612277030944824,
      "y": 0.011759156361222267,
      "z": 0.025045474991202354,
      "time_usec": 151662291678
    },
    {
      "x": -0.02672535367310047,
      "y": 0.012980886735022068,
      "z": 0.02871066704392433,
      "time_usec": 151662293939
    },
    {
      "x": -0.023060163483023643,
      "y": 0.015271631069481373,
      "z": 0.025045474991202354,
      "time_usec": 151662296196
    },
    {
      "x": -0.021838432177901268,
      "y": 0.015271631069481373,
      "z": 0.027488935738801956,
      "time_usec": 151662298456
    },
    {
      "x": -0.01924225501716137,
      "y": 0.015271631069481373,
      "z": 0.027488935738801956,
      "time_usec": 151662300709
    },
    {
      "x": -0.016798794269561768,
      "y": 0.016340645030140877,
      "z": 0.025045474991202354,
      "time_usec": 151662302973
    },
    {
      "x": -0.01191187184303999,
      "y": 0.017562376335263252,
      "z": 0.02626720629632473,
      "time_usec": 151662305230
    },
    {
      "x": -0.010690141469240189,
      "y": 0.013897184282541275,
      "z": 0.025045474991202354,
      "time_usec": 151662307486
    },
    {
      "x": -0.009468411095440388,
      "y": 0.013897184282541275,
      "z": 0.026419922709465027,
      "time_usec": 151662309737
    },
    {
      "x": -0.006872233934700489,
      "y": 0.011453723534941673,
      "z": 0.023976460099220276,
      "time_usec": 151662311989
    },
    {
      "x": -0.004428773187100887,
      "y": 0.013897184282541275,
      "z": 0.02519819140434265,
      "time_usec": 151662314259
    },
    {
      "x": 4.5814894838258624E-4,
      "y": 0.007788531947880983,
      "z": 0.02519819140434265,
      "time_usec": 151662316516
    },
    {
      "x": 0.001679879380390048,
      "y": 0.007788531947880983,
      "z": 0.023976460099220276,
      "time_usec": 151662318776
    },
    {
      "x": 4.5814894838258624E-4,
      "y": 0.009010262787342072,
      "z": 0.023976460099220276,
      "time_usec": 151662321024
    },
    {
      "x": 0.0029016099870204926,
      "y": 0.005345070734620094,
      "z": 0.02275473065674305,
      "time_usec": 151662323279
    },
    {
      "x": 0.009010262787342072,
      "y": 0.0064140851609408855,
      "z": 0.026419922709465027,
      "time_usec": 151662325547
    },
    {
      "x": 0.010231993161141872,
      "y": 0.005192354787141085,
      "z": 0.026419922709465027,
      "time_usec": 151662327805
    },
    {
      "x": 0.012828170321881771,
      "y": 0.0027488935738801956,
      "z": 0.023976460099220276,
      "time_usec": 151662330060
    },
    {
      "x": 0.018936822190880775,
      "y": 0.005039638374000788,
      "z": 0.021532999351620674,
      "time_usec": 151662332320
    },
    {
      "x": 0.02015855349600315,
      "y": 0.0025961773935705423,
      "z": 0.019089538604021072,
      "time_usec": 151662334577
    },
    {
      "x": 0.022602014243602753,
      "y": 0.0013744467869400978,
      "z": 0.019089538604021072,
      "time_usec": 151662336833
    },
    {
      "x": 0.026419922709465027,
      "y": 0.0025961773935705423,
      "z": 0.01542434748262167,
      "time_usec": 151662339079
    },
    {
      "x": 0.02886338345706463,
      "y": -0.0022907445672899485,
      "z": 0.012980886735022068,
      "time_usec": 151662341346
    },
    {
      "x": 0.025045474991202354,
      "y": -0.003512475173920393,
      "z": 0.014202617108821869,
      "time_usec": 151662343608
    },
    {
      "x": 0.023976460099220276,
      "y": -0.0010690141934901476,
      "z": 0.010537425056099892,
      "time_usec": 151662345869
    },
    {
      "x": 0.021380282938480377,
      "y": -0.003512475173920393,
      "z": 0.00931569468230009,
      "time_usec": 151662348123
    },
    {
      "x": 0.02015855349600315,
      "y": -0.007024950347840786,
      "z": 0.006872233934700489,
      "time_usec": 151662350375
    },
    {
      "x": 0.015271631069481373,
      "y": -0.003359758760780096,
      "z": 0.0032070425804704428,
      "time_usec": 151662352638
    },
    {
      "x": 0.012828170321881771,
      "y": -0.005803219974040985,
      "z": 0.0032070425804704428,
      "time_usec": 151662354896
    },
    {
      "x": 0.009162978269159794,
      "y": -0.003359758760780096,
      "z": 0.003054326167330146,
      "time_usec": 151662357153
    },
    {
      "x": 0.009010262787342072,
      "y": -0.005803219974040985,
      "z": 0.001832595793530345,
      "time_usec": 151662359403
    },
    {
      "x": 0.0065668015740811825,
      "y": -0.007024950347840786,
      "z": -0.00427605677396059,
      "time_usec": 151662361653
    },
    {
      "x": 4.5814894838258624E-4,
      "y": -0.002138028386980295,
      "z": -0.005497787147760391,
      "time_usec": 151662363912
    },
    {
      "x": -7.635815418325365E-4,
      "y": -0.004428773187100887,
      "z": -0.007941247895359993,
      "time_usec": 151662366172
    },
    {
      "x": -0.005803219974040985,
      "y": -0.009162978269159794,
      "z": -0.00931569468230009,
      "time_usec": 151662368443
    },
    {
      "x": -0.005803219974040985,
      "y": -0.012828170321881771,
      "z": -0.00931569468230009,
      "time_usec": 151662370696
    },
    {
      "x": -0.005803219974040985,
      "y": -0.016493361443281174,
      "z": -0.01542434748262167,
      "time_usec": 151662372960
    },
    {
      "x": -0.010690141469240189,
      "y": -0.02122756652534008,
      "z": -0.01542434748262167,
      "time_usec": 151662375216
    },
    {
      "x": -0.010690141469240189,
      "y": -0.022449297830462456,
      "z": -0.01664607785642147,
      "time_usec": 151662377469
    },
    {
      "x": -0.007024950347840786,
      "y": -0.026114489883184433,
      "z": -0.020311269909143448,
      "time_usec": 151662379724
    },
    {
      "x": -0.009621127508580685,
      "y": -0.02733621932566166,
      "z": -0.021532999351620674,
      "time_usec": 151662381988
    },
    {
      "x": -0.008246680721640587,
      "y": -0.028557950630784035,
      "z": -0.02519819140434265,
      "time_usec": 151662384242
    },
    {
      "x": -0.008246680721640587,
      "y": -0.02977968007326126,
      "z": -0.02519819140434265,
      "time_usec": 151662386496
    },
    {
      "x": -0.008246680721640587,
      "y": -0.02733621932566166,
      "z": -0.02886338345706463,
      "time_usec": 151662388759
    },
    {
      "x": -0.005803219974040985,
      "y": -0.02977968007326126,
      "z": -0.03130684420466423,
      "time_usec": 151662391011
    },
    {
      "x": -0.003359758760780096,
      "y": -0.02626720629632473,
      "z": -0.030085112899541855,
      "time_usec": 151662393276
    },
    {
      "x": -0.002138028386980295,
      "y": -0.02382374368607998,
      "z": -0.02886338345706463,
      "time_usec": 151662395533
    },
    {
      "x": -0.005803219974040985,
      "y": -0.022602014243602753,
      "z": -0.027641652151942253,
      "time_usec": 151662397789
    },
    {
      "x": -0.005803219974040985,
      "y": -0.02382374368607998,
      "z": -0.030085112899541855,
      "time_usec": 151662400042
    },
    {
      "x": -0.005803219974040985,
      "y": -0.02382374368607998,
      "z": -0.03130684420466423,
      "time_usec": 151662402305
    },
    {
      "x": -0.004581489134579897,
      "y": -0.02382374368607998,
      "z": -0.03130684420466423,
      "time_usec": 151662404562
    },
    {
      "x": -0.0032070425804704428,
      "y": -0.020311269909143448,
      "z": -0.030085112899541855,
      "time_usec": 151662406821
    },
    {
      "x": -0.005803219974040985,
      "y": -0.02015855349600315,
      "z": -0.03375030308961868,
      "time_usec": 151662409075
    },
    {
      "x": -0.00809396430850029,
      "y": -0.01542434748262167,
      "z": -0.032528575509786606,
      "time_usec": 151662411330
    },
    {
      "x": -0.00809396430850029,
      "y": -0.012980886735022068,
      "z": -0.03130684420466423,
      "time_usec": 151662413590
    },
    {
      "x": -0.006872233934700489,
      "y": -0.010537425056099892,
      "z": -0.030085112899541855,
      "time_usec": 151662415837
    },
    {
      "x": -0.006872233934700489,
      "y": -0.00809396430850029,
      "z": -0.02886338345706463,
      "time_usec": 151662418107
    },
    {
      "x": -0.0032070425804704428,
      "y": -0.004581489134579897,
      "z": -0.027641652151942253,
      "time_usec": 151662420359
    },
    {
      "x": -0.005650503560900688,
      "y": -0.005803219974040985,
      "z": -0.026419922709465027,
      "time_usec": 151662422623
    },
    {
      "x": -0.0019853119738399982,
      "y": -0.004581489134579897,
      "z": -0.02886338345706463,
      "time_usec": 151662424870
    },
    {
      "x": 0.001832595793530345,
      "y": -0.003512475173920393,
      "z": -0.030085112899541855,
      "time_usec": 151662427138
    },
    {
      "x": 0.001832595793530345,
      "y": -0.0022907445672899485,
      "z": -0.027641652151942253,
      "time_usec": 151662429389
    },
    {
      "x": 0.001832595793530345,
      "y": -0.0022907445672899485,
      "z": -0.026419922709465027,
      "time_usec": 151662431651
    },
    {
      "x": 0.00427605677396059,
      "y": -0.003512475173920393,
      "z": -0.02519819140434265,
      "time_usec": 151662433912
    },
    {
      "x": 0.007941247895359993,
      "y": -0.005955935921519995,
      "z": -0.025045474991202354,
      "time_usec": 151662436171
    },
    {
      "x": 0.01160643994808197,
      "y": -0.008399397134780884,
      "z": -0.02626720629632473,
      "time_usec": 151662438412
    },
    {
      "x": 0.016493361443281174,
      "y": -0.014355333521962166,
      "z": -0.022602014243602753,
      "time_usec": 151662440677
    },
    {
      "x": 0.021532999351620674,
      "y": -0.013286318629980087,
      "z": -0.021380282938480377,
      "time_usec": 151662442938
    },
    {
      "x": 0.02382374368607998,
      "y": -0.020463986322283745,
      "z": -0.02015855349600315,
      "time_usec": 151662445197
    },
    {
      "x": 0.02886338345706463,
      "y": -0.02535090781748295,
      "z": -0.021380282938480377,
      "time_usec": 151662447456
    },
    {
      "x": 0.029932396486401558,
      "y": -0.029016099870204926,
      "z": -0.02015855349600315,
      "time_usec": 151662449709
    },
    {
      "x": 0.029932396486401558,
      "y": -0.03145955875515938,
      "z": -0.015271631069481373,
      "time_usec": 151662451970
    },
    {
      "x": 0.031154127791523933,
      "y": -0.03497203439474106,
      "z": -0.01160643994808197,
      "time_usec": 151662454230
    },
    {
      "x": 0.03481931984424591,
      "y": -0.038637228310108185,
      "z": -0.014049900695681572,
      "time_usec": 151662456487
    },
    {
      "x": 0.03726277872920036,
      "y": -0.03985895588994026,
      "z": -0.012675453908741474,
      "time_usec": 151662458742
    },
    {
      "x": 0.03848451003432274,
      "y": -0.038637228310108185,
      "z": -0.009010262787342072,
      "time_usec": 151662460995
    },
    {
      "x": 0.036041051149368286,
      "y": -0.038637228310108185,
      "z": -0.004123340360820293,
      "time_usec": 151662463258
    },
    {
      "x": 0.033597588539123535,
      "y": -0.03375030308961868,
      "z": -0.001679879380390048,
      "time_usec": 151662465515
    },
    {
      "x": 0.03237585723400116,
      "y": -0.03375030308961868,
      "z": 0.0019853119738399982,
      "time_usec": 151662467775
    },
    {
      "x": 0.031154127791523933,
      "y": -0.027641652151942253,
      "z": 0.004428773187100887,
      "time_usec": 151662470026
    },
    {
      "x": 0.031154127791523933,
      "y": -0.026419922709465027,
      "z": 0.005650503560900688,
      "time_usec": 151662472289
    },
    {
      "x": 0.027488935738801956,
      "y": -0.019089538604021072,
      "z": 0.010537425056099892,
      "time_usec": 151662474546
    },
    {
      "x": 0.027488935738801956,
      "y": -0.01191187184303999,
      "z": 0.012980886735022068,
      "time_usec": 151662476805
    },
    {
      "x": 0.025045474991202354,
      "y": -0.004734205547720194,
      "z": 0.012980886735022068,
      "time_usec": 151662479060
    },
    {
      "x": 0.02015855349600315,
      "y": -0.003359758760780096,
      "z": 0.019089538604021072,
      "time_usec": 151662481314
    },
    {
      "x": 0.022602014243602753,
      "y": 0.0025961773935705423,
      "z": 0.020311269909143448,
      "time_usec": 151662483577
    },
    {
      "x": 0.01771509274840355,
      "y": 0.006261368747800589,
      "z": 0.020311269909143448,
      "time_usec": 151662485834
    },
    {
      "x": 0.019089538604021072,
      "y": 0.01237002108246088,
      "z": 0.02535090781748295,
      "time_usec": 151662488089
    },
    {
      "x": 0.016493361443281174,
      "y": 0.009926560334861279,
      "z": 0.02519819140434265,
      "time_usec": 151662490344
    },
    {
      "x": 0.012828170321881771,
      "y": 0.008857546374201775,
      "z": 0.023976460099220276,
      "time_usec": 151662492607
    },
    {
      "x": 0.01160643994808197,
      "y": 0.008857546374201775,
      "z": 0.02886338345706463,
      "time_usec": 151662494865
    },
    {
      "x": 0.012828170321881771,
      "y": 0.008857546374201775,
      "z": 0.02886338345706463,
      "time_usec": 151662497122
    },
    {
      "x": 0.012828170321881771,
      "y": 0.0064140851609408855,
      "z": 0.027641652151942253,
      "time_usec": 151662499373
    },
    {
      "x": 0.012828170321881771,
      "y": 0.0027488935738801956,
      "z": 0.023976460099220276,
      "time_usec": 151662501632
    },
    {
      "x": 0.015271631069481373,
      "y": 0.001527163083665073,
      "z": 0.023976460099220276,
      "time_usec": 151662503896
    },
    {
      "x": 0.012675453908741474,
      "y": 3.054326225537807E-4,
      "z": 0.023976460099220276,
      "time_usec": 151662506154
    },
    {
      "x": 0.01771509274840355,
      "y": -0.002138028386980295,
      "z": 0.020311269909143448,
      "time_usec": 151662508410
    },
    {
      "x": 0.01771509274840355,
      "y": -0.003359758760780096,
      "z": 0.019089538604021072,
      "time_usec": 151662510662
    },
    {
      "x": 0.016493361443281174,
      "y": -0.005803219974040985,
      "z": 0.01542434748262167,
      "time_usec": 151662512922
    },
    {
      "x": 0.02015855349600315,
      "y": -0.004581489134579897,
      "z": 0.011759156361222267,
      "time_usec": 151662515169
    },
    {
      "x": 0.021380282938480377,
      "y": -0.007024950347840786,
      "z": 0.010537425056099892,
      "time_usec": 151662517437
    },
    {
      "x": 0.018936822190880775,
      "y": -0.005803219974040985,
      "z": 0.006872233934700489,
      "time_usec": 151662519693
    },
    {
      "x": 0.016493361443281174,
      "y": -0.007024950347840786,
      "z": 0.004428773187100887,
      "time_usec": 151662521960
    },
    {
      "x": 0.01771509274840355,
      "y": -0.005803219974040985,
      "z": 0.0032070425804704428,
      "time_usec": 151662524219
    },
    {
      "x": 0.014049900695681572,
      "y": -0.003359758760780096,
      "z": 0.0019853119738399982,
      "time_usec": 151662526476
    },
    {
      "x": 0.01038470957428217,
      "y": -0.004581489134579897,
      "z": -0.001832595793530345,
      "time_usec": 151662528726
    },
    {
      "x": 0.0065668015740811825,
      "y": -0.004581489134579897,
      "z": -6.108652451075613E-4,
      "time_usec": 151662530979
    },
    {
      "x": 0.004123340360820293,
      "y": -0.003359758760780096,
      "z": -0.005497787147760391,
      "time_usec": 151662533241
    },
    {
      "x": 0.004123340360820293,
      "y": -0.003359758760780096,
      "z": -0.006719517521560192,
      "time_usec": 151662535495
    },
    {
      "x": -0.0032070425804704428,
      "y": 3.054326225537807E-4,
      "z": -0.01160643994808197,
      "time_usec": 151662537758
    },
    {
      "x": -0.006872233934700489,
      "y": 0.007635815534740686,
      "z": -0.01160643994808197,
      "time_usec": 151662540012
    },
    {
      "x": -0.011759156361222267,
      "y": 0.012522737495601177,
      "z": -0.014202617108821869,
      "time_usec": 151662542275
    },
    {
      "x": -0.01664607785642147,
      "y": 0.011301007121801376,
      "z": -0.014202617108821869,
      "time_usec": 151662544527
    },
    {
      "x": -0.014202617108821869,
      "y": 0.010079276748001575,
      "z": -0.01542434748262167,
      "time_usec": 151662546777
    },
    {
      "x": -0.017867809161543846,
      "y": 0.010079276748001575,
      "z": -0.014202617108821869,
      "time_usec": 151662549043
    },
    {
      "x": -0.018020525574684143,
      "y": 0.0065668015740811825,
      "z": -0.012980886735022068,
      "time_usec": 151662551287
    },
    {
      "x": -0.022907447069883347,
      "y": 0.005345070734620094,
      "z": -0.014202617108821869,
      "time_usec": 151662553551
    },
    {
      "x": -0.02168571576476097,
      "y": 0.004123340360820293,
      "z": -0.014202617108821869,
      "time_usec": 151662555819
    },
    {
      "x": -0.02168571576476097,
      "y": 0.001679879380390048,
      "z": -0.01542434748262167,
      "time_usec": 151662558079
    },
    {
      "x": -0.02535090781748295,
      "y": -6.108652451075613E-4,
      "z": -0.01664607785642147,
      "time_usec": 151662560332
    },
    {
      "x": -0.02535090781748295,
      "y": 0.001832595793530345,
      "z": -0.02168571576476097,
      "time_usec": 151662562591
    },
    {
      "x": -0.027947084978222847,
      "y": -0.001832595793530345,
      "z": -0.02168571576476097,
      "time_usec": 151662564848
    },
    {
      "x": -0.029168816283345222,
      "y": -0.007788531947880983,
      "z": -0.024129176512360573,
      "time_usec": 151662567106
    },
    {
      "x": -0.0328340083360672,
      "y": -0.011453723534941673,
      "z": -0.024129176512360573,
      "time_usec": 151662569358
    },
    {
      "x": -0.03787364438176155,
      "y": -0.012522737495601177,
      "z": -0.02779436856508255,
      "time_usec": 151662571617
    },
    {
      "x": -0.036651913076639175,
      "y": -0.01863138936460018,
      "z": -0.030237829312682152,
      "time_usec": 151662573880
    },
    {
      "x": -0.039095375686883926,
      "y": -0.017409659922122955,
      "z": -0.03039054572582245,
      "time_usec": 151662576139
    },
    {
      "x": -0.0403171069920063,
      "y": -0.017409659922122955,
      "z": -0.031612277030944824,
      "time_usec": 151662578395
    },
    {
      "x": -0.04153883829712868,
      "y": -0.018478672951459885,
      "z": -0.03039054572582245,
      "time_usec": 151662580647
    },
    {
      "x": -0.04153883829712868,
      "y": -0.017409659922122955,
      "z": -0.03405573591589928,
      "time_usec": 151662582911
    },
    {
      "x": -0.04398229718208313,
      "y": -0.012522737495601177,
      "z": -0.03527746722102165,
      "time_usec": 151662585172
    },
    {
      "x": -0.05009094998240471,
      "y": -0.011301007121801376,
      "z": -0.03894266113638878,
      "time_usec": 151662587424
    },
    {
      "x": -0.04886921867728233,
      "y": -0.013744467869400978,
      "z": -0.04138612002134323,
      "time_usec": 151662589677
    },
    {
      "x": -0.05009094998240471,
      "y": -0.011301007121801376,
      "z": -0.04260785132646561,
      "time_usec": 151662591937
    },
    {
      "x": -0.05375614017248154,
      "y": -0.008857546374201775,
      "z": -0.04260785132646561,
      "time_usec": 151662594194
    },
    {
      "x": -0.05619960278272629,
      "y": -0.010079276748001575,
      "z": -0.04764748737215996,
      "time_usec": 151662596457
    },
    {
      "x": -0.059864792972803116,
      "y": -0.0027488935738801956,
      "z": -0.051312681287527084,
      "time_usec": 151662598712
    },
    {
      "x": -0.05742133408784866,
      "y": -0.004123340360820293,
      "z": -0.05375614017248154,
      "time_usec": 151662600966
    },
    {
      "x": -0.05864306539297104,
      "y": 0.0032070425804704428,
      "z": -0.05864306539297104,
      "time_usec": 151662603226
    },
    {
      "x": -0.05742133408784866,
      "y": 7.635815418325365E-4,
      "z": -0.05864306539297104,
      "time_usec": 151662605481
    },
    {
      "x": -0.059864792972803116,
      "y": 0.003054326167330146,
      "z": -0.06230825558304787,
      "time_usec": 151662607743
    },
    {
      "x": -0.05971207842230797,
      "y": 0.007941247895359993,
      "z": -0.06719517707824707,
      "time_usec": 151662609995
    },
    {
      "x": -0.05604688450694084,
      "y": 0.010231993161141872,
      "z": -0.06963863968849182,
      "time_usec": 151662612260
    },
    {
      "x": -0.05849034711718559,
      "y": 0.010231993161141872,
      "z": -0.07208210229873657,
      "time_usec": 151662614512
    },
    {
      "x": -0.05971207842230797,
      "y": 0.009010262787342072,
      "z": -0.07330382615327835,
      "time_usec": 151662616761
    },
    {
      "x": -0.05971207842230797,
      "y": 0.011453723534941673,
      "z": -0.07696902006864548,
      "time_usec": 151662619029
    },
    {
      "x": -0.05971207842230797,
      "y": 0.0065668015740811825,
      "z": -0.07819075137376785,
      "time_usec": 151662621283
    },
    {
      "x": -0.060933809727430344,
      "y": 0.007788531947880983,
      "z": -0.07819075137376785,
      "time_usec": 151662623549
    },
    {
      "x": -0.05849034711718559,
      "y": 0.00427605677396059,
      "z": -0.07819075137376785,
      "time_usec": 151662625803
    },
    {
      "x": -0.060933809727430344,
      "y": 0.003054326167330146,
      "z": -0.07941248267889023,
      "time_usec": 151662628061
    },
    {
      "x": -0.05971207842230797,
      "y": 0.001832595793530345,
      "z": -0.08185594528913498,
      "time_usec": 151662630314
    },
    {
      "x": -0.060933809727430344,
      "y": 6.108652451075613E-4,
      "z": -0.0832303911447525,
      "time_usec": 151662632576
    },
    {
      "x": -0.05971207842230797,
      "y": -0.001832595793530345,
      "z": -0.08445212244987488,
      "time_usec": 151662634833
    },
    {
      "x": -0.06108652427792549,
      "y": -0.010231993161141872,
      "z": -0.0832303911447525,
      "time_usec": 151662637091
    },
    {
      "x": -0.05864306539297104,
      "y": -0.016340645030140877,
      "z": -0.08567385375499725,
      "time_usec": 151662639343
    },
    {
      "x": -0.05619960278272629,
      "y": -0.02229658141732216,
      "z": -0.08445212244987488,
      "time_usec": 151662641598
    },
    {
      "x": -0.05009094998240471,
      "y": -0.029626963660120964,
      "z": -0.08185594528913498,
      "time_usec": 151662643848
    },
    {
      "x": -0.047800205647945404,
      "y": -0.041691552847623825,
      "z": -0.08078692853450775,
      "time_usec": 151662646110
    },
    {
      "x": -0.042760565876960754,
      "y": -0.044135015457868576,
      "z": -0.0806342139840126,
      "time_usec": 151662648380
    },
    {
      "x": -0.04153883829712868,
      "y": -0.04657847434282303,
      "z": -0.08185594528913498,
      "time_usec": 151662650631
    },
    {
      "x": -0.03787364438176155,
      "y": -0.050243668258190155,
      "z": -0.07819075137376785,
      "time_usec": 151662652884
    },
    {
      "x": -0.03420845419168472,
      "y": -0.05268712714314461,
      "z": -0.07696902006864548,
      "time_usec": 151662655151
    },
    {
      "x": -0.030543262138962746,
      "y": -0.05268712714314461,
      "z": -0.0757472887635231,
      "time_usec": 151662657407
    },
    {
      "x": -0.03176499158143997,
      "y": -0.050243668258190155,
      "z": -0.07208210229873657,
      "time_usec": 151662659658
    },
    {
      "x": -0.03298672288656235,
      "y": -0.04535674303770065,
      "z": -0.0708603709936142,
      "time_usec": 151662661923
    },
    {
      "x": -0.03298672288656235,
      "y": -0.047800205647945404,
      "z": -0.06841690838336945,
      "time_usec": 151662664177
    },
    {
      "x": -0.03298672288656235,
      "y": -0.04535674303770065,
      "z": -0.06215553730726242,
      "time_usec": 151662666443
    },
    {
      "x": -0.03298672288656235,
      "y": -0.044135015457868576,
      "z": -0.05604688450694084,
      "time_usec": 151662668696
    },
    {
      "x": -0.036651913076639175,
      "y": -0.041691552847623825,
      "z": -0.054825156927108765,
      "time_usec": 151662670953
    },
    {
      "x": -0.03420845419168472,
      "y": -0.04046982154250145,
      "z": -0.04993823543190956,
      "time_usec": 151662673217
    },
    {
      "x": -0.03298672288656235,
      "y": -0.035582900047302246,
      "z": -0.048716504126787186,
      "time_usec": 151662675471
    },
    {
      "x": -0.036651913076639175,
      "y": -0.03191770985722542,
      "z": -0.046273041516542435,
      "time_usec": 151662677727
    },
    {
      "x": -0.03420845419168472,
      "y": -0.02825251780450344,
      "z": -0.040164388716220856,
      "time_usec": 151662679978
    },
    {
      "x": -0.02932153269648552,
      "y": -0.027183502912521362,
      "z": -0.03878994286060333,
      "time_usec": 151662682241
    },
    {
      "x": -0.027947084978222847,
      "y": -0.023518312722444534,
      "z": -0.03390302136540413,
      "time_usec": 151662684492
    },
    {
      "x": -0.02428189292550087,
      "y": -0.02229658141732216,
      "z": -0.02779436856508255,
      "time_usec": 151662686743
    },
    {
      "x": -0.019394971430301666,
      "y": -0.02122756652534008,
      "z": -0.02535090781748295,
      "time_usec": 151662688999
    },
    {
      "x": -0.013133603148162365,
      "y": -0.020005837082862854,
      "z": -0.02275473065674305,
      "time_usec": 151662691258
    },
    {
      "x": -0.008246680721640587,
      "y": -0.014049900695681572,
      "z": -0.020311269909143448,
      "time_usec": 151662693517
    },
    {
      "x": -0.003359758760780096,
      "y": -0.016493361443281174,
      "z": -0.017867809161543846,
      "time_usec": 151662695775
    },
    {
      "x": 0.001679879380390048,
      "y": -0.011759156361222267,
      "z": -0.012828170321881771,
      "time_usec": 151662698032
    },
    {
      "x": 0.001679879380390048,
      "y": -0.011759156361222267,
      "z": -0.01160643994808197,
      "time_usec": 151662700291
    },
    {
      "x": 0.005345070734620094,
      "y": -0.011759156361222267,
      "z": -0.007941247895359993,
      "time_usec": 151662702549
    },
    {
      "x": 0.009010262787342072,
      "y": -0.010537425056099892,
      "z": -0.005497787147760391,
      "time_usec": 151662704808
    },
    {
      "x": 0.009010262787342072,
      "y": -0.009468411095440388,
      "z": -0.00427605677396059,
      "time_usec": 151662707078
    },
    {
      "x": 0.012828170321881771,
      "y": -0.009468411095440388,
      "z": -0.00427605677396059,
      "time_usec": 151662709333
    },
    {
      "x": 0.014049900695681572,
      "y": -0.008246680721640587,
      "z": -6.108652451075613E-4,
      "time_usec": 151662711581
    },
    {
      "x": 0.015271631069481373,
      "y": -0.004581489134579897,
      "z": 0.004428773187100887,
      "time_usec": 151662713845
    },
    {
      "x": 0.016493361443281174,
      "y": -0.003359758760780096,
      "z": 0.006872233934700489,
      "time_usec": 151662716094
    },
    {
      "x": 0.02015855349600315,
      "y": -0.0010690141934901476,
      "z": 0.00931569468230009,
      "time_usec": 151662718365
    },
    {
      "x": 0.023976460099220276,
      "y": 0.0013744467869400978,
      "z": 0.014202617108821869,
      "time_usec": 151662720616
    },
    {
      "x": 0.02519819140434265,
      "y": 0.00733038317412138,
      "z": 0.016798794269561768,
      "time_usec": 151662722881
    },
    {
      "x": 0.02519819140434265,
      "y": 0.009773843921720982,
      "z": 0.020463986322283745,
      "time_usec": 151662725136
    },
    {
      "x": 0.02275473065674305,
      "y": 0.012217304669320583,
      "z": 0.02168571576476097,
      "time_usec": 151662727393
    },
    {
      "x": 0.026419922709465027,
      "y": 0.01466076634824276,
      "z": 0.024129176512360573,
      "time_usec": 151662729646
    },
    {
      "x": 0.023976460099220276,
      "y": 0.01466076634824276,
      "z": 0.022907447069883347,
      "time_usec": 151662731910
    },
    {
      "x": 0.02779436856508255,
      "y": 0.019394971430301666,
      "z": 0.026572637259960175,
      "time_usec": 151662734171
    },
    {
      "x": 0.02519819140434265,
      "y": 0.020616702735424042,
      "z": 0.02779436856508255,
      "time_usec": 151662736425
    },
    {
      "x": 0.026572637259960175,
      "y": 0.023060163483023643,
      "z": 0.02779436856508255,
      "time_usec": 151662738681
    },
    {
      "x": 0.02535090781748295,
      "y": 0.02428189292550087,
      "z": 0.026572637259960175,
      "time_usec": 151662740932
    },
    {
      "x": 0.02519819140434265,
      "y": 0.023060163483023643,
      "z": 0.02779436856508255,
      "time_usec": 151662743193
    },
    {
      "x": 0.02275473065674305,
      "y": 0.021991148591041565,
      "z": 0.03390302136540413,
      "time_usec": 151662745454
    },
    {
      "x": 0.02275473065674305,
      "y": 0.01710422709584236,
      "z": 0.03145955875515938,
      "time_usec": 151662747709
    },
    {
      "x": 0.019089538604021072,
      "y": 0.018325956538319588,
      "z": 0.03145955875515938,
      "time_usec": 151662749954
    },
    {
      "x": 0.01771509274840355,
      "y": 0.016035212203860283,
      "z": 0.030237829312682152,
      "time_usec": 151662752213
    },
    {
      "x": 0.016493361443281174,
      "y": 0.009926560334861279,
      "z": 0.02779436856508255,
      "time_usec": 151662754480
    },
    {
      "x": 0.02015855349600315,
      "y": 0.008704829961061478,
      "z": 0.02535090781748295,
      "time_usec": 151662756746
    },
    {
      "x": 0.022602014243602753,
      "y": 3.054326225537807E-4,
      "z": 0.024129176512360573,
      "time_usec": 151662759001
    },
    {
      "x": 0.021380282938480377,
      "y": 0.001527163083665073,
      "z": 0.023976460099220276,
      "time_usec": 151662761253
    },
    {
      "x": 0.02015855349600315,
      "y": 0.001527163083665073,
      "z": 0.02275473065674305,
      "time_usec": 151662763514
    },
    {
      "x": 0.02382374368607998,
      "y": 3.054326225537807E-4,
      "z": 0.024129176512360573,
      "time_usec": 151662765772
    },
    {
      "x": 0.02886338345706463,
      "y": 0.0025961773935705423,
      "z": 0.02168571576476097,
      "time_usec": 151662768030
    },
    {
      "x": 0.02886338345706463,
      "y": 0.006108652334660292,
      "z": 0.022907447069883347,
      "time_usec": 151662770283
    },
    {
      "x": 0.026419922709465027,
      "y": 0.009773843921720982,
      "z": 0.022907447069883347,
      "time_usec": 151662772545
    },
    {
      "x": 0.027641652151942253,
      "y": 0.012217304669320583,
      "z": 0.022907447069883347,
      "time_usec": 151662774803
    },
    {
      "x": 0.030085112899541855,
      "y": 0.013439035043120384,
      "z": 0.024129176512360573,
      "time_usec": 151662777061
    },
    {
      "x": 0.030237829312682152,
      "y": 0.020616702735424042,
      "z": 0.022907447069883347,
      "time_usec": 151662779316
    },
    {
      "x": 0.03145955875515938,
      "y": 0.026572637259960175,
      "z": 0.022907447069883347,
      "time_usec": 151662781569
    },
    {
      "x": 0.03039054572582245,
      "y": 0.032681290060281754,
      "z": 0.02168571576476097,
      "time_usec": 151662783832
    },
    {
      "x": 0.03649919852614403,
      "y": 0.03497203439474106,
      "z": 0.020463986322283745,
      "time_usec": 151662786089
    },
    {
      "x": 0.03649919852614403,
      "y": 0.036193765699863434,
      "z": 0.02168571576476097,
      "time_usec": 151662788345
    },
    {
      "x": 0.03649919852614403,
      "y": 0.03848451003432274,
      "z": 0.016798794269561768,
      "time_usec": 151662790600
    },
    {
      "x": 0.03787364438176155,
      "y": 0.03848451003432274,
      "z": 0.018020525574684143,
      "time_usec": 151662792864
    },
    {
      "x": 0.0403171069920063,
      "y": 0.036041051149368286,
      "z": 0.016798794269561768,
      "time_usec": 151662795121
    },
    {
      "x": 0.039095375686883926,
      "y": 0.03726277872920036,
      "z": 0.014355333521962166,
      "time_usec": 151662797378
    },
    {
      "x": 0.03405573591589928,
      "y": 0.036193765699863434,
      "z": 0.015577063895761967,
      "time_usec": 151662799630
    },
    {
      "x": 0.03527746722102165,
      "y": 0.03130684420466423,
      "z": 0.013133603148162365,
      "time_usec": 151662801893
    },
    {
      "x": 0.03405573591589928,
      "y": 0.03726277872920036,
      "z": 0.015577063895761967,
      "time_usec": 151662804151
    },
    {
      "x": 0.029168816283345222,
      "y": 0.036193765699863434,
      "z": 0.01924225501716137,
      "time_usec": 151662806409
    },
    {
      "x": 0.02672535367310047,
      "y": 0.03985895588994026,
      "z": 0.018020525574684143,
      "time_usec": 151662808664
    },
    {
      "x": 0.024129176512360573,
      "y": 0.03741549700498581,
      "z": 0.01924225501716137,
      "time_usec": 151662810915
    },
    {
      "x": 0.02168571576476097,
      "y": 0.03634648025035858,
      "z": 0.020463986322283745,
      "time_usec": 151662813174
    },
    {
      "x": 0.011759156361222267,
      "y": 0.03756821155548096,
      "z": 0.019089538604021072,
      "time_usec": 151662815427
    },
    {
      "x": 0.006872233934700489,
      "y": 0.040164388716220856,
      "z": 0.020311269909143448,
      "time_usec": 151662817696
    },
    {
      "x": 0.0019853119738399982,
      "y": 0.04138612002134323,
      "z": 0.02275473065674305,
      "time_usec": 151662819951
    },
    {
      "x": -0.00427605677396059,
      "y": 0.039095375686883926,
      "z": 0.020311269909143448,
      "time_usec": 151662822220
    },
    {
      "x": -0.007941247895359993,
      "y": 0.039095375686883926,
      "z": 0.02275473065674305,
      "time_usec": 151662824469
    },
    {
      "x": -0.01160643994808197,
      "y": 0.042760565876960754,
      "z": 0.021532999351620674,
      "time_usec": 151662826728
    },
    {
      "x": -0.020311269909143448,
      "y": 0.044135015457868576,
      "z": 0.021380282938480377,
      "time_usec": 151662828982
    },
    {
      "x": -0.02519819140434265,
      "y": 0.050243668258190155,
      "z": 0.021380282938480377,
      "time_usec": 151662831235
    },
    {
      "x": -0.030085112899541855,
      "y": 0.05268712714314461,
      "z": 0.018936822190880775,
      "time_usec": 151662833495
    },
    {
      "x": -0.03756821155548096,
      "y": 0.05390885844826698,
      "z": 0.022602014243602753,
      "time_usec": 151662835756
    },
    {
      "x": -0.03878994286060333,
      "y": 0.05390885844826698,
      "z": 0.021380282938480377,
      "time_usec": 151662838014
    },
    {
      "x": -0.038637228310108185,
      "y": 0.058795779943466187,
      "z": 0.02382374368607998,
      "time_usec": 151662840269
    },
    {
      "x": -0.041233405470848083,
      "y": 0.06001751124858856,
      "z": 0.02382374368607998,
      "time_usec": 151662842529
    },
    {
      "x": -0.041233405470848083,
      "y": 0.058795779943466187,
      "z": 0.02015855349600315,
      "time_usec": 151662844787
    },
    {
      "x": -0.03985895588994026,
      "y": 0.06123924255371094,
      "z": 0.022602014243602753,
      "time_usec": 151662847046
    },
    {
      "x": -0.038637228310108185,
      "y": 0.06108652427792549,
      "z": 0.02015855349600315,
      "time_usec": 151662849299
    },
    {
      "x": -0.038637228310108185,
      "y": 0.05757404863834381,
      "z": 0.02015855349600315,
      "time_usec": 151662851547
    },
    {
      "x": -0.03497203439474106,
      "y": 0.05742133408784866,
      "z": 0.018936822190880775,
      "time_usec": 151662853817
    },
    {
      "x": -0.031154127791523933,
      "y": 0.06108652427792549,
      "z": 0.012828170321881771,
      "time_usec": 151662856074
    },
    {
      "x": -0.032528575509786606,
      "y": 0.05864306539297104,
      "z": 0.012828170321881771,
      "time_usec": 151662858334
    },
    {
      "x": -0.02886338345706463,
      "y": 0.05375614017248154,
      "z": 0.01038470957428217,
      "time_usec": 151662860585
    },
    {
      "x": -0.02886338345706463,
      "y": 0.04764748737215996,
      "z": 0.006719517521560192,
      "time_usec": 151662862848
    },
    {
      "x": -0.03130684420466423,
      "y": 0.04046982154250145,
      "z": 0.0029016099870204926,
      "time_usec": 151662865106
    },
    {
      "x": -0.027641652151942253,
      "y": 0.03436116874217987,
      "z": 0.001679879380390048,
      "time_usec": 151662867362
    },
    {
      "x": -0.03145955875515938,
      "y": 0.032070424407720566,
      "z": -7.635815418325365E-4,
      "time_usec": 151662869615
    },
    {
      "x": -0.03145955875515938,
      "y": 0.027183502912521362,
      "z": -0.0032070425804704428,
      "time_usec": 151662871877
    },
    {
      "x": -0.03145955875515938,
      "y": 0.020005837082862854,
      "z": -0.00809396430850029,
      "time_usec": 151662874135
    },
    {
      "x": -0.03649919852614403,
      "y": 0.017562376335263252,
      "z": -0.00931569468230009,
      "time_usec": 151662876394
    },
    {
      "x": -0.04138612002134323,
      "y": 0.00931569468230009,
      "z": -0.010690141469240189,
      "time_usec": 151662878649
    },
    {
      "x": -0.042760565876960754,
      "y": 0.004428773187100887,
      "z": -0.01191187184303999,
      "time_usec": 151662880904
    },
    {
      "x": -0.045204028487205505,
      "y": 9.162978967651725E-4,
      "z": -0.016798794269561768,
      "time_usec": 151662883171
    },
    {
      "x": -0.04642575979232788,
      "y": -0.0064140851609408855,
      "z": -0.015577063895761967,
      "time_usec": 151662885423
    },
    {
      "x": -0.047800205647945404,
      "y": -0.013591751456260681,
      "z": -0.015577063895761967,
      "time_usec": 151662887681
    },
    {
      "x": -0.0503963828086853,
      "y": -0.021991148591041565,
      "z": -0.01572977937757969,
      "time_usec": 151662889930
    },
    {
      "x": -0.05161811411380768,
      "y": -0.02672535367310047,
      "z": -0.01572977937757969,
      "time_usec": 151662892191
    },
    {
      "x": -0.0529925599694252,
      "y": -0.03756821155548096,
      "z": -0.01572977937757969,
      "time_usec": 151662894453
    },
    {
      "x": -0.05543602257966995,
      "y": -0.04596760869026184,
      "z": -0.01572977937757969,
      "time_usec": 151662896712
    },
    {
      "x": -0.05665775015950203,
      "y": -0.048258353024721146,
      "z": -0.01572977937757969,
      "time_usec": 151662898968
    },
    {
      "x": -0.0529925599694252,
      "y": -0.054367005825042725,
      "z": -0.01572977937757969,
      "time_usec": 151662901221
    },
    {
      "x": -0.0555887371301651,
      "y": -0.05910121276974678,
      "z": -0.014508049935102463,
      "time_usec": 151662903480
    },
    {
      "x": -0.054367005825042725,
      "y": -0.060322944074869156,
      "z": -0.010842857882380486,
      "time_usec": 151662905741
    },
    {
      "x": -0.05314527451992035,
      "y": -0.06154467165470123,
      "z": -0.009621127508580685,
      "time_usec": 151662907999
    },
    {
      "x": -0.054367005825042725,
      "y": -0.060322944074869156,
      "z": -0.007177666760981083,
      "time_usec": 151662910254
    },
    {
      "x": -0.0507018156349659,
      "y": -0.05910121276974678,
      "z": -0.005955935921519995,
      "time_usec": 151662912513
    },
    {
      "x": -0.04688390716910362,
      "y": -0.056810468435287476,
      "z": -0.003512475173920393,
      "time_usec": 151662914765
    },
    {
      "x": -0.04444044828414917,
      "y": -0.05925392732024193,
      "z": -0.0010690141934901476,
      "time_usec": 151662917030
    },
    {
      "x": -0.04199698567390442,
      "y": -0.056810468435287476,
      "z": 0.001527163083665073,
      "time_usec": 151662919286
    },
    {
      "x": -0.04077525436878204,
      "y": -0.05192354694008827,
      "z": 0.005192354787141085,
      "time_usec": 151662921541
    },
    {
      "x": -0.04077525436878204,
      "y": -0.047189339995384216,
      "z": 0.007635815534740686,
      "time_usec": 151662923799
    },
    {
      "x": -0.03451388701796532,
      "y": -0.04612032696604729,
      "z": 0.005192354787141085,
      "time_usec": 151662926043
    },
    {
      "x": -0.032070424407720566,
      "y": -0.041233405470848083,
      "z": 0.005192354787141085,
      "time_usec": 151662928302
    },
    {
      "x": -0.03573561832308769,
      "y": -0.03878994286060333,
      "z": 0.007635815534740686,
      "time_usec": 151662930561
    },
    {
      "x": -0.03329215571284294,
      "y": -0.03527746722102165,
      "z": 0.008857546374201775,
      "time_usec": 151662932835
    },
    {
      "x": -0.029474247246980667,
      "y": -0.03405573591589928,
      "z": 0.0065668015740811825,
      "time_usec": 151662935092
    },
    {
      "x": -0.027030786499381065,
      "y": -0.02932153269648552,
      "z": 0.005345070734620094,
      "time_usec": 151662937350
    },
    {
      "x": -0.027030786499381065,
      "y": -0.02687807008624077,
      "z": 0.005345070734620094,
      "time_usec": 151662939599
    },
    {
      "x": -0.028099801391363144,
      "y": -0.022143865004181862,
      "z": 0.004123340360820293,
      "time_usec": 151662941862
    },
    {
      "x": -0.02687807008624077,
      "y": -0.018478672951459885,
      "z": 0.0029016099870204926,
      "time_usec": 151662944119
    },
    {
      "x": -0.02321287989616394,
      "y": -0.01970040425658226,
      "z": 0.0029016099870204926,
      "time_usec": 151662946378
    },
    {
      "x": -0.024434609338641167,
      "y": -0.020922135561704636,
      "z": 0.0029016099870204926,
      "time_usec": 151662948633
    },
    {
      "x": -0.025656340643763542,
      "y": -0.018478672951459885,
      "z": 0.001679879380390048,
      "time_usec": 151662950886
    },
    {
      "x": -0.024434609338641167,
      "y": -0.01725694350898266,
      "z": 0.004123340360820293,
      "time_usec": 151662953150
    },
    {
      "x": -0.025656340643763542,
      "y": -0.01725694350898266,
      "z": 0.005345070734620094,
      "time_usec": 151662955408
    },
    {
      "x": -0.024434609338641167,
      "y": -0.014966198243200779,
      "z": 0.005345070734620094,
      "time_usec": 151662957666
    },
    {
      "x": -0.025656340643763542,
      "y": -0.01725694350898266,
      "z": 0.009010262787342072,
      "time_usec": 151662959918
    },
    {
      "x": -0.024434609338641167,
      "y": -0.01725694350898266,
      "z": 0.009010262787342072,
      "time_usec": 151662962176
    },
    {
      "x": -0.02687807008624077,
      "y": -0.020922135561704636,
      "z": 0.0065668015740811825,
      "time_usec": 151662964437
    },
    {
      "x": -0.02687807008624077,
      "y": -0.020922135561704636,
      "z": 0.009010262787342072,
      "time_usec": 151662966696
    },
    {
      "x": -0.021991148591041565,
      "y": -0.018478672951459885,
      "z": 0.012675453908741474,
      "time_usec": 151662968953
    },
    {
      "x": -0.019547687843441963,
      "y": -0.022143865004181862,
      "z": 0.010231993161141872,
      "time_usec": 151662971210
    },
    {
      "x": -0.01710422709584236,
      "y": -0.020922135561704636,
      "z": 0.011453723534941673,
      "time_usec": 151662973470
    },
    {
      "x": -0.01466076634824276,
      "y": -0.027030786499381065,
      "z": 0.011453723534941673,
      "time_usec": 151662975725
    },
    {
      "x": -0.007177666760981083,
      "y": -0.03191770985722542,
      "z": 0.01038470957428217,
      "time_usec": 151662977982
    },
    {
      "x": -0.0022907445672899485,
      "y": -0.038026362657547,
      "z": 0.007941247895359993,
      "time_usec": 151662980236
    },
    {
      "x": 0.0025961773935705423,
      "y": -0.044135015457868576,
      "z": 0.007941247895359993,
      "time_usec": 151662982495
    },
    {
      "x": 0.006261368747800589,
      "y": -0.04657847434282303,
      "z": 0.01038470957428217,
      "time_usec": 151662984752
    },
    {
      "x": 0.01114829070866108,
      "y": -0.04902193695306778,
      "z": 0.009162978269159794,
      "time_usec": 151662987001
    },
    {
      "x": 0.016035212203860283,
      "y": -0.04902193695306778,
      "z": 0.01038470957428217,
      "time_usec": 151662989270
    },
    {
      "x": 0.018478672951459885,
      "y": -0.05268712714314461,
      "z": 0.01160643994808197,
      "time_usec": 151662991524
    },
    {
      "x": 0.024587325751781464,
      "y": -0.06001751124858856,
      "z": 0.014202617108821869,
      "time_usec": 151662993789
    },
    {
      "x": 0.032070424407720566,
      "y": -0.058795779943466187,
