{
  "rotations": [
    {
      "x": -0.12736541032791138,
      "y": -0.24633140861988068,
      "z": 0.002138028386980295,
      "time_usec": 667972970849
    },
    {
      "x": -0.12751811742782593,
      "y": -0.2620611786842346,
      "z": -0.005345070734620094,
      "time_usec": 667972973105
    },
    {
      "x": -0.12018773704767227,
      "y": -0.2741257846355438,
      "z": -0.0065668015740811825,
      "time_usec": 667972975359
    },
    {
      "x": -0.12140946835279465,
      "y": -0.28496864438056946,
      "z": -0.010231993161141872,
      "time_usec": 667972977606
    },
    {
      "x": -0.11789698898792267,
      "y": -0.29107728600502014,
      "z": -0.0029016099870204926,
      "time_usec": 667972979874
    },
    {
      "x": -0.11407908797264099,
      "y": -0.2935207486152649,
      "z": -0.004123340360820293,
      "time_usec": 667972982136
    },
    {
      "x": -0.10919216275215149,
      "y": -0.29474249482154846,
      "z": 0.002138028386980295,
      "time_usec": 667972984397
    },
    {
      "x": -0.10674870014190674,
      "y": -0.2922990322113037,
      "z": 0.007024950347840786,
      "time_usec": 667972986654
    },
    {
      "x": -0.09926560521125793,
      "y": -0.285121351480484,
      "z": 0.015577063895761967,
      "time_usec": 667972988909
    },
    {
      "x": -0.09178250283002853,
      "y": -0.2744311988353729,
      "z": 0.01572977937757969,
      "time_usec": 667972991167
    },
    {
      "x": -0.08552113175392151,
      "y": -0.2600758671760559,
      "z": 0.016951510682702065,
      "time_usec": 667972993424
    },
    {
      "x": -0.07299839705228806,
      "y": -0.24342979490756989,
      "z": 0.019547687843441963,
      "time_usec": 667972995683
    },
    {
      "x": -0.06536258012056351,
      "y": -0.21700987219810486,
      "z": 0.024587325751781464,
      "time_usec": 667972997940
    },
    {
      "x": -0.05772676691412926,
      "y": -0.18936823308467865,
      "z": 0.02474004216492176,
      "time_usec": 667973000198
    },
    {
      "x": -0.04886921867728233,
      "y": -0.1618792861700058,
      "z": 0.03084869496524334,
      "time_usec": 667973002456
    },
    {
      "x": -0.04001167416572571,
      "y": -0.1342376321554184,
      "z": 0.02977968007326126,
      "time_usec": 667973004715
    },
    {
      "x": -0.03237585723400116,
      "y": -0.10308351367712021,
      "z": 0.033597588539123535,
      "time_usec": 667973006974
    },
    {
      "x": -0.02733621932566166,
      "y": -0.08032877743244171,
      "z": 0.03481931984424591,
      "time_usec": 667973009228
    },
    {
      "x": -0.023365596309304237,
      "y": -0.05268712714314461,
      "z": 0.03497203439474106,
      "time_usec": 667973011486
    },
    {
      "x": -0.020616702735424042,
      "y": -0.02977968007326126,
      "z": 0.04001167416572571,
      "time_usec": 667973013743
    },
    {
      "x": -0.018020525574684143,
      "y": -0.005803219974040985,
      "z": 0.03756821155548096,
      "time_usec": 667973015999
    },
    {
      "x": -0.017867809161543846,
      "y": 0.015882495790719986,
      "z": 0.04001167416572571,
      "time_usec": 667973018246
    },
    {
      "x": -0.018936822190880775,
      "y": 0.03756821155548096,
      "z": 0.040164388716220856,
      "time_usec": 667973020518
    },
    {
      "x": -0.02122756652534008,
      "y": 0.0555887371301651,
      "z": 0.04260785132646561,
      "time_usec": 667973022776
    },
    {
      "x": -0.02474004216492176,
      "y": 0.07376197725534439,
      "z": 0.04138612002134323,
      "time_usec": 667973025036
    },
    {
      "x": -0.028405234217643738,
      "y": 0.09056077152490616,
      "z": 0.03649919852614403,
      "time_usec": 667973027290
    },
    {
      "x": -0.03436116874217987,
      "y": 0.10262536257505417,
      "z": 0.0328340083360672,
      "time_usec": 667973029548
    },
    {
      "x": -0.039248090237379074,
      "y": 0.10995574295520782,
      "z": 0.030237829312682152,
      "time_usec": 667973031806
    },
    {
      "x": -0.04795292019844055,
      "y": 0.11484266817569733,
      "z": 0.02535090781748295,
      "time_usec": 667973034063
    },
    {
      "x": -0.055283304303884506,
      "y": 0.11728613078594208,
      "z": 0.018020525574684143,
      "time_usec": 667973036321
    },
    {
      "x": -0.061391957104206085,
      "y": 0.11850785464048386,
      "z": 0.011759156361222267,
      "time_usec": 667973038580
    },
    {
      "x": -0.06627888232469559,
      "y": 0.11728613078594208,
      "z": 0.004428773187100887,
      "time_usec": 667973040837
    },
    {
      "x": -0.07498370856046677,
      "y": 0.11621711403131485,
      "z": 6.108652451075613E-4,
      "time_usec": 667973043087
    },
    {
      "x": -0.08368854224681854,
      "y": 0.10659598559141159,
      "z": -0.00427605677396059,
      "time_usec": 667973045350
    },
    {
      "x": -0.0887281745672226,
      "y": 0.09697485715150833,
      "z": -0.011759156361222267,
      "time_usec": 667973047603
    },
    {
      "x": -0.09483683109283447,
      "y": 0.09346238523721695,
      "z": -0.014202617108821869,
      "time_usec": 667973049864
    },
    {
      "x": -0.09865473955869675,
      "y": 0.08139779418706894,
      "z": -0.02168571576476097,
      "time_usec": 667973052125
    },
    {
      "x": -0.09743300825357437,
      "y": 0.06811147183179855,
      "z": -0.026572637259960175,
      "time_usec": 667973054384
    },
    {
      "x": -0.09269879758358002,
      "y": 0.04993823543190956,
      "z": -0.035124752670526505,
      "time_usec": 667973056642
    },
    {
      "x": -0.09147707372903824,
      "y": 0.03436116874217987,
      "z": -0.041233405470848083,
      "time_usec": 667973058899
    },
    {
      "x": -0.08429940044879913,
      "y": 0.007635815534740686,
      "z": -0.054825156927108765,
      "time_usec": 667973061156
    },
    {
      "x": -0.08200865983963013,
      "y": -0.01771509274840355,
      "z": -0.06963863968849182,
      "time_usec": 667973063414
    },
    {
      "x": -0.07956519722938538,
      "y": -0.03833179548382759,
      "z": -0.07941248267889023,
      "time_usec": 667973065671
    },
    {
      "x": -0.07849618047475815,
      "y": -0.06490442901849747,
      "z": -0.09911288321018219,
      "time_usec": 667973067926
    },
    {
      "x": -0.07864890247583389,
      "y": -0.09392052888870239,
      "z": -0.11270463466644287,
      "time_usec": 667973070174
    },
    {
      "x": -0.08139779418706894,
      "y": -0.12522737681865692,
      "z": -0.12736541032791138,
      "time_usec": 667973072444
    },
    {
      "x": -0.08277224004268646,
      "y": -0.1540907621383667,
      "z": -0.13729196786880493,
      "time_usec": 667973074703
    },
    {
      "x": -0.08552113175392151,
      "y": -0.1866193264722824,
      "z": -0.14844025671482086,
      "time_usec": 667973076964
    },
    {
      "x": -0.09178250283002853,
      "y": -0.2154827117919922,
      "z": -0.1595885455608368,
      "time_usec": 667973079216
    },
    {
      "x": -0.09453139454126358,
      "y": -0.24556782841682434,
      "z": -0.1719585657119751,
      "time_usec": 667973081470
    },
    {
      "x": -0.09712757170200348,
      "y": -0.26969701051712036,
      "z": -0.17928895354270935,
      "time_usec": 667973083733
    },
    {
      "x": -0.10216721147298813,
      "y": -0.29138273000717163,
      "z": -0.1892155110836029,
      "time_usec": 667973085991
    },
    {
      "x": -0.10735956579446793,
      "y": -0.31291571259498596,
      "z": -0.19303341209888458,
      "time_usec": 667973088248
    },
    {
      "x": -0.10873401165008545,
      "y": -0.3274237811565399,
      "z": -0.19547687470912933,
      "time_usec": 667973090500
    },
    {
      "x": -0.1111774742603302,
      "y": -0.3358231782913208,
      "z": -0.19792033731937408,
      "time_usec": 667973092759
    },
    {
      "x": -0.1137736514210701,
      "y": -0.33689218759536743,
      "z": -0.19792033731937408,
      "time_usec": 667973095023
    },
    {
      "x": -0.11499538272619247,
      "y": -0.33567044138908386,
      "z": -0.1966986060142517,
      "time_usec": 667973097280
    },
    {
      "x": -0.11239920556545258,
      "y": -0.337044894695282,
      "z": -0.19792033731937408,
      "time_usec": 667973099536
    },
    {
      "x": -0.10751228034496307,
      "y": -0.3286454975605011,
      "z": -0.19303341209888458,
      "time_usec": 667973101790
    },
    {
      "x": -0.10247264802455902,
      "y": -0.31780263781547546,
      "z": -0.18799377977848053,
      "time_usec": 667973104050
    },
    {
      "x": -0.09743300825357437,
      "y": -0.30344730615615845,
      "z": -0.1843285858631134,
      "time_usec": 667973106297
    },
    {
      "x": -0.0887281745672226,
      "y": -0.28787025809288025,
      "z": -0.17318029701709747,
      "time_usec": 667973108567
    },
    {
      "x": -0.07498370856046677,
      "y": -0.2710714638233185,
      "z": -0.16325373947620392,
      "time_usec": 667973110817
    },
    {
      "x": -0.062460970133543015,
      "y": -0.2519819140434265,
      "z": -0.15332718193531036,
      "time_usec": 667973113077
    },
    {
      "x": -0.05360342562198639,
      "y": -0.2255619913339615,
      "z": -0.14340060949325562,
      "time_usec": 667973115341
    },
    {
      "x": -0.038637228310108185,
      "y": -0.20036379992961884,
      "z": -0.12980885803699493,
      "time_usec": 667973117585
    },
    {
      "x": -0.02367102913558483,
      "y": -0.16920967400074005,
      "z": -0.11621711403131485,
      "time_usec": 667973119845
    },
    {
      "x": -0.006108652334660292,
      "y": -0.13805554807186127,
      "z": -0.10980302840471268,
      "time_usec": 667973122108
    },
    {
      "x": 0.013897184282541275,
      "y": -0.10216721147298813,
      "z": -0.1010981947183609,
      "time_usec": 667973124375
    },
    {
      "x": 0.03145955875515938,
      "y": -0.06750060617923737,
      "z": -0.08979719132184982,
      "time_usec": 667973126632
    },
    {
      "x": 0.04902193695306778,
      "y": -0.03634648025035858,
      "z": -0.07987063378095627,
      "time_usec": 667973128888
    },
    {
      "x": 0.07024950534105301,
      "y": -0.004123340360820293,
      "z": -0.07483099400997162,
      "time_usec": 667973131139
    },
    {
      "x": 0.08903361111879349,
      "y": 0.025656340643763542,
      "z": -0.0708603709936142,
      "time_usec": 667973133396
    },
    {
      "x": 0.10781771689653397,
      "y": 0.0555887371301651,
      "z": -0.0633772686123848,
      "time_usec": 667973135660
    },
    {
      "x": 0.12660181522369385,
      "y": 0.08552113175392151,
      "z": -0.058337632566690445,
      "time_usec": 667973137918
    },
    {
      "x": 0.14278975129127502,
      "y": 0.11301007121801376,
      "z": -0.05207626149058342,
      "time_usec": 667973140172
    },
    {
      "x": 0.15790866315364838,
      "y": 0.1440114825963974,
      "z": -0.04948008432984352,
      "time_usec": 667973142434
    },
    {
      "x": 0.17180584371089935,
      "y": 0.17760907113552094,
      "z": -0.048105638474226,
      "time_usec": 667973144691
    },
    {
      "x": 0.18188512325286865,
      "y": 0.20387627184391022,
      "z": -0.046731192618608475,
      "time_usec": 667973146950
    },
    {
      "x": 0.18829920887947083,
      "y": 0.23273965716362,
      "z": -0.0429132841527462,
      "time_usec": 667973149206
    },
    {
      "x": 0.19349156320095062,
      "y": 0.2638937830924988,
      "z": -0.036651913076639175,
      "time_usec": 667973151459
    },
    {
      "x": 0.19975294172763824,
      "y": 0.2831360399723053,
      "z": -0.03420845419168472,
      "time_usec": 667973153722
    },
    {
      "x": 0.20234911143779755,
      "y": 0.30711251497268677,
      "z": -0.031612277030944824,
      "time_usec": 667973155980
    },
    {
      "x": 0.20631973445415497,
      "y": 0.32391130924224854,
      "z": -0.0328340083360672,
      "time_usec": 667973158237
    },
    {
      "x": 0.2050980031490326,
      "y": 0.3396410644054413,
      "z": -0.03405573591589928,
      "time_usec": 667973160490
    },
    {
      "x": 0.20402899384498596,
      "y": 0.346818745136261,
      "z": -0.03649919852614403,
      "time_usec": 667973162751
    },
    {
      "x": 0.20402899384498596,
      "y": 0.35155296325683594,
      "z": -0.04138612002134323,
      "time_usec": 667973165008
    },
    {
      "x": 0.2015855312347412,
      "y": 0.346818745136261,
      "z": -0.04749477282166481,
      "time_usec": 667973167270
    },
    {
      "x": 0.1941024363040924,
      "y": 0.33597588539123535,
      "z": -0.05497787147760391,
      "time_usec": 667973169526
    },
    {
      "x": 0.18539759516716003,
      "y": 0.32039880752563477,
      "z": -0.06490442901849747,
      "time_usec": 667973171784
    },
    {
      "x": 0.18020524084568024,
      "y": 0.2952006161212921,
      "z": -0.0734565481543541,
      "time_usec": 667973174039
    },
    {
      "x": 0.17150041460990906,
      "y": 0.27351492643356323,
      "z": -0.0858265683054924,
      "time_usec": 667973176286
    },
    {
      "x": 0.16019940376281738,
      "y": 0.24342979490756989,
      "z": -0.10201449692249298,
      "time_usec": 667973178542
    },
    {
      "x": 0.14752395451068878,
      "y": 0.20631973445415497,
      "z": -0.11560624837875366,
      "time_usec": 667973180809
    },
    {
      "x": 0.1362229436635971,
      "y": 0.16783522069454193,
      "z": -0.13041973114013672,
      "time_usec": 667973183073
    },
    {
      "x": 0.12599095702171326,
      "y": 0.12690725922584534,
      "z": -0.14416420459747314,
      "time_usec": 667973185335
    },
    {
      "x": 0.11331550031900406,
      "y": 0.08491026610136032,
      "z": -0.15286903083324432,
      "time_usec": 667973187588
    },
    {
      "x": 0.10186178237199783,
      "y": 0.040622539818286896,
      "z": -0.1615738570690155,
      "time_usec": 667973189841
    },
    {
      "x": 0.09040805697441101,
      "y": -0.005039638374000788,
      "z": -0.16661348938941956,
      "time_usec": 667973192097
    },
    {
      "x": 0.07773260027170181,
      "y": -0.04214970022439957,
      "z": -0.17287486791610718,
      "time_usec": 667973194358
    },
    {
      "x": 0.06872233748435974,
      "y": -0.08292495459318161,
      "z": -0.1742493063211441,
      "time_usec": 667973196610
    },
    {
      "x": 0.059864792972803116,
      "y": -0.11530081182718277,
      "z": -0.1768454909324646,
      "time_usec": 667973198876
    },
    {
      "x": 0.049785517156124115,
      "y": -0.14294247329235077,
      "z": -0.1794416606426239,
      "time_usec": 667973201129
    },
    {
      "x": 0.047189339995384216,
      "y": -0.16569720208644867,
      "z": -0.18188512325286865,
      "time_usec": 667973203395
    },
    {
      "x": 0.03833179548382759,
      "y": -0.18127426505088806,
      "z": -0.18325957655906677,
      "time_usec": 667973205649
    },
    {
      "x": 0.038179077208042145,
      "y": -0.19685132801532745,
      "z": -0.18448130786418915,
      "time_usec": 667973207907
    },
    {
      "x": 0.03695734590291977,
      "y": -0.20525072515010834,
      "z": -0.1820378452539444,
      "time_usec": 667973210160
    },
    {
      "x": 0.038179077208042145,
      "y": -0.2064724564552307,
      "z": -0.18448130786418915,
      "time_usec": 667973212422
    },
    {
      "x": 0.044287730008363724,
      "y": -0.20784689486026764,
      "z": -0.18570303916931152,
      "time_usec": 667973214677
    },
    {
      "x": 0.05054909735918045,
      "y": -0.20662516355514526,
      "z": -0.1820378452539444,
      "time_usec": 667973216927
    },
    {
      "x": 0.05925392732024193,
      "y": -0.20204368233680725,
      "z": -0.18188512325286865,
      "time_usec": 667973219194
    },
    {
      "x": 0.07040221989154816,
      "y": -0.19486601650714874,
      "z": -0.18310685455799103,
      "time_usec": 667973221449
    },
    {
      "x": 0.08032877743244171,
      "y": -0.18295414745807648,
      "z": -0.17928895354270935,
      "time_usec": 667973223715
    },
    {
      "x": 0.09285151958465576,
      "y": -0.168751522898674,
      "z": -0.17806722223758698,
      "time_usec": 667973225969
    },
    {
      "x": 0.10659598559141159,
      "y": -0.1472185254096985,
      "z": -0.17180584371089935,
      "time_usec": 667973228226
    },
    {
      "x": 0.11530081182718277,
      "y": -0.12446379661560059,
      "z": -0.1618792861700058,
      "time_usec": 667973230479
    },
    {
      "x": 0.1241583600640297,
      "y": -0.10277807712554932,
      "z": -0.15317445993423462,
      "time_usec": 667973232743
    },
    {
      "x": 0.13301590085029602,
      "y": -0.07757988572120667,
      "z": -0.1469130963087082,
      "time_usec": 667973234998
    },
    {
      "x": 0.14065171778202057,
      "y": -0.046273041516542435,
      "z": -0.13209961354732513,
      "time_usec": 667973237254
    },
    {
      "x": 0.15073099732398987,
      "y": -0.020005837082862854,
      "z": -0.12095131725072861,
      "time_usec": 667973239515
    },
    {
      "x": 0.1569923609495163,
      "y": 0.007788531947880983,
      "z": -0.10735956579446793,
      "time_usec": 667973241768
    },
    {
      "x": 0.15729780495166779,
      "y": 0.0403171069920063,
      "z": -0.096211276948452,
      "time_usec": 667973244032
    },
    {
      "x": 0.1586722433567047,
      "y": 0.06673702597618103,
      "z": -0.08521570265293121,
      "time_usec": 667973246288
    },
    {
      "x": 0.15760323405265808,
      "y": 0.09941831976175308,
      "z": -0.07284568250179291,
      "time_usec": 667973248546
    },
    {
      "x": 0.16019940376281738,
      "y": 0.12461651116609573,
      "z": -0.06536258012056351,
      "time_usec": 667973250801
    },
    {
      "x": 0.15790866315364838,
      "y": 0.1511891484260559,
      "z": -0.05314527451992035,
      "time_usec": 667973253069
    },
    {
      "x": 0.15806138515472412,
      "y": 0.17531833052635193,
      "z": -0.04199698567390442,
      "time_usec": 667973255320
    },
    {
      "x": 0.15577064454555511,
      "y": 0.19822576642036438,
      "z": -0.03588833287358284,
      "time_usec": 667973257579
    },
    {
      "x": 0.15347988903522491,
      "y": 0.21395555138587952,
      "z": -0.025961773470044136,
      "time_usec": 667973259831
    },
    {
      "x": 0.14492778480052948,
      "y": 0.2298380434513092,
      "z": -0.017409659922122955,
      "time_usec": 667973262079
    },
    {
      "x": 0.13988813757896423,
      "y": 0.2396118938922882,
      "z": -0.008857546374201775,
      "time_usec": 667973264340
    },
    {
      "x": 0.13744467496871948,
      "y": 0.24327708780765533,
      "z": 0.002138028386980295,
      "time_usec": 667973266608
    },
    {
      "x": 0.12507465481758118,
      "y": 0.2483167201280594,
      "z": 0.010690141469240189,
      "time_usec": 667973268866
    },
    {
      "x": 0.11530081182718277,
      "y": 0.2545780837535858,
      "z": 0.01924225501716137,
      "time_usec": 667973271120
    },
    {
      "x": 0.10293079167604446,
      "y": 0.26083946228027344,
      "z": 0.030237829312682152,
      "time_usec": 667973273381
    },
    {
      "x": 0.08933904021978378,
      "y": 0.260992169380188,
      "z": 0.035124752670526505,
      "time_usec": 667973275639
    },
    {
      "x": 0.0731511116027832,
      "y": 0.26481008529663086,
      "z": 0.04352414980530739,
      "time_usec": 667973277896
    },
    {
      "x": 0.0607810914516449,
      "y": 0.2638937830924988,
      "z": 0.053297992795705795,
      "time_usec": 667973280148
    },
    {
      "x": 0.04963280260562897,
      "y": 0.26053401827812195,
      "z": 0.05696318298578262,
      "time_usec": 667973282407
    },
    {
      "x": 0.037110064178705215,
      "y": 0.2535090744495392,
      "z": 0.06414084881544113,
      "time_usec": 667973284669
    },
    {
      "x": 0.027183502912521362,
      "y": 0.2379320114850998,
      "z": 0.06658431142568588,
      "time_usec": 667973286928
    },
    {
      "x": 0.013439035043120384,
      "y": 0.22372940182685852,
      "z": 0.07009678333997726,
      "time_usec": 667973289184
    },
    {
      "x": 0.002138028386980295,
      "y": 0.20830504596233368,
      "z": 0.06994406878948212,
      "time_usec": 667973291437
    },
    {
      "x": -0.007941247895359993,
      "y": 0.19028452038764954,
      "z": 0.06994406878948212,
      "time_usec": 667973293701
    },
    {
      "x": -0.02168571576476097,
      "y": 0.17012597620487213,
      "z": 0.07223481684923172,
      "time_usec": 667973295958
    },
    {
      "x": -0.03420845419168472,
      "y": 0.14385876059532166,
      "z": 0.07452555745840073,
      "time_usec": 667973298212
    },
    {
      "x": -0.04566217586398125,
      "y": 0.11621711403131485,
      "z": 0.0731511116027832,
      "time_usec": 667973300458
    },
    {
      "x": -0.055741455405950546,
      "y": 0.09117163717746735,
      "z": 0.0780380368232727,
      "time_usec": 667973302721
    },
    {
      "x": -0.06459899991750717,
      "y": 0.0659734457731247,
      "z": 0.0754418596625328,
      "time_usec": 667973304989
    },
    {
      "x": -0.07590000331401825,
      "y": 0.039706241339445114,
      "z": 0.07284568250179291,
      "time_usec": 667973307249
    },
    {
      "x": -0.0884227454662323,
      "y": 0.013439035043120384,
      "z": 0.07391469180583954,
      "time_usec": 667973309505
    },
    {
      "x": -0.09728029370307922,
      "y": -0.014202617108821869,
      "z": 0.07147123664617538,
      "time_usec": 667973311758
    },
    {
      "x": -0.10873401165008545,
      "y": -0.039248090237379074,
      "z": 0.06887505948543549,
      "time_usec": 667973314019
    },
    {
      "x": -0.11255192011594772,
      "y": -0.06444628536701202,
      "z": 0.06750060617923737,
      "time_usec": 667973316277
    },
    {
      "x": -0.12263119965791702,
      "y": -0.08368854224681854,
      "z": 0.06750060617923737,
      "time_usec": 667973318535
    },
    {
      "x": -0.13011430203914642,
      "y": -0.10155634582042694,
      "z": 0.06368270516395569,
      "time_usec": 667973320788
    },
    {
      "x": -0.13775011897087097,
      "y": -0.11713340878486633,
      "z": 0.06108652427792549,
      "time_usec": 667973323051
    },
    {
      "x": -0.14523321390151978,
      "y": -0.12660181522369385,
      "z": 0.06108652427792549,
      "time_usec": 667973325308
    },
    {
      "x": -0.1488984078168869,
      "y": -0.13026700913906097,
      "z": 0.06108652427792549,
      "time_usec": 667973327567
    },
    {
      "x": -0.1488984078168869,
      "y": -0.13377949595451355,
      "z": 0.06230825558304787,
      "time_usec": 667973329820
    },
    {
      "x": -0.14905111491680145,
      "y": -0.1362229436635971,
      "z": 0.06108652427792549,
      "time_usec": 667973332075
    },
    {
      "x": -0.14767667651176453,
      "y": -0.13377949595451355,
      "z": 0.059864792972803116,
      "time_usec": 667973334338
    },
    {
      "x": -0.1440114825963974,
      "y": -0.13271047174930573,
      "z": 0.05619960278272629,
      "time_usec": 667973336594
    },
    {
      "x": -0.14019356667995453,
      "y": -0.13041973114013672,
      "z": 0.05619960278272629,
      "time_usec": 667973338855
    },
    {
      "x": -0.13775011897087097,
      "y": -0.1267545372247696,
      "z": 0.05619960278272629,
      "time_usec": 667973341107
    },
    {
      "x": -0.13271047174930573,
      "y": -0.12202033400535583,
      "z": 0.051312681287527084,
      "time_usec": 667973343370
    },
    {
      "x": -0.1290452778339386,
      "y": -0.11850785464048386,
      "z": 0.051312681287527084,
      "time_usec": 667973345629
    },
    {
      "x": -0.12034045159816742,
      "y": -0.11255192011594772,
      "z": 0.05146539583802223,
      "time_usec": 667973347886
    },
    {
      "x": -0.11163562536239624,
      "y": -0.10674870014190674,
      "z": 0.04902193695306778,
      "time_usec": 667973350138
    },
    {
      "x": -0.10415252298116684,
      "y": -0.09957103431224823,
      "z": 0.04795292019844055,
      "time_usec": 667973352400
    },
    {
      "x": -0.09407325088977814,
      "y": -0.08781187981367111,
      "z": 0.046731192618608475,
      "time_usec": 667973354658
    },
    {
      "x": -0.08536841720342636,
      "y": -0.0806342139840126,
      "z": 0.04688390716910362,
      "time_usec": 667973356911
    },
    {
      "x": -0.07910704612731934,
      "y": -0.06383541971445084,
      "z": 0.04932736977934837,
      "time_usec": 667973359158
    },
    {
      "x": -0.07162395119667053,
      "y": -0.05192354694008827,
      "z": 0.04566217586398125,
      "time_usec": 667973361419
    },
    {
      "x": -0.06276640295982361,
      "y": -0.03634648025035858,
      "z": 0.04948008432984352,
      "time_usec": 667973363690
    },
    {
      "x": -0.055283304303884506,
      "y": -0.018478672951459885,
      "z": 0.053297992795705795,
      "time_usec": 667973365951
    },
    {
      "x": -0.050243668258190155,
      "y": -0.005345070734620094,
      "z": 0.050854530185461044,
      "time_usec": 667973368207
    },
    {
      "x": -0.04382958263158798,
      "y": 0.010231993161141872,
      "z": 0.05207626149058342,
      "time_usec": 667973370458
    },
    {
      "x": -0.04001167416572571,
      "y": 0.02474004216492176,
      "z": 0.05345070734620094,
      "time_usec": 667973372717
    },
    {
      "x": -0.03375030308961868,
      "y": 0.036651913076639175,
      "z": 0.05711590126156807,
      "time_usec": 667973374965
    },
    {
      "x": -0.03130684420466423,
      "y": 0.049785517156124115,
      "z": 0.060933809727430344,
      "time_usec": 667973377236
    },
    {
      "x": -0.025045474991202354,
      "y": 0.059406645596027374,
      "z": 0.060933809727430344,
      "time_usec": 667973379492
    },
    {
      "x": -0.022449297830462456,
      "y": 0.07024950534105301,
      "z": 0.060933809727430344,
      "time_usec": 667973381750
    },
    {
      "x": -0.019853120669722557,
      "y": 0.07742717117071152,
      "z": 0.06352998316287994,
      "time_usec": 667973384010
    },
    {
      "x": -0.01863138936460018,
      "y": 0.08216137439012527,
      "z": 0.06719517707824707,
      "time_usec": 667973386266
    },
    {
      "x": -0.014966198243200779,
      "y": 0.08460483700037003,
      "z": 0.06719517707824707,
      "time_usec": 667973388524
    },
    {
      "x": -0.013744467869400978,
      "y": 0.08216137439012527,
      "z": 0.06475171446800232,
      "time_usec": 667973390777
    },
    {
      "x": -0.014966198243200779,
      "y": 0.07971791177988052,
      "z": 0.06719517707824707,
      "time_usec": 667973393039
    },
    {
      "x": -0.013744467869400978,
      "y": 0.07620543986558914,
      "z": 0.06841690838336945,
      "time_usec": 667973395297
    },
    {
      "x": -0.014966198243200779,
      "y": 0.07131851464509964,
      "z": 0.06963863968849182,
      "time_usec": 667973397555
    },
    {
      "x": -0.013897184282541275,
      "y": 0.06765332818031311,
      "z": 0.06841690838336945,
      "time_usec": 667973399809
    },
    {
      "x": -0.011453723534941673,
      "y": 0.05803219974040985,
      "z": 0.07208210229873657,
      "time_usec": 667973402069
    },
    {
      "x": -0.0065668015740811825,
      "y": 0.05207626149058342,
      "z": 0.07330382615327835,
      "time_usec": 667973404328
    },
    {
      "x": -0.001679879380390048,
      "y": 0.044745877385139465,
      "z": 0.0757472887635231,
      "time_usec": 667973406587
    },
    {
      "x": 0.005650503560900688,
      "y": 0.032528575509786606,
      "z": 0.06841690838336945,
      "time_usec": 667973408841
    },
    {
      "x": 0.012980886735022068,
      "y": 0.024129176512360573,
      "z": 0.06719517707824707,
      "time_usec": 667973411088
    },
    {
      "x": 0.022907447069883347,
      "y": 0.013133603148162365,
      "z": 0.06108652427792549,
      "time_usec": 667973413359
    },
    {
      "x": 0.02779436856508255,
      "y": 0.004581489134579897,
      "z": 0.05497787147760391,
      "time_usec": 667973415616
    },
    {
      "x": 0.03634648025035858,
      "y": -0.011301007121801376,
      "z": 0.045204028487205505,
      "time_usec": 667973417876
    },
    {
      "x": 0.043676864355802536,
      "y": -0.02580905705690384,
      "z": 0.03787364438176155,
      "time_usec": 667973420128
    },
    {
      "x": 0.049785517156124115,
      "y": -0.04046982154250145,
      "z": 0.02932153269648552,
      "time_usec": 667973422390
    },
    {
      "x": 0.058337632566690445,
      "y": -0.05619960278272629,
      "z": 0.019547687843441963,
      "time_usec": 667973424647
    },
    {
      "x": 0.0656680166721344,
      "y": -0.0708603709936142,
      "z": 0.01466076634824276,
      "time_usec": 667973426906
    },
    {
      "x": 0.07284568250179291,
      "y": -0.08903361111879349,
      "z": 0.005955935921519995,
      "time_usec": 667973429161
    },
    {
      "x": 0.07773260027170181,
      "y": -0.1059851199388504,
      "z": -0.003817907767370343,
      "time_usec": 667973431415
    },
    {
      "x": 0.08139779418706894,
      "y": -0.11331550031900406,
      "z": -0.008704829961061478,
      "time_usec": 667973433678
    },
    {
      "x": 0.08506298810243607,
      "y": -0.12293662875890732,
      "z": -0.013591751456260681,
      "time_usec": 667973435936
    },
    {
      "x": 0.09239336848258972,
      "y": -0.13148874044418335,
      "z": -0.01725694350898266,
      "time_usec": 667973438195
    },
    {
      "x": 0.09987647086381912,
      "y": -0.13637566566467285,
      "z": -0.01970040425658226,
      "time_usec": 667973440446
    },
    {
      "x": 0.10476338863372803,
      "y": -0.14126259088516235,
      "z": -0.01970040425658226,
      "time_usec": 667973442706
    },
    {
      "x": 0.11331550031900406,
      "y": -0.14874568581581116,
      "z": -0.024587325751781464,
      "time_usec": 667973444951
    },
    {
      "x": 0.12079860270023346,
      "y": -0.14996741712093353,
      "z": -0.024434609338641167,
      "time_usec": 667973447210
    },
    {
      "x": 0.12446379661560059,
      "y": -0.14767667651176453,
      "z": -0.02321287989616394,
      "time_usec": 667973449466
    },
    {
      "x": 0.12828169763088226,
      "y": -0.14049901068210602,
      "z": -0.024434609338641167,
      "time_usec": 667973451727
    },
    {
      "x": 0.13072516024112701,
      "y": -0.1333213448524475,
      "z": -0.02321287989616394,
      "time_usec": 667973453985
    },
    {
      "x": 0.13209961354732513,
      "y": -0.12003502249717712,
      "z": -0.019394971430301666,
      "time_usec": 667973456244
    },
    {
      "x": 0.13225232064723969,
      "y": -0.10201449692249298,
      "z": -0.014508049935102463,
      "time_usec": 667973458500
    },
    {
      "x": 0.13118331134319305,
      "y": -0.08017606288194656,
      "z": -0.009621127508580685,
      "time_usec": 667973460758
    },
    {
      "x": 0.13011430203914642,
      "y": -0.05849034711718559,
      "z": -0.004581489134579897,
      "time_usec": 667973463019
    },
    {
      "x": 0.13271047174930573,
      "y": -0.03329215571284294,
      "z": 0.0039706239476799965,
      "time_usec": 667973465289
    },
    {
      "x": 0.12919799983501434,
      "y": -0.012675453908741474,
      "z": 0.013897184282541275,
      "time_usec": 667973467546
    },
    {
      "x": 0.13057245314121246,
      "y": 0.010231993161141872,
      "z": 0.02367102913558483,
      "time_usec": 667973469800
    },
    {
      "x": 0.12568552792072296,
      "y": 0.03191770985722542,
      "z": 0.03237585723400116,
      "time_usec": 667973472054
    },
    {
      "x": 0.12217304855585098,
      "y": 0.05253441259264946,
      "z": 0.03726277872920036,
      "time_usec": 667973474310
    },
    {
      "x": 0.11972958594560623,
      "y": 0.06948592513799667,
      "z": 0.04703662544488907,
      "time_usec": 667973476575
    },
    {
      "x": 0.11988230794668198,
      "y": 0.08750644326210022,
      "z": 0.04841107130050659,
      "time_usec": 667973478833
    },
    {
      "x": 0.11881329119205475,
      "y": 0.10567969083786011,
      "z": 0.05696318298578262,
      "time_usec": 667973481089
    },
    {
      "x": 0.11759155988693237,
      "y": 0.1189660057425499,
      "z": 0.06185010448098183,
      "time_usec": 667973483348
    },
    {
      "x": 0.11774427443742752,
      "y": 0.1333213448524475,
      "z": 0.06688974797725677,
      "time_usec": 667973485606
    },
    {
      "x": 0.11774427443742752,
      "y": 0.1417207419872284,
      "z": 0.06811147183179855,
      "time_usec": 667973487862
    },
    {
      "x": 0.11407908797264099,
      "y": 0.14538592100143433,
      "z": 0.0705549344420433,
      "time_usec": 667973490113
    },
    {
      "x": 0.11041389405727386,
      "y": 0.15027284622192383,
      "z": 0.07177666574716568,
      "time_usec": 667973492367
    },
    {
      "x": 0.10919216275215149,
      "y": 0.14553864300251007,
      "z": 0.07422012835741043,
      "time_usec": 667973494636
    },
    {
      "x": 0.10781771689653397,
      "y": 0.13958270847797394,
      "z": 0.07299839705228806,
      "time_usec": 667973496895
    },
    {
      "x": 0.10659598559141159,
      "y": 0.13240504264831543,
      "z": 0.07162395119667053,
      "time_usec": 667973499154
    },
    {
      "x": 0.10644327104091644,
      "y": 0.1215621829032898,
      "z": 0.07162395119667053,
      "time_usec": 667973501404
    },
    {
      "x": 0.10522153973579407,
      "y": 0.10705413669347763,
      "z": 0.07162395119667053,
      "time_usec": 667973503667
    },
    {
      "x": 0.10384709388017654,
      "y": 0.08903361111879349,
      "z": 0.07162395119667053,
      "time_usec": 667973505925
    },
    {
      "x": 0.10125091671943665,
      "y": 0.0734565481543541,
      "z": 0.06902777403593063,
      "time_usec": 667973508181
    },
    {
      "x": 0.10231992602348328,
      "y": 0.05543602257966995,
      "z": 0.06780604273080826,
      "time_usec": 667973510428
    },
    {
      "x": 0.09972374886274338,
      "y": 0.039706241339445114,
      "z": 0.06658431142568588,
      "time_usec": 667973512697
    },
    {
      "x": 0.0959058403968811,
      "y": 0.030237829312682152,
      "z": 0.06536258012056351,
      "time_usec": 667973514956
    },
    {
      "x": 0.09208793938159943,
      "y": 0.023060163483023643,
      "z": 0.06398813426494598,
      "time_usec": 667973517216
    },
    {
      "x": 0.0884227454662323,
      "y": 0.016951510682702065,
      "z": 0.060322944074869156,
      "time_usec": 667973519470
    },
    {
      "x": 0.08720101416110992,
      "y": 0.013439035043120384,
      "z": 0.06154467165470123,
      "time_usec": 667973521724
    },
    {
      "x": 0.08216137439012527,
      "y": 0.01237002108246088,
      "z": 0.06398813426494598,
      "time_usec": 667973523983
    },
    {
      "x": 0.0809396430850029,
      "y": 0.009926560334861279,
      "z": 0.06643159687519073,
      "time_usec": 667973526232
    },
    {
      "x": 0.07727445662021637,
      "y": 0.013591751456260681,
      "z": 0.06765332818031311,
      "time_usec": 667973528503
    },
    {
      "x": 0.07467827945947647,
      "y": 0.008857546374201775,
      "z": 0.07009678333997726,
      "time_usec": 667973530755
    },
    {
      "x": 0.07956519722938538,
      "y": 0.010079276748001575,
      "z": 0.07498370856046677,
      "time_usec": 667973533021
    },
    {
      "x": 0.078343465924263,
      "y": 0.011301007121801376,
      "z": 0.07620543986558914,
      "time_usec": 667973535275
    },
    {
      "x": 0.07956519722938538,
      "y": 0.011301007121801376,
      "z": 0.07987063378095627,
      "time_usec": 667973537533
    },
    {
      "x": 0.08445212244987488,
      "y": 0.008857546374201775,
      "z": 0.0835358202457428,
      "time_usec": 667973539786
    },
    {
      "x": 0.0907134860754013,
      "y": 0.0074830991216003895,
      "z": 0.08491026610136032,
      "time_usec": 667973542043
    },
    {
      "x": 0.09193521738052368,
      "y": 0.001527163083665073,
      "z": 0.0861319974064827,
      "time_usec": 667973544306
    },
    {
      "x": 0.09926560521125793,
      "y": -0.002138028386980295,
      "z": 0.08979719132184982,
      "time_usec": 667973546563
    },
    {
      "x": 0.10293079167604446,
      "y": -0.007024950347840786,
      "z": 0.08979719132184982,
      "time_usec": 667973548821
    },
    {
      "x": 0.11026117950677872,
      "y": -0.01191187184303999,
      "z": 0.0910189226269722,
      "time_usec": 667973551072
    },
    {
      "x": 0.11514809727668762,
      "y": -0.015577063895761967,
      "z": 0.09224065393209457,
      "time_usec": 667973553337
    },
    {
      "x": 0.12140946835279465,
      "y": -0.018020525574684143,
      "z": 0.09483683109283447,
      "time_usec": 667973555595
    },
    {
      "x": 0.12751811742782593,
      "y": -0.01817324012517929,
      "z": 0.0936150997877121,
      "time_usec": 667973557853
    },
    {
      "x": 0.12996158003807068,
      "y": -0.01572977937757969,
      "z": 0.0936150997877121,
      "time_usec": 667973560104
    },
    {
      "x": 0.12889257073402405,
      "y": -0.012217304669320583,
      "z": 0.08750644326210022,
      "time_usec": 667973562364
    },
    {
      "x": 0.12889257073402405,
      "y": -0.005039638374000788,
      "z": 0.08506298810243607,
      "time_usec": 667973564627
    },
    {
      "x": 0.13026700913906097,
      "y": 0.0010690141934901476,
      "z": 0.08384125679731369,
      "time_usec": 667973566885
    },
    {
      "x": 0.12538009881973267,
      "y": 0.003359758760780096,
      "z": 0.07528914511203766,
      "time_usec": 667973569140
    },
    {
      "x": 0.1215621829032898,
      "y": 0.004581489134579897,
      "z": 0.07269296050071716,
      "time_usec": 667973571393
    },
    {
      "x": 0.11545353382825851,
      "y": 0.01191187184303999,
      "z": 0.07147123664617538,
      "time_usec": 667973573657
    },
    {
      "x": 0.10690141469240189,
      "y": 0.015577063895761967,
      "z": 0.06658431142568588,
      "time_usec": 667973575914
    },
    {
      "x": 0.10323622822761536,
      "y": 0.01924225501716137,
      "z": 0.06658431142568588,
      "time_usec": 667973578172
    },
    {
      "x": 0.0959058403968811,
      "y": 0.024129176512360573,
      "z": 0.06276640295982361,
      "time_usec": 667973580424
    },
    {
      "x": 0.08597928285598755,
      "y": 0.029016099870204926,
      "z": 0.05910121276974678,
      "time_usec": 667973582688
    },
    {
      "x": 0.07376197725534439,
      "y": 0.03649919852614403,
      "z": 0.060322944074869156,
      "time_usec": 667973584945
    },
    {
      "x": 0.06505715101957321,
      "y": 0.04260785132646561,
      "z": 0.05772676691412926,
      "time_usec": 667973587204
    },
    {
      "x": 0.052839845418930054,
      "y": 0.04505131021142006,
      "z": 0.05650503560900688,
      "time_usec": 667973589459
    },
    {
      "x": 0.044135015457868576,
      "y": 0.05009094998240471,
      "z": 0.05268712714314461,
      "time_usec": 667973591713
    },
    {
      "x": 0.03436116874217987,
      "y": 0.05375614017248154,
      "z": 0.050243668258190155,
      "time_usec": 667973593975
    },
    {
      "x": 0.024434609338641167,
      "y": 0.056352317333221436,
      "z": 0.05146539583802223,
      "time_usec": 667973596231
    },
    {
      "x": 0.015882495790719986,
      "y": 0.06123924255371094,
      "z": 0.04886921867728233,
      "time_usec": 667973598490
    },
    {
      "x": 0.0022907445672899485,
      "y": 0.06490442901849747,
      "z": 0.04642575979232788,
      "time_usec": 667973600739
    },
    {
      "x": -0.008704829961061478,
      "y": 0.07238753139972687,
      "z": 0.04886921867728233,
      "time_usec": 667973603004
    },
    {
      "x": -0.017409659922122955,
      "y": 0.076052725315094,
      "z": 0.052381694316864014,
      "time_usec": 667973605252
    },
    {
      "x": -0.02733621932566166,
      "y": 0.07742717117071152,
      "z": 0.054825156927108765,
      "time_usec": 667973607522
    },
    {
      "x": -0.031001411378383636,
      "y": 0.08109235763549805,
      "z": 0.054825156927108765,
      "time_usec": 667973609764
    },
    {
      "x": -0.03588833287358284,
      "y": 0.08720101416110992,
      "z": 0.05360342562198639,
      "time_usec": 667973612025
    },
    {
      "x": -0.03695734590291977,
      "y": 0.09560041129589081,
      "z": 0.052381694316864014,
      "time_usec": 667973614279
    },
    {
      "x": -0.03695734590291977,
      "y": 0.09804387390613556,
      "z": 0.05360342562198639,
      "time_usec": 667973616541
    },
    {
      "x": -0.03573561832308769,
      "y": 0.10766500234603882,
      "z": 0.05604688450694084,
      "time_usec": 667973618800
    },
    {
      "x": -0.030695978552103043,
      "y": 0.11713340878486633,
      "z": 0.054825156927108765,
      "time_usec": 667973621057
    },
    {
      "x": -0.025656340643763542,
      "y": 0.11835514008998871,
      "z": 0.05742133408784866,
      "time_usec": 667973623313
    },
    {
      "x": -0.021991148591041565,
      "y": 0.12186761945486069,
      "z": 0.05619960278272629,
      "time_usec": 667973625570
    },
    {
      "x": -0.01572977937757969,
      "y": 0.1290452778339386,
      "z": 0.05742133408784866,
      "time_usec": 667973627828
    },
    {
      "x": -0.008246680721640587,
      "y": 0.13377949595451355,
      "z": 0.056352317333221436,
      "time_usec": 667973630087
    },
    {
      "x": 0.001527163083665073,
      "y": 0.1336267739534378,
      "z": 0.056352317333221436,
      "time_usec": 667973632347
    },
    {
      "x": 0.007788531947880983,
      "y": 0.13469578325748444,
      "z": 0.05513058975338936,
      "time_usec": 667973634615
    },
    {
      "x": 0.014049900695681572,
      "y": 0.13698652386665344,
      "z": 0.050243668258190155,
      "time_usec": 667973636860
    },
    {
      "x": 0.018936822190880775,
      "y": 0.14049901068210602,
      "z": 0.04795292019844055,
      "time_usec": 667973639119
    },
    {
      "x": 0.02275473065674305,
      "y": 0.13927727937698364,
      "z": 0.044287730008363724,
      "time_usec": 667973641383
    },
    {
      "x": 0.026419922709465027,
      "y": 0.14156801998615265,
      "z": 0.038179077208042145,
      "time_usec": 667973643645
    },
    {
      "x": 0.027641652151942253,
      "y": 0.1391245573759079,
      "z": 0.03695734590291977,
      "time_usec": 667973645894
    },
    {
      "x": 0.026419922709465027,
      "y": 0.13668109476566315,
      "z": 0.029474247246980667,
      "time_usec": 667973648159
    },
    {
      "x": 0.021532999351620674,
      "y": 0.13316862285137177,
      "z": 0.02825251780450344,
      "time_usec": 667973650406
    },
    {
      "x": 0.01771509274840355,
      "y": 0.13072516024112701,
      "z": 0.02580905705690384,
      "time_usec": 667973652677
    },
    {
      "x": 0.01038470957428217,
      "y": 0.1235474944114685,
      "z": 0.021991148591041565,
      "time_usec": 667973654919
    },
    {
      "x": 0.004123340360820293,
      "y": 0.12003502249717712,
      "z": 0.019547687843441963,
      "time_usec": 667973657179
    },
    {
      "x": -0.007024950347840786,
      "y": 0.11056660860776901,
      "z": 0.014508049935102463,
      "time_usec": 667973659433
    },
    {
      "x": -0.01710422709584236,
      "y": 0.10231992602348328,
      "z": 0.014508049935102463,
      "time_usec": 667973661694
    },
    {
      "x": -0.027030786499381065,
      "y": 0.09636399149894714,
      "z": 0.013133603148162365,
      "time_usec": 667973663952
    },
    {
      "x": -0.040622539818286896,
      "y": 0.09300423413515091,
      "z": 0.01191187184303999,
      "time_usec": 667973666213
    },
    {
      "x": -0.05054909735918045,
      "y": 0.08827003091573715,
      "z": 0.00931569468230009,
      "time_usec": 667973668482
    },
    {
      "x": -0.057879481464624405,
      "y": 0.08475755155086517,
      "z": 0.00809396430850029,
      "time_usec": 667973670733
    },
    {
      "x": -0.07162395119667053,
      "y": 0.07773260027170181,
      "z": 0.006719517521560192,
      "time_usec": 667973672988
    },
    {
      "x": -0.07773260027170181,
      "y": 0.07299839705228806,
      "z": 0.00427605677396059,
      "time_usec": 667973675253
    },
    {
      "x": -0.08521570265293121,
      "y": 0.06459899991750717,
      "z": 0.0029016099870204926,
      "time_usec": 667973677510
    },
    {
      "x": -0.09392052888870239,
      "y": 0.05742133408784866,
      "z": 4.5814894838258624E-4,
      "time_usec": 667973679758
    },
    {
      "x": -0.10155634582042694,
      "y": 0.0455094613134861,
      "z": -0.003359758760780096,
      "time_usec": 667973682021
    },
    {
      "x": -0.10522153973579407,
      "y": 0.03481931984424591,
      "z": -0.002138028386980295,
      "time_usec": 667973684282
    },
    {
      "x": -0.10903944820165634,
      "y": 0.029932396486401558,
      "z": -0.004581489134579897,
      "time_usec": 667973686535
    },
    {
      "x": -0.11163562536239624,
      "y": 0.019089538604021072,
      "z": -0.007177666760981083,
      "time_usec": 667973688801
    },
    {
      "x": -0.11407908797264099,
      "y": 0.010690141469240189,
      "z": -0.010842857882380486,
      "time_usec": 667973691056
    },
    {
      "x": -0.11545353382825851,
      "y": 0.0010690141934901476,
      "z": -0.010842857882380486,
      "time_usec": 667973693317
    },
    {
      "x": -0.11301007121801376,
      "y": -0.009773843921720982,
      "z": -0.012064588256180286,
      "time_usec": 667973695571
    },
    {
      "x": -0.11423180252313614,
      "y": -0.009773843921720982,
      "z": -0.012064588256180286,
      "time_usec": 667973697823
    },
    {
      "x": -0.10567969083786011,
      "y": -0.01710422709584236,
      "z": -0.013286318629980087,
      "time_usec": 667973700090
    },
    {
      "x": -0.10567969083786011,
      "y": -0.01466076634824276,
      "z": -0.012064588256180286,
      "time_usec": 667973702352
    },
    {
      "x": -0.10064005106687546,
      "y": -0.013591751456260681,
      "z": -0.016951510682702065,
      "time_usec": 667973704606
    },
    {
      "x": -0.09453139454126358,
      "y": -0.009926560334861279,
      "z": -0.01572977937757969,
      "time_usec": 667973706862
    },
    {
      "x": -0.09560041129589081,
      "y": -0.0064140851609408855,
      "z": -0.01817324012517929,
      "time_usec": 667973709118
    },
    {
      "x": -0.0907134860754013,
      "y": -0.0064140851609408855,
      "z": -0.015577063895761967,
      "time_usec": 667973711368
    },
    {
      "x": -0.08704829961061478,
      "y": -0.0064140851609408855,
      "z": -0.014355333521962166,
      "time_usec": 667973713622
    },
    {
      "x": -0.0832303911447525,
      "y": -0.001679879380390048,
      "z": -0.015577063895761967,
      "time_usec": 667973715892
    },
    {
      "x": -0.078343465924263,
      "y": 0.003054326167330146,
      "z": -0.01191187184303999,
      "time_usec": 667973718150
    },
    {
      "x": -0.07712173461914062,
      "y": 0.005497787147760391,
      "z": -0.013133603148162365,
      "time_usec": 667973720406
    },
    {
      "x": -0.07712173461914062,
      "y": 0.005497787147760391,
      "z": -0.01191187184303999,
      "time_usec": 667973722665
    },
    {
      "x": -0.07696902006864548,
      "y": 0.011453723534941673,
      "z": -0.016798794269561768,
      "time_usec": 667973724923
    },
    {
      "x": -0.07941248267889023,
      "y": 0.015118914656341076,
      "z": -0.014355333521962166,
      "time_usec": 667973727183
    },
    {
      "x": -0.07941248267889023,
      "y": 0.016340645030140877,
      "z": -0.015577063895761967,
      "time_usec": 667973729437
    },
    {
      "x": -0.07941248267889023,
      "y": 0.011453723534941673,
      "z": -0.01924225501716137,
      "time_usec": 667973731691
    },
    {
      "x": -0.0832303911447525,
      "y": 0.007788531947880983,
      "z": -0.024129176512360573,
      "time_usec": 667973733953
    },
    {
      "x": -0.0832303911447525,
      "y": 0.00427605677396059,
      "z": -0.02535090781748295,
      "time_usec": 667973736211
    },
    {
      "x": -0.08933904021978378,
      "y": -0.001679879380390048,
      "z": -0.03039054572582245,
      "time_usec": 667973738469
    },
    {
      "x": -0.09193521738052368,
      "y": -0.01618792861700058,
      "z": -0.03527746722102165,
      "time_usec": 667973740722
    },
    {
      "x": -0.09697485715150833,
      "y": -0.028099801391363144,
      "z": -0.040164388716220856,
      "time_usec": 667973742982
    },
    {
      "x": -0.10201449692249298,
      "y": -0.04138612002134323,
      "z": -0.04398229718208313,
      "time_usec": 667973745232
    },
    {
      "x": -0.10705413669347763,
      "y": -0.059406645596027374,
      "z": -0.04642575979232788,
      "time_usec": 667973747500
    },
    {
      "x": -0.11591167747974396,
      "y": -0.07620543986558914,
      "z": -0.05390885844826698,
      "time_usec": 667973749750
    },
    {
      "x": -0.11957687139511108,
      "y": -0.08567385375499725,
      "z": -0.05772676691412926,
      "time_usec": 667973752005
    },
    {
      "x": -0.12461651116609573,
      "y": -0.09651670604944229,
      "z": -0.05772676691412926,
      "time_usec": 667973754273
    },
    {
      "x": -0.12965615093708038,
      "y": -0.10247264802455902,
      "z": -0.05772676691412926,
      "time_usec": 667973756533
    },
    {
      "x": -0.13469578325748444,
      "y": -0.10965031385421753,
      "z": -0.05772676691412926,
      "time_usec": 667973758797
    },
    {
      "x": -0.1371392458677292,
      "y": -0.10949759185314178,
      "z": -0.05406157299876213,
      "time_usec": 667973761042
    },
    {
      "x": -0.13836097717285156,
      "y": -0.10461067408323288,
      "z": -0.0503963828086853,
      "time_usec": 667973763306
    },
    {
      "x": -0.13958270847797394,
      "y": -0.10461067408323288,
      "z": -0.04306599870324135,
      "time_usec": 667973765560
    },
    {
      "x": -0.13469578325748444,
      "y": -0.09865473955869675,
      "z": -0.03940080851316452,
      "time_usec": 667973767820
    },
    {
      "x": -0.13087788224220276,
      "y": -0.09269879758358002,
      "z": -0.033139441162347794,
      "time_usec": 667973770072
    },
    {
      "x": -0.12599095702171326,
      "y": -0.08307767659425735,
      "z": -0.02825251780450344,
      "time_usec": 667973772325
    },
    {
      "x": -0.1160643994808197,
      "y": -0.07956519722938538,
      "z": -0.027030786499381065,
      "time_usec": 667973774592
    },
    {
      "x": -0.10980302840471268,
      "y": -0.06520986557006836,
      "z": -0.021991148591041565,
      "time_usec": 667973776851
    },
    {
      "x": -0.10094548016786575,
      "y": -0.05207626149058342,
      "z": -0.01817324012517929,
      "time_usec": 667973779109
    },
    {
      "x": -0.09224065393209457,
      "y": -0.04489859566092491,
      "z": -0.016951510682702065,
      "time_usec": 667973781362
    },
    {
      "x": -0.0835358202457428,
      "y": -0.0354301854968071,
      "z": -0.015577063895761967,
      "time_usec": 667973783624
    },
    {
      "x": -0.06994406878948212,
      "y": -0.028405234217643738,
      "z": -0.016798794269561768,
      "time_usec": 667973785881
    },
    {
      "x": -0.05619960278272629,
      "y": -0.022449297830462456,
      "z": -0.01542434748262167,
      "time_usec": 667973788139
    },
    {
      "x": -0.040164388716220856,
      "y": -0.015577063895761967,
      "z": -0.015271631069481373,
      "time_usec": 667973790392
    },
    {
      "x": -0.026419922709465027,
      "y": -0.009621127508580685,
      "z": -0.014049900695681572,
      "time_usec": 667973792655
    },
    {
      "x": -0.007941247895359993,
      "y": -0.005039638374000788,
      "z": -0.016340645030140877,
      "time_usec": 667973794912
    },
    {
      "x": 0.007024950347840786,
      "y": -0.001679879380390048,
      "z": -0.013744467869400978,
      "time_usec": 667973797171
    },
    {
      "x": 0.021838432177901268,
      "y": 0.004123340360820293,
      "z": -0.014966198243200779,
      "time_usec": 667973799427
    },
    {
      "x": 0.03436116874217987,
      "y": 0.013591751456260681,
      "z": -0.014813481830060482,
      "time_usec": 667973801680
    },
    {
      "x": 0.04795292019844055,
      "y": 0.01572977937757969,
      "z": -0.01725694350898266,
      "time_usec": 667973803943
    },
    {
      "x": 0.05665775015950203,
      "y": 0.020463986322283745,
      "z": -0.01710422709584236,
      "time_usec": 667973806200
    },
    {
      "x": 0.06398813426494598,
      "y": 0.02519819140434265,
      "z": -0.01466076634824276,
      "time_usec": 667973808458
    },
    {
      "x": 0.06902777403593063,
      "y": 0.026419922709465027,
      "z": -0.015882495790719986,
      "time_usec": 667973810711
    },
    {
      "x": 0.07147123664617538,
      "y": 0.02626720629632473,
      "z": -0.01466076634824276,
      "time_usec": 667973812974
    },
    {
      "x": 0.07024950534105301,
      "y": 0.02519819140434265,
      "z": -0.015882495790719986,
      "time_usec": 667973815229
    },
    {
      "x": 0.06902777403593063,
      "y": 0.021532999351620674,
      "z": -0.01466076634824276,
      "time_usec": 667973817478
    },
    {
      "x": 0.06520986557006836,
      "y": 0.015577063895761967,
      "z": -0.015882495790719986,
      "time_usec": 667973819741
    },
    {
      "x": 0.06276640295982361,
      "y": 0.009621127508580685,
      "z": -0.01710422709584236,
      "time_usec": 667973822000
    },
    {
      "x": 0.05390885844826698,
      "y": -0.0,
      "z": -0.01970040425658226,
      "time_usec": 667973824265
    },
    {
      "x": 0.045204028487205505,
      "y": -0.007024950347840786,
      "z": -0.020922135561704636,
      "time_usec": 667973826520
    },
    {
      "x": 0.040164388716220856,
      "y": -0.018936822190880775,
      "z": -0.02229658141732216,
      "time_usec": 667973828773
    },
    {
      "x": 0.03527746722102165,
      "y": -0.031001411378383636,
      "z": -0.025961773470044136,
      "time_usec": 667973831030
    },
    {
      "x": 0.020311269909143448,
      "y": -0.03680463135242462,
      "z": -0.028557950630784035,
      "time_usec": 667973833294
    },
    {
      "x": 0.014049900695681572,
      "y": -0.042760565876960754,
      "z": -0.028557950630784035,
      "time_usec": 667973835554
    },
    {
      "x": 0.00427605677396059,
      "y": -0.04382958263158798,
      "z": -0.03237585723400116,
      "time_usec": 667973837810
    },
    {
      "x": -0.0019853119738399982,
      "y": -0.04856378585100174,
      "z": -0.031154127791523933,
      "time_usec": 667973840061
    },
    {
      "x": -0.005803219974040985,
      "y": -0.049785517156124115,
      "z": -0.029932396486401558,
      "time_usec": 667973842309
    },
    {
      "x": -0.01191187184303999,
      "y": -0.050854530185461044,
      "z": -0.03237585723400116,
      "time_usec": 667973844572
    },
    {
      "x": -0.019394971430301666,
      "y": -0.0507018156349659,
      "z": -0.03130684420466423,
      "time_usec": 667973846830
    },
    {
      "x": -0.023060163483023643,
      "y": -0.04841107130050659,
      "z": -0.03497203439474106,
      "time_usec": 667973849101
    },
    {
      "x": -0.02672535367310047,
      "y": -0.04596760869026184,
      "z": -0.03741549700498581,
      "time_usec": 667973851352
    },
    {
      "x": -0.03039054572582245,
      "y": -0.04459316283464432,
      "z": -0.038637228310108185,
      "time_usec": 667973853616
    },
    {
      "x": -0.03405573591589928,
      "y": -0.04581489413976669,
      "z": -0.03985895588994026,
      "time_usec": 667973855869
    },
    {
      "x": -0.03405573591589928,
      "y": -0.03985895588994026,
      "z": -0.04230241850018501,
      "time_usec": 667973858127
    },
    {
      "x": -0.031612277030944824,
      "y": -0.03741549700498581,
      "z": -0.04230241850018501,
      "time_usec": 667973860380
    },
    {
      "x": -0.02779436856508255,
      "y": -0.035124752670526505,
      "z": -0.03741549700498581,
      "time_usec": 667973862643
    },
    {
      "x": -0.02168571576476097,
      "y": -0.03634648025035858,
      "z": -0.036193765699863434,
      "time_usec": 667973864901
    },
    {
      "x": -0.015577063895761967,
      "y": -0.041233405470848083,
      "z": -0.031154127791523933,
      "time_usec": 667973867160
    },
    {
      "x": -0.00809396430850029,
      "y": -0.041233405470848083,
      "z": -0.029932396486401558,
      "time_usec": 667973869416
    },
    {
      "x": 0.0029016099870204926,
      "y": -0.04138612002134323,
      "z": -0.026114489883184433,
      "time_usec": 667973871667
    },
    {
      "x": 0.007941247895359993,
      "y": -0.04382958263158798,
      "z": -0.024892758578062057,
      "time_usec": 667973873921
    },
    {
      "x": 0.01160643994808197,
      "y": -0.04153883829712868,
      "z": -0.020005837082862854,
      "time_usec": 667973876189
    },
    {
      "x": 0.016493361443281174,
      "y": -0.039095375686883926,
      "z": -0.017562376335263252,
      "time_usec": 667973878447
    },
    {
      "x": 0.02275473065674305,
      "y": -0.033139441162347794,
      "z": -0.013744467869400978,
      "time_usec": 667973880703
    },
    {
      "x": 0.026419922709465027,
      "y": -0.03191770985722542,
      "z": -0.008857546374201775,
      "time_usec": 667973882963
    },
    {
      "x": 0.026419922709465027,
      "y": -0.030695978552103043,
      "z": -0.0064140851609408855,
      "time_usec": 667973885221
    },
    {
      "x": 0.030237829312682152,
      "y": -0.029626963660120964,
      "z": -0.0027488935738801956,
      "time_usec": 667973887479
    },
    {
      "x": 0.035124752670526505,
      "y": -0.028405234217643738,
      "z": 0.0022907445672899485,
      "time_usec": 667973889732
    },
    {
      "x": 0.041233405470848083,
      "y": -0.026114489883184433,
      "z": 0.005955935921519995,
      "time_usec": 667973891988
    },
    {
      "x": 0.04260785132646561,
      "y": -0.02122756652534008,
      "z": 0.008399397134780884,
      "time_usec": 667973894251
    },
    {
      "x": 0.048716504126787186,
      "y": -0.014049900695681572,
      "z": 0.015882495790719986,
      "time_usec": 667973896508
    },
    {
      "x": 0.04886921867728233,
      "y": -0.006719517521560192,
      "z": 0.021991148591041565,
      "time_usec": 667973898762
    },
    {
      "x": 0.05009094998240471,
      "y": 0.007635815534740686,
      "z": 0.025656340643763542,
      "time_usec": 667973901020
    },
    {
      "x": 0.05268712714314461,
      "y": 0.01970040425658226,
      "z": 0.029474247246980667,
      "time_usec": 667973903282
    },
    {
      "x": 0.061391957104206085,
      "y": 0.0328340083360672,
      "z": 0.03191770985722542,
      "time_usec": 667973905539
    },
    {
      "x": 0.06643159687519073,
      "y": 0.03878994286060333,
      "z": 0.03329215571284294,
      "time_usec": 667973907787
    },
    {
      "x": 0.06780604273080826,
      "y": 0.04963280260562897,
      "z": 0.03695734590291977,
      "time_usec": 667973910050
    },
    {
      "x": 0.07024950534105301,
      "y": 0.05925392732024193,
      "z": 0.03573561832308769,
      "time_usec": 667973912308
    },
    {
      "x": 0.07528914511203766,
      "y": 0.06154467165470123,
      "z": 0.03329215571284294,
      "time_usec": 667973914574
    },
    {
      "x": 0.07406741380691528,
      "y": 0.06627888232469559,
